{"noOfOrders":182,"noOfRiders":50,"warehouseLocation":{"lat":12.971599,"lng":77.638725},"consignments":[{"id":"a11d717c-d236-4a6c-950f-e3574ea0042c","productId":"SKU_68","name":"Mildred Pierce","status":"PENDING","awb":"51219002743","isDynamicPoint":false,"reachTime":0,"deliveryTime":0,"deliveryLat":0,"deliveryLng":0,"clusterId":null,"address":{"id":"d2567b6f-86f5-458f-8b11-a1a0ad3475c7","address":"776/3 hoskerahalli cross, 80, feat road, near mahesh tyres, Bengaluru, Karnataka 560085","lat":12.9327218,"lng":77.54479189999999,"orderId":"a11d717c-d236-4a6c-950f-e3574ea0042c"}},{"id":"18b44cc6-d008-4ed5-9547-fc524359e2f2","productId":"SKU_54","name":"Gina Harris","status":"PENDING","awb":"48369948525","isDynamicPoint":false,"reachTime":0,"deliveryTime":0,"deliveryLat":0,"deliveryLng":0,"clusterId":null,"address":{"id":"8bfa73fa-d55c-4083-a5cb-c3d9645a0fbc","address":"119, 13th Main Rd, Sector 5, Sector 7, HSR Layout, Bengaluru, Karnataka 560034","lat":12.916457,"lng":77.637784,"orderId":"18b44cc6-d008-4ed5-9547-fc524359e2f2"}},{"id":"692c2bc2-2894-4415-b30b-3a9bee466b32","productId":"SKU_28","name":"Greta Thomas","status":"PENDING","awb":"57120146657","isDynamicPoint":false,"reachTime":0,"deliveryTime":0,"deliveryLat":0,"deliveryLng":0,"clusterId":null,"address":{"id":"a3a40315-503d-40ac-82c1-33dd47d90f90","address":"3B/358,25th main, 22nd Cross Rd, Sector 2, HSR Layout, Bengaluru, Karnataka 560102","lat":12.9087076,"lng":77.6509179,"orderId":"692c2bc2-2894-4415-b30b-3a9bee466b32"}},{"id":"59158569-2194-41bd-8a5c-b4da5076a3bc","productId":"SKU_93","name":"Kathleen Vaughn","status":"PENDING","awb":"40172216054","isDynamicPoint":false,"reachTime":0,"deliveryTime":0,"deliveryLat":0,"deliveryLng":0,"clusterId":null,"address":{"id":"8e8474e5-87de-4c77-94cb-5105a36607e6","address":"27, 2nd Main Rd, Sadduguntepalya, Maruti Nagar, 1st Stage, BTM Layout, Bengaluru, Karnataka 560029","lat":12.9252902,"lng":77.61175639999999,"orderId":"59158569-2194-41bd-8a5c-b4da5076a3bc"}},{"id":"595c8372-30a4-44f9-8393-8afeef10cea6","productId":"SKU_122","name":"Karen Jacobson","status":"PENDING","awb":"67450945394","isDynamicPoint":false,"reachTime":0,"deliveryTime":0,"deliveryLat":0,"deliveryLng":0,"clusterId":null,"address":{"id":"7d71510f-7a36-41c4-80c5-ebf28d0072f3","address":"17th cross(old aishwarya bakery), J P Nagar Phase 5, 5th Block,, 8, 15th Main Rd, Nanjundeswara Layout, J. P. Nagar, Bengaluru, Karnataka 560078","lat":12.9033045,"lng":77.59173849999999,"orderId":"595c8372-30a4-44f9-8393-8afeef10cea6"}},{"id":"61c1e247-2ae6-49de-999c-5c22d30407e6","productId":"SKU_88","name":"Robert Cromer","status":"PENDING","awb":"20247377552","isDynamicPoint":false,"reachTime":0,"deliveryTime":0,"deliveryLat":0,"deliveryLng":0,"clusterId":null,"address":{"id":"69c3bd4b-4b89-4087-8f64-c3e39d804e5a","address":"House no 11, 2nd Stage, 19th Cross Rd, Roadcross, BTM 1st Stage, Bengaluru, Karnataka 560029","lat":12.9612988,"lng":77.5254243,"orderId":"61c1e247-2ae6-49de-999c-5c22d30407e6"}},{"id":"fc75af28-d80b-43d5-bd49-d3f93a7d7f92","productId":"SKU_150","name":"Harold Gaffigan","status":"PENDING","awb":"33019603213","isDynamicPoint":false,"reachTime":0,"deliveryTime":0,"deliveryLat":0,"deliveryLng":0,"clusterId":null,"address":{"id":"90871653-b1ee-4671-825b-30a9625007f5","address":"296, 24th Main Rd, 6th Phase, KR Layout, JP Nagar Phase 6, J. P. Nagar, Bengaluru, Karnataka 560078","lat":12.9037794,"lng":77.5856534,"orderId":"fc75af28-d80b-43d5-bd49-d3f93a7d7f92"}},{"id":"77db0624-c790-40fa-b51a-08d7ccd01f4c","productId":"SKU_37","name":"Evelyn Scott","status":"PENDING","awb":"77051829260","isDynamicPoint":false,"reachTime":0,"deliveryTime":0,"deliveryLat":0,"deliveryLng":0,"clusterId":null,"address":{"id":"2ef2553d-0f20-4c06-bd64-0ba58d8f28d7","address":"Manjunatha Complex Ground flore, 22nd Main Rd, Banashankari, Bengaluru, Karnataka 560076","lat":12.9385824,"lng":77.5532742,"orderId":"77db0624-c790-40fa-b51a-08d7ccd01f4c"}},{"id":"fc638159-5f49-4918-b54d-f48ca722806f","productId":"SKU_148","name":"Eric Peterson","status":"PENDING","awb":"91179762438","isDynamicPoint":false,"reachTime":0,"deliveryTime":0,"deliveryLat":0,"deliveryLng":0,"clusterId":null,"address":{"id":"a23fcf1b-8f26-4cc4-bace-f75b0f892c7f","address":"437, 38th B Cross Rd, Jayanagara 9th Block, Jayanagar, Bengaluru, Karnataka 560041","lat":12.9208488,"lng":77.59365079999999,"orderId":"fc638159-5f49-4918-b54d-f48ca722806f"}},{"id":"ba52d549-f7cb-4c77-baf0-81fa223ca862","productId":"SKU_123","name":"William Kitchens","status":"PENDING","awb":"21547127199","isDynamicPoint":false,"reachTime":0,"deliveryTime":0,"deliveryLat":0,"deliveryLng":0,"clusterId":null,"address":{"id":"e8349fd7-ee32-46f8-8e27-bc9e48506263","address":"511, 28th Main Rd, 9th Cross, EWS Colony, Stage 2, BTM Layout, Bengaluru, Karnataka 560076","lat":12.9087984,"lng":77.61232079999999,"orderId":"ba52d549-f7cb-4c77-baf0-81fa223ca862"}},{"id":"0bc8f589-242f-4be2-9c76-103a89a795d8","productId":"SKU_1","name":"Frederick Delang","status":"PENDING","awb":"70028349404","isDynamicPoint":false,"reachTime":0,"deliveryTime":0,"deliveryLat":0,"deliveryLng":0,"clusterId":null,"address":{"id":"6399c126-299a-45ad-beaa-16cd469981e8","address":"VP Rd, Old Madiwala, Madiwala, 1st Stage, BTM Layout, Bengaluru, Karnataka 560029","lat":12.9193316,"lng":77.6179717,"orderId":"0bc8f589-242f-4be2-9c76-103a89a795d8"}},{"id":"fcc11d26-250c-4b98-9bf7-1739bcd5dbf9","productId":"SKU_30","name":"Florinda Chappell","status":"PENDING","awb":"40998935588","isDynamicPoint":false,"reachTime":0,"deliveryTime":0,"deliveryLat":0,"deliveryLng":0,"clusterId":null,"address":{"id":"8f168746-6626-47de-9d67-96dc4102b314","address":"Number 25, 14th Main Rd, Sector 5, Sector 4, HSR Layout, Bengaluru, Karnataka 560102","lat":12.9172202,"lng":77.6382173,"orderId":"fcc11d26-250c-4b98-9bf7-1739bcd5dbf9"}},{"id":"e1d75f71-24cf-4961-a69d-ae7b2a9a263e","productId":"SKU_116","name":"Esther Schultz","status":"PENDING","awb":"33171347367","isDynamicPoint":false,"reachTime":0,"deliveryTime":0,"deliveryLat":0,"deliveryLng":0,"clusterId":null,"address":{"id":"957d5708-9f21-487c-a45a-8e7c9ad0fac5","address":"Shop No. 1632, Srinivasnagar, Banashankari, Bengaluru, Karnataka 560050","lat":12.9385317,"lng":77.55452799999999,"orderId":"e1d75f71-24cf-4961-a69d-ae7b2a9a263e"}},{"id":"e3f3dc16-d2a7-402c-960e-be2857c881e0","productId":"SKU_86","name":"David Reyes","status":"PENDING","awb":"25268909871","isDynamicPoint":false,"reachTime":0,"deliveryTime":0,"deliveryLat":0,"deliveryLng":0,"clusterId":null,"address":{"id":"b9f82aa3-5fdc-4b79-ab77-ee7ccbd0db9c","address":"120/A, Pattalamma Temple Rd, opposite R. R. Gold palace, Jaya Nagar 1st Block, Jayanagar 3rd Block, Jayanagar, Bengaluru, Karnataka 560011","lat":12.9340544,"lng":77.5825086,"orderId":"e3f3dc16-d2a7-402c-960e-be2857c881e0"}},{"id":"c104fe8e-2449-4265-af57-0917c3a81e26","productId":"SKU_65","name":"William Guzman","status":"PENDING","awb":"23340343072","isDynamicPoint":false,"reachTime":0,"deliveryTime":0,"deliveryLat":0,"deliveryLng":0,"clusterId":null,"address":{"id":"c7b0b14d-726a-4228-99c7-35be9d29bbe3","address":"No.36, vyivavi complex, 4th main, Bannerghatta Main Rd, NS Palya, Stage 2, Bengaluru, 560076","lat":12.9227116,"lng":77.6003001,"orderId":"c104fe8e-2449-4265-af57-0917c3a81e26"}},{"id":"7894331b-b3af-4f15-b109-dbd7f6f7940e","productId":"SKU_99","name":"Bert Flowers","status":"PENDING","awb":"18772866040","isDynamicPoint":false,"reachTime":0,"deliveryTime":0,"deliveryLat":0,"deliveryLng":0,"clusterId":null,"address":{"id":"ea3356b8-8ea5-49be-833d-3d43e43c92a7","address":"WJG8+X83, 1st Cross Rd, opposite to City Clinic, Zuzuvadi, Maruti Nagar, BTM 1st Stage, Bengaluru, Karnataka 560069","lat":12.927471,"lng":77.6160483,"orderId":"7894331b-b3af-4f15-b109-dbd7f6f7940e"}},{"id":"733e0a21-6e39-4d72-8ce4-7361df7f43ac","productId":"SKU_127","name":"Simona May","status":"PENDING","awb":"83695101450","isDynamicPoint":false,"reachTime":0,"deliveryTime":0,"deliveryLat":0,"deliveryLng":0,"clusterId":null,"address":{"id":"c1a52aef-67a5-4e45-8f34-965bc3f39699","address":"Kodigehalli Road, Satyasaibaba Layout, Bethel Nagar, Krishnarajapura, Bengaluru, Karnataka 560049","lat":13.0044388,"lng":77.715795,"orderId":"733e0a21-6e39-4d72-8ce4-7361df7f43ac"}},{"id":"c8a9665c-0b89-46f4-8384-715d57c8acd4","productId":"SKU_95","name":"Sean Silva","status":"PENDING","awb":"29395675119","isDynamicPoint":false,"reachTime":0,"deliveryTime":0,"deliveryLat":0,"deliveryLng":0,"clusterId":null,"address":{"id":"4eefce9c-a8b3-427a-90f2-2bed765a0ac4","address":"12, 2nd Cross Rd, Tavarekere, Cashier Layout, 1st Stage, Tavarakerei Tacarajeri, Bengaluru, Karnataka 560078","lat":12.9259157,"lng":77.6102168,"orderId":"c8a9665c-0b89-46f4-8384-715d57c8acd4"}},{"id":"195c3db5-b2f2-4ab6-aefa-4759cb812c80","productId":"SKU_2","name":"Betty Roberts","status":"PENDING","awb":"29973262231","isDynamicPoint":false,"reachTime":0,"deliveryTime":0,"deliveryLat":0,"deliveryLng":0,"clusterId":null,"address":{"id":"41b9ab9c-0c7c-4ac0-9af9-283db83fc3d6","address":"16, 22nd Cross Rd, EWS Colony, BTM 2nd Stage, BTM Layout, Bengaluru, Karnataka 560076","lat":12.9057456,"lng":77.61171619999999,"orderId":"195c3db5-b2f2-4ab6-aefa-4759cb812c80"}},{"id":"ae32df3d-23a1-41df-b10b-7df851f88bde","productId":"SKU_21","name":"Vanessa Adams","status":"PENDING","awb":"93966387158","isDynamicPoint":false,"reachTime":0,"deliveryTime":0,"deliveryLat":0,"deliveryLng":0,"clusterId":null,"address":{"id":"e7914e38-b74f-453e-baf9-2ebdb5470b81","address":"3rd Cross Rd, Mount Joy Extension, Hanumanthnagar, Banashankari 1st Stage, Basavanagudi, Bengaluru, Karnataka 560050","lat":12.9388696,"lng":77.5636266,"orderId":"ae32df3d-23a1-41df-b10b-7df851f88bde"}},{"id":"0178c4f5-8806-4fa8-809c-c33c14afd48d","productId":"SKU_125","name":"Albert Cook","status":"PENDING","awb":"39034518848","isDynamicPoint":false,"reachTime":0,"deliveryTime":0,"deliveryLat":0,"deliveryLng":0,"clusterId":null,"address":{"id":"41446859-f85d-49cf-9c48-dfcb46bf99fc","address":"76, 4th Cross Rd, Tavarekere, Balaji Nagar, S.G. Palya, Bengaluru, Karnataka 560029","lat":12.9266212,"lng":77.60619679999999,"orderId":"0178c4f5-8806-4fa8-809c-c33c14afd48d"}},{"id":"229bdd59-223c-4bc9-95ae-819dcf3d65d5","productId":"SKU_28","name":"Julieta Allen","status":"PENDING","awb":"91408709244","isDynamicPoint":false,"reachTime":0,"deliveryTime":0,"deliveryLat":0,"deliveryLng":0,"clusterId":null,"address":{"id":"457b215e-5a17-45f7-b11e-a8c722a8d0ee","address":"No 8, 15th Cross Rd, 5th Phase, J P Nagar Phase 5, J. P. Nagar, Bengaluru, Karnataka 560078","lat":12.9062866,"lng":77.58904679999999,"orderId":"229bdd59-223c-4bc9-95ae-819dcf3d65d5"}},{"id":"29546d67-489e-4fb4-8a47-aff8836370bd","productId":"SKU_66","name":"Andre Johnson","status":"PENDING","awb":"16279025945","isDynamicPoint":false,"reachTime":0,"deliveryTime":0,"deliveryLat":0,"deliveryLng":0,"clusterId":null,"address":{"id":"faa49905-0a46-4926-9ccd-674d85825747","address":"168, Tavarekere Main Rd, Muniyallapa Layout, Cashier Layout, 1st Stage, BTM Layout, Bengaluru, Karnataka 560029","lat":12.9219594,"lng":77.61063999999999,"orderId":"29546d67-489e-4fb4-8a47-aff8836370bd"}},{"id":"5c0a3ece-7bf7-4262-9b16-82d25217e929","productId":"SKU_103","name":"Ida Gantner","status":"PENDING","awb":"48226538523","isDynamicPoint":false,"reachTime":0,"deliveryTime":0,"deliveryLat":0,"deliveryLng":0,"clusterId":null,"address":{"id":"c58c54ce-4f7e-4a5e-8684-782f15185241","address":"Opposite Brigade Palm Springs, 1231/35/2, Brigade Millenium Rd, JP Nagar 7th Phase, Bengaluru, Karnataka 560076","lat":12.8939904,"lng":77.5865678,"orderId":"5c0a3ece-7bf7-4262-9b16-82d25217e929"}},{"id":"4b5a8374-b0ab-49e5-822a-f20fcb07e814","productId":"SKU_29","name":"Gary Wolfe","status":"PENDING","awb":"64608052813","isDynamicPoint":false,"reachTime":0,"deliveryTime":0,"deliveryLat":0,"deliveryLng":0,"clusterId":null,"address":{"id":"a9b91df5-732d-498d-a5e9-a0b5dd39b3dc","address":"333, 4th Main Rd, B Block, AECS Layout, Marathahalli, Bengaluru, Karnataka 560037","lat":12.9657156,"lng":77.7142894,"orderId":"4b5a8374-b0ab-49e5-822a-f20fcb07e814"}},{"id":"b96ccc79-00e0-462a-9e79-cb69ed414427","productId":"SKU_90","name":"Wanda Ince","status":"PENDING","awb":"82522765252","isDynamicPoint":false,"reachTime":0,"deliveryTime":0,"deliveryLat":0,"deliveryLng":0,"clusterId":null,"address":{"id":"f19b95d4-dd87-43bb-b60a-dc6721bd0a23","address":"42/2, Tavarekere Main Rd, Tavarekere, Krishna Murthi Layout, Sadduguntepalya, Bengaluru, Karnataka 560081","lat":12.9255644,"lng":77.6088213,"orderId":"b96ccc79-00e0-462a-9e79-cb69ed414427"}},{"id":"26214ffc-dc5d-4dae-9888-c45a14fa3396","productId":"SKU_33","name":"Henry Perryman","status":"PENDING","awb":"86203962880","isDynamicPoint":false,"reachTime":0,"deliveryTime":0,"deliveryLat":0,"deliveryLng":0,"clusterId":null,"address":{"id":"a6aa2c03-cb93-4867-a558-2da178fc96cf","address":"19, SG Palya Main Rd, Venkateshwara Layout, S.G. Palya, Bengaluru, Karnataka 560029","lat":12.9327673,"lng":77.6070893,"orderId":"26214ffc-dc5d-4dae-9888-c45a14fa3396"}},{"id":"ab05b14a-ba37-4e4b-8fcf-01274a86ffc8","productId":"SKU_18","name":"Paul Tillery","status":"PENDING","awb":"74075156436","isDynamicPoint":false,"reachTime":0,"deliveryTime":0,"deliveryLat":0,"deliveryLng":0,"clusterId":null,"address":{"id":"4c4af7a8-3124-4272-8e5b-b3cf9f44574d","address":"34, 60 Feet Rd, KHB Block Koramangala, 5th Block, Koramangala, Bengaluru, Karnataka 560047","lat":12.935897,"lng":77.62149,"orderId":"ab05b14a-ba37-4e4b-8fcf-01274a86ffc8"}},{"id":"aa33b453-1ead-470f-97f1-6d4a7dbbd5f2","productId":"SKU_112","name":"Orlando Wahl","status":"PENDING","awb":"59721973870","isDynamicPoint":false,"reachTime":0,"deliveryTime":0,"deliveryLat":0,"deliveryLng":0,"clusterId":null,"address":{"id":"62595bbc-464a-48ad-8d75-8189288a48a9","address":"Outer Ring Rd, Old Madiwala, Jay Bheema Nagar, 1st Stage, BTM Layout, Bengaluru, Karnataka 560068","lat":12.9164317,"lng":77.6151948,"orderId":"aa33b453-1ead-470f-97f1-6d4a7dbbd5f2"}},{"id":"2d73945c-4e35-4166-9086-8ff80eae8e33","productId":"SKU_16","name":"Richard Herr","status":"PENDING","awb":"99777824501","isDynamicPoint":false,"reachTime":0,"deliveryTime":0,"deliveryLat":0,"deliveryLng":0,"clusterId":null,"address":{"id":"614ad703-c99f-4053-a4fe-bb76611793e3","address":"WJG8+898, Zuzuvadi, Madiwala, 1st Stage, BTM Layout, Bengaluru, Karnataka 560068","lat":12.9265359,"lng":77.6156642,"orderId":"2d73945c-4e35-4166-9086-8ff80eae8e33"}},{"id":"e7cab331-4d8f-45fd-9189-1ffe59347756","productId":"SKU_12","name":"David Kratz","status":"PENDING","awb":"26968281390","isDynamicPoint":false,"reachTime":0,"deliveryTime":0,"deliveryLat":0,"deliveryLng":0,"clusterId":null,"address":{"id":"cd308819-91ea-494e-a956-fdc9bbd6e1e0","address":"No.56, 1st Stage, BTM Layout, Bengaluru, Karnataka 560068","lat":12.9199409,"lng":77.61065119999999,"orderId":"e7cab331-4d8f-45fd-9189-1ffe59347756"}},{"id":"2d2fc752-148f-4329-9d92-dccfbc692fb6","productId":"SKU_30","name":"Sara Taylor","status":"PENDING","awb":"68252734728","isDynamicPoint":false,"reachTime":0,"deliveryTime":0,"deliveryLat":0,"deliveryLng":0,"clusterId":null,"address":{"id":"7d57cbac-4515-49b5-aa78-38df6099021e","address":"WJ44+RC8, 7th Main Rd, Mahadeshwara Nagar, Stage 2, BTM Layout, Bengaluru, Karnataka 560076","lat":12.9100757,"lng":77.6064792,"orderId":"2d2fc752-148f-4329-9d92-dccfbc692fb6"}},{"id":"5a422694-3e1f-4ff0-8311-1f62c6d46ecf","productId":"SKU_121","name":"Doris Ryder","status":"PENDING","awb":"88494143704","isDynamicPoint":false,"reachTime":0,"deliveryTime":0,"deliveryLat":0,"deliveryLng":0,"clusterId":null,"address":{"id":"89fc5802-e7a9-4564-af5b-65606b29998c","address":"47/1, 9th Cross Rd, Sarakki Industrial Layout, 3rd Phase, J. P. Nagar, Bengaluru, Karnataka 560078","lat":12.9107323,"lng":77.59920129999999,"orderId":"5a422694-3e1f-4ff0-8311-1f62c6d46ecf"}},{"id":"c965c667-522b-4742-8ddc-978660a0d592","productId":"SKU_144","name":"Dwain Stanton","status":"PENDING","awb":"83821529706","isDynamicPoint":false,"reachTime":0,"deliveryTime":0,"deliveryLat":0,"deliveryLng":0,"clusterId":null,"address":{"id":"14aaacc6-7327-494b-a275-a51e1ca39a35","address":"147, 24th Main Rd, R.K Colony, Marenahalli, 2nd Phase, J. P. Nagar, Bengaluru, Karnataka 560078","lat":12.9147029,"lng":77.586288,"orderId":"c965c667-522b-4742-8ddc-978660a0d592"}},{"id":"460c4234-2477-48c0-8805-517aae62d683","productId":"SKU_70","name":"Robert Parker","status":"PENDING","awb":"84280320945","isDynamicPoint":false,"reachTime":0,"deliveryTime":0,"deliveryLat":0,"deliveryLng":0,"clusterId":null,"address":{"id":"bca451cc-f115-4f7a-8c14-44bf038592e4","address":"949, Pooja Plaza Phase 2, R K Colony, 2nd Phase, J. P. Nagar, Bengaluru, Karnataka 560078","lat":12.9119072,"lng":77.5859212,"orderId":"460c4234-2477-48c0-8805-517aae62d683"}},{"id":"16389828-e20f-4af4-b867-a616d906de62","productId":"SKU_99","name":"Jared Bean","status":"PENDING","awb":"99354345466","isDynamicPoint":false,"reachTime":0,"deliveryTime":0,"deliveryLat":0,"deliveryLng":0,"clusterId":null,"address":{"id":"3447170a-04e2-42d6-b4cd-ae74dcde88f2","address":"16/01, 4th Cross Rd, Tavarekere, Venkateshwara Layout, S.G. Palya, Bengaluru, Karnataka 560029","lat":12.9328698,"lng":77.60674329999999,"orderId":"16389828-e20f-4af4-b867-a616d906de62"}},{"id":"2305c91c-2ab0-45e6-9141-57d456c8b43a","productId":"SKU_118","name":"Marina Walls","status":"PENDING","awb":"87259068774","isDynamicPoint":false,"reachTime":0,"deliveryTime":0,"deliveryLat":0,"deliveryLng":0,"clusterId":null,"address":{"id":"c255f2dd-d2a3-47cf-9e2a-a5ea54a843c8","address":"45, 6th C Main Road, Jaya Nagar 1st Block, Jayanagar 3rd Block, Jayanagar, Bengaluru, Karnataka 560041","lat":12.9303521,"lng":77.5815922,"orderId":"2305c91c-2ab0-45e6-9141-57d456c8b43a"}},{"id":"81301085-7579-42ff-8899-f7145767380a","productId":"SKU_55","name":"Christina Merriman","status":"PENDING","awb":"44377965229","isDynamicPoint":false,"reachTime":0,"deliveryTime":0,"deliveryLat":0,"deliveryLng":0,"clusterId":null,"address":{"id":"18797d70-8f6e-4dea-8262-933c81ba2ac2","address":"17/1, 24th Main Rd, opp. Royal School, 5th Phase, Ayodya Nagar, J P Nagar Phase 5, J. P. Nagar, Bengaluru, Karnataka 560078","lat":12.9045325,"lng":77.58574329999999,"orderId":"81301085-7579-42ff-8899-f7145767380a"}},{"id":"f5f70861-7db4-4a63-afd1-13faa56f14aa","productId":"SKU_130","name":"Bobby Lee","status":"PENDING","awb":"44771699073","isDynamicPoint":false,"reachTime":0,"deliveryTime":0,"deliveryLat":0,"deliveryLng":0,"clusterId":null,"address":{"id":"d2f4672d-ed5a-4707-b3a7-9f500e97eee8","address":"No. 7, Krish Tower, Near Arekere Gate, 2nd Cross Road, Bannerghatta Main Rd, Omkar Nagar, Arekere, Bengaluru, Karnataka 560076","lat":12.9001133,"lng":77.600967,"orderId":"f5f70861-7db4-4a63-afd1-13faa56f14aa"}},{"id":"75fb296e-4e67-4102-a1e8-ff91d640f78a","productId":"SKU_106","name":"Jeffrey Boutwell","status":"PENDING","awb":"11253470690","isDynamicPoint":false,"reachTime":0,"deliveryTime":0,"deliveryLat":0,"deliveryLng":0,"clusterId":null,"address":{"id":"a9991d30-23b3-466f-871b-1a3b49e64f8d","address":"WHHR+FFV, Swagath Rd, BTB Area, LIC Colony, Jayanagar 3rd Block East, Jayanagar, Bengaluru, Karnataka 560029","lat":12.9286079,"lng":77.5911246,"orderId":"75fb296e-4e67-4102-a1e8-ff91d640f78a"}},{"id":"46556dd7-2d87-4522-b226-22cd9540c52b","productId":"SKU_128","name":"Thanh Maples","status":"PENDING","awb":"41234387461","isDynamicPoint":false,"reachTime":0,"deliveryTime":0,"deliveryLat":0,"deliveryLng":0,"clusterId":null,"address":{"id":"29d95c14-fa3b-44ec-a33f-d10c476c67bc","address":"85, 86/7, SG Palya Main Rd, Bhavani Nagar, BTM Layout, Bengaluru, Karnataka 560029","lat":12.9316522,"lng":77.6074563,"orderId":"46556dd7-2d87-4522-b226-22cd9540c52b"}},{"id":"181f859c-064c-414c-af7e-20b99b8094c3","productId":"SKU_83","name":"Brenda Brennan","status":"PENDING","awb":"93046689497","isDynamicPoint":false,"reachTime":0,"deliveryTime":0,"deliveryLat":0,"deliveryLng":0,"clusterId":null,"address":{"id":"610426ae-a780-4cd2-b550-8d052aa4d3d4","address":"538/2, 10th A Main Road, 4th Block, 5th Block, Jayanagar, Bengaluru, Karnataka 560041","lat":12.9247847,"lng":77.58511279999999,"orderId":"181f859c-064c-414c-af7e-20b99b8094c3"}},{"id":"bffc99a6-3039-4aed-aa42-252cf0da8a3e","productId":"SKU_149","name":"Robert Morris","status":"PENDING","awb":"52493104967","isDynamicPoint":false,"reachTime":0,"deliveryTime":0,"deliveryLat":0,"deliveryLng":0,"clusterId":null,"address":{"id":"dfd6557a-9ae9-422c-89ce-7f5d4fc2cdc2","address":"14, Maruthi Nagar Main Rd, Madiwala New Extension, Madiwala, 1st Stage, BTM Layout, Bengaluru, Karnataka 560068","lat":12.9245277,"lng":77.6151371,"orderId":"bffc99a6-3039-4aed-aa42-252cf0da8a3e"}},{"id":"62e88adb-8cf0-4cb0-b068-e035b1158a5e","productId":"SKU_121","name":"William Gonzalez","status":"PENDING","awb":"89137556255","isDynamicPoint":false,"reachTime":0,"deliveryTime":0,"deliveryLat":0,"deliveryLng":0,"clusterId":null,"address":{"id":"40bbad51-a644-453d-a11e-698aee1fc400","address":"WJ84+VR6, 9th A Main Rd, KEB Colony, 1st Stage, BTM 1st Stage, Bengaluru, Karnataka 560029","lat":12.919058,"lng":77.6052348,"orderId":"62e88adb-8cf0-4cb0-b068-e035b1158a5e"}},{"id":"5720684a-ee2f-4dab-9e8b-a093c4e158ff","productId":"SKU_92","name":"Phyllis Roper","status":"PENDING","awb":"55852819962","isDynamicPoint":false,"reachTime":0,"deliveryTime":0,"deliveryLat":0,"deliveryLng":0,"clusterId":null,"address":{"id":"3804530a-2169-4446-822a-f24f0f8e378a","address":"Sai Plaza, 7th Cross Rd, Above Pizza Hut, BTM 2nd Stage, BTM Layout, Bengaluru, Karnataka 560076","lat":12.9140298,"lng":77.6089332,"orderId":"5720684a-ee2f-4dab-9e8b-a093c4e158ff"}},{"id":"758521fe-3c7b-41ba-bc19-5e722cda70a7","productId":"SKU_148","name":"Tanya Sexton","status":"PENDING","awb":"16042799130","isDynamicPoint":false,"reachTime":0,"deliveryTime":0,"deliveryLat":0,"deliveryLng":0,"clusterId":null,"address":{"id":"02013b1f-2f3a-4c4a-9294-d7fb931b1484","address":"45/1, 45/2, Bangalore Central, 45th Cross Rd, 9th Block, J. P. Nagar, Bengaluru, Karnataka 560069","lat":12.9165643,"lng":77.592382,"orderId":"758521fe-3c7b-41ba-bc19-5e722cda70a7"}},{"id":"86a242e8-6922-4f74-97ca-711096a51c15","productId":"SKU_3","name":"Thomas Rayborn","status":"PENDING","awb":"81988836999","isDynamicPoint":false,"reachTime":0,"deliveryTime":0,"deliveryLat":0,"deliveryLng":0,"clusterId":null,"address":{"id":"017d79de-b332-49c4-bf85-009b1c09c09e","address":"296, 100 ft Ring Road, 5th Phase, JP Nagar, Bangalore, Karnataka, Bengaluru, Karnataka 560078","lat":12.9062616,"lng":77.5912757,"orderId":"86a242e8-6922-4f74-97ca-711096a51c15"}},{"id":"012b9286-a997-4cbe-b23d-d866ec9b079f","productId":"SKU_44","name":"Marion Hatton","status":"PENDING","awb":"37137990260","isDynamicPoint":false,"reachTime":0,"deliveryTime":0,"deliveryLat":0,"deliveryLng":0,"clusterId":null,"address":{"id":"90f418bb-f866-4c09-a316-2f3080c73b2c","address":"BDA Shopping Complex, 101,'Manjunath Complex 22nd Main Rd, Opp CCD, Near, Banashankari Stage II, Bengaluru, Karnataka 560070","lat":12.9240518,"lng":77.5638375,"orderId":"012b9286-a997-4cbe-b23d-d866ec9b079f"}},{"id":"5feb6792-267d-4fd8-a9e0-2a4f8d542c68","productId":"SKU_6","name":"James Vessey","status":"PENDING","awb":"12668462896","isDynamicPoint":false,"reachTime":0,"deliveryTime":0,"deliveryLat":0,"deliveryLng":0,"clusterId":null,"address":{"id":"93cbab79-6594-4744-8c76-d9ebc49814b4","address":"12/13, 1st A Cross Rd, Old Madiwala, Cashier Layout, 1st Stage, BTM 1st Stage, Bengaluru, Karnataka 560029","lat":12.9224118,"lng":77.6140321,"orderId":"5feb6792-267d-4fd8-a9e0-2a4f8d542c68"}},{"id":"17890283-b137-47c2-b876-18f241c2fcee","productId":"SKU_113","name":"Debra Vrba","status":"PENDING","awb":"90927307231","isDynamicPoint":false,"reachTime":0,"deliveryTime":0,"deliveryLat":0,"deliveryLng":0,"clusterId":null,"address":{"id":"7c9ab75c-fefd-46cf-be36-8cc9b82b1157","address":"No. 54, Puttenahalli Rd, Near Indian oil petrol bunk, Jagruthi Colony, Puttenahalli, JP Nagar 7th Phase, J. P. Nagar, Bengaluru, Karnataka 560078","lat":12.892213,"lng":77.58182359999999,"orderId":"17890283-b137-47c2-b876-18f241c2fcee"}},{"id":"a6cdd05b-231d-4ded-b4e7-8d2a35f12e43","productId":"SKU_85","name":"Lucy Gagne","status":"PENDING","awb":"73476530948","isDynamicPoint":false,"reachTime":0,"deliveryTime":0,"deliveryLat":0,"deliveryLng":0,"clusterId":null,"address":{"id":"f8225ba4-d066-48ba-ba9f-39b782592400","address":"35/36, 35/36, 2nd Main Rd, Anthappa Layout, Phase 4, J. P. Nagar, Bengaluru, Karnataka 560076","lat":12.9028975,"lng":77.5941904,"orderId":"a6cdd05b-231d-4ded-b4e7-8d2a35f12e43"}},{"id":"03a38924-b88f-40a8-8944-0557ae2250b3","productId":"SKU_108","name":"Betty Smith","status":"PENDING","awb":"78307045428","isDynamicPoint":false,"reachTime":0,"deliveryTime":0,"deliveryLat":0,"deliveryLng":0,"clusterId":null,"address":{"id":"6f9345a3-611b-4a82-aac1-ea95dec183ba","address":"WJ75+F37, 7th Cross Rd, Opp Sangeeta Mobile, Stage 2, BTM Layout, Bengaluru, Karnataka 560034","lat":12.9135564,"lng":77.6047039,"orderId":"03a38924-b88f-40a8-8944-0557ae2250b3"}},{"id":"be0eb6eb-1357-49eb-820c-2d25f51f667d","productId":"SKU_135","name":"Robert Brown","status":"PENDING","awb":"88341399605","isDynamicPoint":false,"reachTime":0,"deliveryTime":0,"deliveryLat":0,"deliveryLng":0,"clusterId":null,"address":{"id":"0effd326-ab4d-441d-9966-264e4c63aea3","address":"1119/A/28, E End Main Rd, 4th T Block East, Jayanagar, Bengaluru, Karnataka 560041","lat":12.9283019,"lng":77.59734139999999,"orderId":"be0eb6eb-1357-49eb-820c-2d25f51f667d"}},{"id":"08562f59-6670-41a6-9048-44614d0e5150","productId":"SKU_96","name":"Gerald Ackerman","status":"PENDING","awb":"44260971019","isDynamicPoint":false,"reachTime":0,"deliveryTime":0,"deliveryLat":0,"deliveryLng":0,"clusterId":null,"address":{"id":"f30657ac-b66b-4535-8be7-0746aab57cdb","address":"560076, Krishnaraju Layout, Amalodbhavi Nagar, Panduranga Nagar, Bengaluru, Karnataka 560076","lat":12.8988155,"lng":77.5970433,"orderId":"08562f59-6670-41a6-9048-44614d0e5150"}},{"id":"58df5226-ed48-4f31-94b3-b69b8efbdca1","productId":"SKU_94","name":"Anthony Schrenk","status":"PENDING","awb":"15136324262","isDynamicPoint":false,"reachTime":0,"deliveryTime":0,"deliveryLat":0,"deliveryLng":0,"clusterId":null,"address":{"id":"0ba5c7f6-1e06-40ef-99f8-0a9cd3a334f8","address":"No.542, Shravanthi Topaz, 10th E Main Road, 38th Cross Rd, 5th Block, Jayanagar, Bengaluru, Karnataka 560041","lat":12.9215622,"lng":77.5846991,"orderId":"58df5226-ed48-4f31-94b3-b69b8efbdca1"}},{"id":"fffd2e73-ebf1-4cd7-8385-3307dec2c794","productId":"SKU_51","name":"Kelly Pierce","status":"PENDING","awb":"60437132570","isDynamicPoint":false,"reachTime":0,"deliveryTime":0,"deliveryLat":0,"deliveryLng":0,"clusterId":null,"address":{"id":"0ff9de9b-7560-4e15-95bb-f69c7f5973e1","address":"15, Maruthi Nagar Main Rd, Old Madiwala, Maruti Nagar, 1st Stage, BTM 1st Stage, Bengaluru, Karnataka 560068","lat":12.9228309,"lng":77.6145564,"orderId":"fffd2e73-ebf1-4cd7-8385-3307dec2c794"}},{"id":"cc32ff02-e84e-46bf-94f8-9f0d5cdeaa13","productId":"SKU_103","name":"Lucille Burton","status":"PENDING","awb":"81240202742","isDynamicPoint":false,"reachTime":0,"deliveryTime":0,"deliveryLat":0,"deliveryLng":0,"clusterId":null,"address":{"id":"a138929a-5840-4f84-84a6-29fcf752a1a3","address":"ayyappa temple, 15th main,madiwala behind, Madiwala, BTM 1st Stage, Bengaluru, Karnataka 560029","lat":12.9211015,"lng":77.6167844,"orderId":"cc32ff02-e84e-46bf-94f8-9f0d5cdeaa13"}},{"id":"8301b1a7-5813-4f28-9be8-20d16e6e5c98","productId":"SKU_134","name":"Gordon Majure","status":"PENDING","awb":"41673276066","isDynamicPoint":false,"reachTime":0,"deliveryTime":0,"deliveryLat":0,"deliveryLng":0,"clusterId":null,"address":{"id":"363b3cf9-ccda-4b1a-ba88-b032b7b5d973","address":"WJ45+WFV, Mahadeshwara Nagar, Stage 2, BTM Layout, Bengaluru, Karnataka 560076","lat":12.9101193,"lng":77.6074367,"orderId":"8301b1a7-5813-4f28-9be8-20d16e6e5c98"}},{"id":"acdda4cd-2a9c-4e05-90d6-32c129369f86","productId":"SKU_6","name":"Gertie Tomopoulos","status":"PENDING","awb":"41060558051","isDynamicPoint":false,"reachTime":0,"deliveryTime":0,"deliveryLat":0,"deliveryLng":0,"clusterId":null,"address":{"id":"06d74bed-80cf-4d96-b309-1c69cefb7f7f","address":"15, 16th Main Rd, Keb Layout, Narayan Gowda Layout, Stage 2, BTM Layout, Bengaluru, Karnataka 560076","lat":12.9204791,"lng":77.6105527,"orderId":"acdda4cd-2a9c-4e05-90d6-32c129369f86"}},{"id":"b9d8ea9c-5be4-41cc-8ef2-334cf7e086d8","productId":"SKU_135","name":"Betty Barnes","status":"PENDING","awb":"73460160559","isDynamicPoint":false,"reachTime":0,"deliveryTime":0,"deliveryLat":0,"deliveryLng":0,"clusterId":null,"address":{"id":"295dacc3-5995-4b0f-8021-73ec75a856bc","address":"33, 1st Main Rd, Bharathi Layout, Ramappa layout, 1st Stage, S.G. Palya, Bengaluru, Karnataka 560029","lat":12.9309967,"lng":77.60686199999999,"orderId":"b9d8ea9c-5be4-41cc-8ef2-334cf7e086d8"}},{"id":"efa10a36-b785-4ff2-9f35-ff092feadff2","productId":"SKU_50","name":"Betty Brown","status":"PENDING","awb":"70875851839","isDynamicPoint":false,"reachTime":0,"deliveryTime":0,"deliveryLat":0,"deliveryLng":0,"clusterId":null,"address":{"id":"ef1fe212-1740-4bc6-b122-7bf28ef08e14","address":"85, First Floor, 19th Main Rd, next to Purnabrahma, Vanganahalli, 1st Sector, HSR Layout, Bengaluru, Karnataka 560102","lat":12.9126579,"lng":77.6447652,"orderId":"efa10a36-b785-4ff2-9f35-ff092feadff2"}},{"id":"58c1b3aa-5f00-4abc-8cde-e27cb342af38","productId":"SKU_38","name":"Dean Skibbe","status":"PENDING","awb":"87616249167","isDynamicPoint":false,"reachTime":0,"deliveryTime":0,"deliveryLat":0,"deliveryLng":0,"clusterId":null,"address":{"id":"9b5ea9fd-4469-4cdc-bdd8-277a543fd8e8","address":"No.120, kasthuri Nivasa, Byrasandra, C V Raman Nagar, Bengaluru, Karnataka 560093","lat":12.980811,"lng":77.6663434,"orderId":"58c1b3aa-5f00-4abc-8cde-e27cb342af38"}},{"id":"ca58939c-1388-4fbe-ba82-1454b6dd0e13","productId":"SKU_92","name":"Lula Nixon","status":"PENDING","awb":"90824727970","isDynamicPoint":false,"reachTime":0,"deliveryTime":0,"deliveryLat":0,"deliveryLng":0,"clusterId":null,"address":{"id":"1cc0cc40-e9ed-4ffb-8432-697f55cae638","address":"76, 15th Main Rd, JHCS Layout, J P Nagar Phase 5, J. P. Nagar, Bengaluru, Karnataka 560078","lat":12.9049041,"lng":77.5918771,"orderId":"ca58939c-1388-4fbe-ba82-1454b6dd0e13"}},{"id":"f51b1558-8957-4134-a8d5-a09919702da8","productId":"SKU_48","name":"Ray Ellinger","status":"PENDING","awb":"23271708955","isDynamicPoint":false,"reachTime":0,"deliveryTime":0,"deliveryLat":0,"deliveryLng":0,"clusterId":null,"address":{"id":"e03b0d29-ef05-4a10-83be-3818dc43a9c7","address":"WJC7+QQ3, 20th A Main Rd, Old Madiwala, Maruti Nagar, 1st Stage, BTM Layout, Bengaluru, Karnataka 560068","lat":12.923266,"lng":77.6150636,"orderId":"f51b1558-8957-4134-a8d5-a09919702da8"}},{"id":"c9d91e15-fb5c-44ef-9c87-36421bdba793","productId":"SKU_101","name":"Edmund Baldwin","status":"PENDING","awb":"75111712160","isDynamicPoint":false,"reachTime":0,"deliveryTime":0,"deliveryLat":0,"deliveryLng":0,"clusterId":null,"address":{"id":"59942fa5-cc0c-4fc0-9e03-5188d4c2e9d0","address":"5 4th Cross, Maruthi Nagar, Behind Ayyappa Temple, 1st Stage, BTM, Somasundarapalaya, 1st Stage, BTM Layout, Bengaluru, Karnataka 560068","lat":12.9265729,"lng":77.6140696,"orderId":"c9d91e15-fb5c-44ef-9c87-36421bdba793"}},{"id":"20abe6ae-f3a4-4861-9227-090a6bba4cff","productId":"SKU_43","name":"Mary Mckeon","status":"PENDING","awb":"24245575468","isDynamicPoint":false,"reachTime":0,"deliveryTime":0,"deliveryLat":0,"deliveryLng":0,"clusterId":null,"address":{"id":"5973bb6e-1e52-407b-964d-ab8089b89cd0","address":"WHGP+W5F, 10th B Main Rd, 4th T Block East, 4th Block, Jayanagar, Bengaluru, Karnataka 560011","lat":12.9274341,"lng":77.5858028,"orderId":"20abe6ae-f3a4-4861-9227-090a6bba4cff"}},{"id":"56ae8a11-7b88-4d5f-8d8c-5eb9a9fdbc4b","productId":"SKU_29","name":"James Graham","status":"PENDING","awb":"32562104909","isDynamicPoint":false,"reachTime":0,"deliveryTime":0,"deliveryLat":0,"deliveryLng":0,"clusterId":null,"address":{"id":"330320c6-3935-454b-a857-26e47acb53b2","address":"590, 445/1, 29th Main Rd, BTM 2nd Stage, Munivenkatppa Layout, BTM Layout, Bengaluru, Karnataka 560076","lat":12.9082447,"lng":77.61364669999999,"orderId":"56ae8a11-7b88-4d5f-8d8c-5eb9a9fdbc4b"}},{"id":"50f6f39a-3e53-426f-af72-e9023971f4c4","productId":"SKU_12","name":"Berta Hackney","status":"PENDING","awb":"52661720900","isDynamicPoint":false,"reachTime":0,"deliveryTime":0,"deliveryLat":0,"deliveryLng":0,"clusterId":null,"address":{"id":"62cfcc68-8fe2-4f5c-8306-ac0ac10ff48a","address":"15, 24th Main Rd, 5th Phase, Annaiah Reddy Layout, JP Nagar 7th Phase, J. P. Nagar, Bengaluru, Karnataka 560078","lat":12.9006797,"lng":77.5856695,"orderId":"50f6f39a-3e53-426f-af72-e9023971f4c4"}},{"id":"bbd9da93-8e92-4d7b-aac0-cdf0ed541814","productId":"SKU_25","name":"Nancy Sellner","status":"PENDING","awb":"67346045114","isDynamicPoint":false,"reachTime":0,"deliveryTime":0,"deliveryLat":0,"deliveryLng":0,"clusterId":null,"address":{"id":"641e6d89-2cf2-4c50-be6e-a291fe5ef363","address":"3, Hosur Rd, Chikku Lakshmaiah Layout, Adugodi, Bengaluru, Karnataka 560029","lat":12.9436141,"lng":77.6078744,"orderId":"bbd9da93-8e92-4d7b-aac0-cdf0ed541814"}},{"id":"6c7a9b98-991e-4f78-bdf7-6458fb62b331","productId":"SKU_74","name":"Creola Napier","status":"PENDING","awb":"81379372517","isDynamicPoint":false,"reachTime":0,"deliveryTime":0,"deliveryLat":0,"deliveryLng":0,"clusterId":null,"address":{"id":"02c64e12-dfdf-4f78-a731-98cbe9c56cb8","address":"XP88+WFX, Graphite India Main Rd, Phase 2, Brookefield, Bengaluru, Karnataka 560037","lat":12.971939,"lng":77.7119157,"orderId":"6c7a9b98-991e-4f78-bdf7-6458fb62b331"}},{"id":"0f14b32b-f3fe-4a35-b538-ec53d7b81724","productId":"SKU_130","name":"Dennis Aberle","status":"PENDING","awb":"40541849026","isDynamicPoint":false,"reachTime":0,"deliveryTime":0,"deliveryLat":0,"deliveryLng":0,"clusterId":null,"address":{"id":"b4647732-f7d8-4591-939b-035612c39f77","address":"288, Ground Floor, 15th Cross, 18th Main, 5th Phase, Opposite Hindustan Petroleum Corporation Limited, J. P. Nagar, Bengaluru, Karnataka 560078","lat":12.906279,"lng":77.5759521,"orderId":"0f14b32b-f3fe-4a35-b538-ec53d7b81724"}},{"id":"aef27fda-5c2f-4b83-b108-219d48ea09de","productId":"SKU_112","name":"Michael Alexander","status":"PENDING","awb":"69992897378","isDynamicPoint":false,"reachTime":0,"deliveryTime":0,"deliveryLat":0,"deliveryLng":0,"clusterId":null,"address":{"id":"d15d1efb-3095-4949-9bf8-10b960ffe497","address":"100, 8th Cross Rd, Old Madiwala, Chikka Madivala, 1st Stage, BTM 1st Stage, Bengaluru, Karnataka 560068","lat":12.9196888,"lng":77.6138921,"orderId":"aef27fda-5c2f-4b83-b108-219d48ea09de"}},{"id":"fd7d4b4a-3df2-4849-9acc-f3eb8b903445","productId":"SKU_48","name":"Pamela Thomasson","status":"PENDING","awb":"35873584418","isDynamicPoint":false,"reachTime":0,"deliveryTime":0,"deliveryLat":0,"deliveryLng":0,"clusterId":null,"address":{"id":"94cace44-6090-4f0e-81e8-5d1b3c8cf54b","address":"Chocolate Factory Rd, Tavarekere, Maruti Nagar, 1st Stage, BTM 1st Stage, Bengaluru, Karnataka 560029","lat":12.9235496,"lng":77.611932,"orderId":"fd7d4b4a-3df2-4849-9acc-f3eb8b903445"}},{"id":"184d2e3d-8e18-4e2d-9320-f5908584f002","productId":"SKU_20","name":"Burt Slaughter","status":"PENDING","awb":"38711254606","isDynamicPoint":false,"reachTime":0,"deliveryTime":0,"deliveryLat":0,"deliveryLng":0,"clusterId":null,"address":{"id":"b06f08a5-d212-45e3-a4a0-c131e7702e66","address":"173, Bannerghatta Main Rd, Munivenkatppa Layout, Bilekahalli, Bengaluru, Karnataka 560076","lat":12.9022721,"lng":77.60350280000002,"orderId":"184d2e3d-8e18-4e2d-9320-f5908584f002"}},{"id":"ce5e6328-bfd1-4334-8c75-96bcdc9d6080","productId":"SKU_65","name":"Ronald Osmun","status":"PENDING","awb":"22160230326","isDynamicPoint":false,"reachTime":0,"deliveryTime":0,"deliveryLat":0,"deliveryLng":0,"clusterId":null,"address":{"id":"231e17db-7779-4450-82d0-8ccf5c39b2f4","address":"ayyappa temple, 15th main,madiwala behind, Madiwala, BTM 1st Stage, Bengaluru, Karnataka 560029","lat":12.9211015,"lng":77.6167844,"orderId":"ce5e6328-bfd1-4334-8c75-96bcdc9d6080"}},{"id":"3a8b8a88-a007-4dc5-8aab-d2921588cc56","productId":"SKU_68","name":"Shawna Korczynski","status":"PENDING","awb":"23444562987","isDynamicPoint":false,"reachTime":0,"deliveryTime":0,"deliveryLat":0,"deliveryLng":0,"clusterId":null,"address":{"id":"26635150-a4fe-4375-ab91-fc3173cd3adf","address":"BTM 2nd Stage, BTM Layout, Bengaluru, Karnataka 560076","lat":12.9083215,"lng":77.6050777,"orderId":"3a8b8a88-a007-4dc5-8aab-d2921588cc56"}},{"id":"2dcb1e6b-fb1e-4033-b0ab-f62a38a4cfc7","productId":"SKU_44","name":"Milton Jetton","status":"PENDING","awb":"39005707700","isDynamicPoint":false,"reachTime":0,"deliveryTime":0,"deliveryLat":0,"deliveryLng":0,"clusterId":null,"address":{"id":"471c151c-a286-45f0-b6b4-2cec0b59390c","address":"945, 16th Main Rd, BTM 2nd Stage, Kuvempu Nagar, Stage 2, BTM Layout, Bengaluru, Karnataka 560076","lat":12.9144864,"lng":77.61021439999999,"orderId":"2dcb1e6b-fb1e-4033-b0ab-f62a38a4cfc7"}},{"id":"e8e60d10-ace3-4551-a179-d386e7bd8601","productId":"SKU_33","name":"Eric Kolesnik","status":"PENDING","awb":"65703156582","isDynamicPoint":false,"reachTime":0,"deliveryTime":0,"deliveryLat":0,"deliveryLng":0,"clusterId":null,"address":{"id":"18b0efba-9cdd-4be0-98c3-c8ce3f36a67e","address":"404, 1st C Main Rd, 7th Block, Koramangala, Bengaluru, Karnataka 560095","lat":12.9402961,"lng":77.61661079999999,"orderId":"e8e60d10-ace3-4551-a179-d386e7bd8601"}},{"id":"fc262173-395c-4c92-8e72-8414a2ecd2a6","productId":"SKU_69","name":"Rodolfo Croft","status":"PENDING","awb":"91019002277","isDynamicPoint":false,"reachTime":0,"deliveryTime":0,"deliveryLat":0,"deliveryLng":0,"clusterId":null,"address":{"id":"57324f34-0466-406c-90d9-8d4c3d384072","address":"WJ76+H6G, 17th Main Rd, BTM 2nd Stage, Kuvempu Nagar, Stage 2, BTM Layout, Bengaluru, Karnataka 560076","lat":12.9141766,"lng":77.6105463,"orderId":"fc262173-395c-4c92-8e72-8414a2ecd2a6"}},{"id":"56aad319-825f-452f-a5b6-2c59cc9d78f7","productId":"SKU_111","name":"Linda Tongue","status":"PENDING","awb":"87235906983","isDynamicPoint":false,"reachTime":0,"deliveryTime":0,"deliveryLat":0,"deliveryLng":0,"clusterId":null,"address":{"id":"087f1ef0-9981-4726-b8c2-4aa33530f635","address":"67, 27th Cross Rd, Jaya Nagar 1st Block, Jayanagar 3rd Block, Jayanagar, Bengaluru, Karnataka 560011","lat":12.9308535,"lng":77.58151570000001,"orderId":"56aad319-825f-452f-a5b6-2c59cc9d78f7"}},{"id":"be38172e-92d2-4f05-ace3-554f0fd5e486","productId":"SKU_8","name":"Anthony Bell","status":"PENDING","awb":"89326865581","isDynamicPoint":false,"reachTime":0,"deliveryTime":0,"deliveryLat":0,"deliveryLng":0,"clusterId":null,"address":{"id":"129adf81-0634-45cf-b3c9-14eed3f7f22b","address":"14, 1A Cross Rd, Dollar Scheme Colony, 1st Stage, BTM 1st Stage, Bengaluru, Karnataka 560068","lat":12.9171763,"lng":77.61858459999999,"orderId":"be38172e-92d2-4f05-ace3-554f0fd5e486"}},{"id":"a87e4572-b227-44e5-b0f3-c59e7a8eeea6","productId":"SKU_62","name":"Lyle Franklin","status":"PENDING","awb":"81606593757","isDynamicPoint":false,"reachTime":0,"deliveryTime":0,"deliveryLat":0,"deliveryLng":0,"clusterId":null,"address":{"id":"85c0f950-297a-4e35-b383-cc352aadae69","address":"1140, Marenahalli Rd, Putlanpalya, Jayanagara 9th Block, Jayanagar, Bengaluru, Karnataka 560069","lat":12.9169885,"lng":77.59427529999999,"orderId":"a87e4572-b227-44e5-b0f3-c59e7a8eeea6"}},{"id":"a9522563-35db-42dd-b31b-d1f657f672a0","productId":"SKU_86","name":"Andrew Flye","status":"PENDING","awb":"53861029380","isDynamicPoint":false,"reachTime":0,"deliveryTime":0,"deliveryLat":0,"deliveryLng":0,"clusterId":null,"address":{"id":"ec35c47a-73e9-4007-9c48-10cbfb0cc087","address":"WJ44+RC8, 7th Main Rd, Mahadeshwara Nagar, Stage 2, BTM Layout, Bengaluru, Karnataka 560076","lat":12.9100757,"lng":77.6064792,"orderId":"a9522563-35db-42dd-b31b-d1f657f672a0"}},{"id":"120347dd-d22a-47c0-90e5-07f2407a070f","productId":"SKU_113","name":"Mary Ready","status":"PENDING","awb":"67117881819","isDynamicPoint":false,"reachTime":0,"deliveryTime":0,"deliveryLat":0,"deliveryLng":0,"clusterId":null,"address":{"id":"11b2cee7-6dac-4b81-81e4-309ecd9d4f9c","address":"1st Main Road, 3/1, 2nd Cross Road, Zuzuvadi, Maruti Nagar, Madiwala, Bengaluru, Karnataka 560068","lat":12.9265359,"lng":77.6156642,"orderId":"120347dd-d22a-47c0-90e5-07f2407a070f"}},{"id":"0a02c9fc-9129-427a-9e9c-a225e4c578c1","productId":"SKU_108","name":"Martin Haywood","status":"PENDING","awb":"61280986861","isDynamicPoint":false,"reachTime":0,"deliveryTime":0,"deliveryLat":0,"deliveryLng":0,"clusterId":null,"address":{"id":"1f01baae-283e-4f9b-a107-47ce19d21726","address":"CA-37, 24th Main Rd, R.K Colony, TMC Layout, 1st Phase, J. P. Nagar, Bengaluru, Karnataka 560041","lat":12.9117276,"lng":77.58514219999999,"orderId":"0a02c9fc-9129-427a-9e9c-a225e4c578c1"}},{"id":"854bb5b4-2522-4902-ac2d-c99162762f04","productId":"SKU_120","name":"Jon Woods","status":"PENDING","awb":"89536238275","isDynamicPoint":false,"reachTime":0,"deliveryTime":0,"deliveryLat":0,"deliveryLng":0,"clusterId":null,"address":{"id":"025a06f4-d28f-408e-a777-58fac17101e3","address":"940, 21st Main Rd, opposite BDA Shopping Complex, Siddanna Layout, Banashankari 1st Stage, Banashankari, Bengaluru, Karnataka 560070","lat":12.9261683,"lng":77.56460919999999,"orderId":"854bb5b4-2522-4902-ac2d-c99162762f04"}},{"id":"14e40032-18b4-417f-8c8a-6ad52a392275","productId":"SKU_97","name":"Leo Youngblood","status":"PENDING","awb":"93222272665","isDynamicPoint":false,"reachTime":0,"deliveryTime":0,"deliveryLat":0,"deliveryLng":0,"clusterId":null,"address":{"id":"c0cab765-7520-43b4-999c-6994ec61848c","address":"No.805, Ground Floor, 35th Cross Road, 9th Main Rd, 4th Block, Jayanagar, Bengaluru, Karnataka 560011","lat":12.9243812,"lng":77.5838009,"orderId":"14e40032-18b4-417f-8c8a-6ad52a392275"}},{"id":"85c28be7-b5da-4681-ac0c-7b08870dc69e","productId":"SKU_89","name":"Susan Hafner","status":"PENDING","awb":"80768373648","isDynamicPoint":false,"reachTime":0,"deliveryTime":0,"deliveryLat":0,"deliveryLng":0,"clusterId":null,"address":{"id":"347dac27-ed27-4f29-acbb-ff99f5e38e4a","address":"3FRQ+37J, Bengaluru, Karnataka 560107","lat":13.0896641,"lng":77.486207,"orderId":"85c28be7-b5da-4681-ac0c-7b08870dc69e"}},{"id":"c7b244f3-3b6c-49f7-9c56-06cd18f43d05","productId":"SKU_92","name":"Mary Massey","status":"PENDING","awb":"86353074118","isDynamicPoint":false,"reachTime":0,"deliveryTime":0,"deliveryLat":0,"deliveryLng":0,"clusterId":null,"address":{"id":"df9f947c-9d58-4331-a19e-f3434bb07f00","address":"7th Main Rd, New Extension, Mahadeshwara Nagar, BTM 2nd Stage, BTM Layout, Bengaluru, Karnataka 560076","lat":12.9083464,"lng":77.6063547,"orderId":"c7b244f3-3b6c-49f7-9c56-06cd18f43d05"}},{"id":"60687150-246d-4f33-a7ff-4f45dd521e56","productId":"SKU_99","name":"Mary Forest","status":"PENDING","awb":"88767773485","isDynamicPoint":false,"reachTime":0,"deliveryTime":0,"deliveryLat":0,"deliveryLng":0,"clusterId":null,"address":{"id":"37a70e6d-8133-4393-9b69-a2bcd6acd98b","address":"139, 1st Main Rd, off Bannerghatta Main Road, Sarvabhoumanagar, Sundar Ram Shetty Nagar, Garvebhavi Palya, Bengaluru, Karnataka 560076","lat":12.888049,"lng":77.5932364,"orderId":"60687150-246d-4f33-a7ff-4f45dd521e56"}},{"id":"a5830bd7-a385-47ed-8c79-1c2d8a3f11ad","productId":"SKU_107","name":"Jesse Benoit","status":"PENDING","awb":"95457226797","isDynamicPoint":false,"reachTime":0,"deliveryTime":0,"deliveryLat":0,"deliveryLng":0,"clusterId":null,"address":{"id":"e79ef04f-8e50-4a9c-acb4-c1fde4fa961f","address":"WJJ4+9RM, 1st Main Rd, Bharathi Layout, Venkateshwara Layout, S.G. Palya, Bengaluru, Karnataka 560029","lat":12.9278726,"lng":77.6063245,"orderId":"a5830bd7-a385-47ed-8c79-1c2d8a3f11ad"}},{"id":"c4aedb07-dc05-40ed-8b38-c9bf42dc99f0","productId":"SKU_57","name":"Lisa Fair","status":"PENDING","awb":"46637885446","isDynamicPoint":false,"reachTime":0,"deliveryTime":0,"deliveryLat":0,"deliveryLng":0,"clusterId":null,"address":{"id":"51444e06-a6f0-4bb6-84e6-d0bc28fbdc70","address":"745/AB, 24th Main, 15th Cross Rd, 6th Phase, J. P. Nagar, Bengaluru, Karnataka 560078","lat":12.9088826,"lng":77.5857567,"orderId":"c4aedb07-dc05-40ed-8b38-c9bf42dc99f0"}},{"id":"9704367f-2b7c-49aa-b6a6-e8b7708f3de9","productId":"SKU_86","name":"Katie Clarkson","status":"PENDING","awb":"49554160551","isDynamicPoint":false,"reachTime":0,"deliveryTime":0,"deliveryLat":0,"deliveryLng":0,"clusterId":null,"address":{"id":"8baa3cb6-6f72-4679-98b3-74ffc7dc2438","address":"223, 3rd Main Rd, JP Nagar 4th Phase, Phase 4, Panduranga Nagar, Bengaluru, Karnataka 560076","lat":12.8934721,"lng":77.5955871,"orderId":"9704367f-2b7c-49aa-b6a6-e8b7708f3de9"}},{"id":"86a3c1f9-6e92-43ca-9da1-1b6497de37e2","productId":"SKU_104","name":"Allison Rave","status":"PENDING","awb":"69734537211","isDynamicPoint":false,"reachTime":0,"deliveryTime":0,"deliveryLat":0,"deliveryLng":0,"clusterId":null,"address":{"id":"c79243bf-259a-4706-ad60-33977428716d","address":"Hosur Main Road, Chikku Lakshmaiah Layout, Adugodi, Bengaluru, Karnataka 560029","lat":12.9358959,"lng":77.6114547,"orderId":"86a3c1f9-6e92-43ca-9da1-1b6497de37e2"}},{"id":"a3bc5a24-a14c-4b2d-938a-03f3f779d516","productId":"SKU_113","name":"Cora Johnson","status":"PENDING","awb":"62365989455","isDynamicPoint":false,"reachTime":0,"deliveryTime":0,"deliveryLat":0,"deliveryLng":0,"clusterId":null,"address":{"id":"5b9a5f47-a68b-4801-a32e-3dcfd25d6a59","address":"Amulya 1st floor, 24th Main Rd, JP Nagar 6th Phase, Bengaluru, Karnataka 560078","lat":12.9070091,"lng":77.585678,"orderId":"a3bc5a24-a14c-4b2d-938a-03f3f779d516"}},{"id":"f318fb17-631c-4e65-bf53-36aa59259201","productId":"SKU_66","name":"Sara Shinoda","status":"PENDING","awb":"59281574590","isDynamicPoint":false,"reachTime":0,"deliveryTime":0,"deliveryLat":0,"deliveryLng":0,"clusterId":null,"address":{"id":"97716fdd-e183-4068-b35e-d47d301799de","address":"4, T-Block, Jaya Nagar, Bengaluru, Karnataka 560041","lat":12.92567,"lng":77.59453309999999,"orderId":"f318fb17-631c-4e65-bf53-36aa59259201"}},{"id":"28216183-0db0-4932-95e0-e2f3294435a7","productId":"SKU_113","name":"Michael Koral","status":"PENDING","awb":"32376562913","isDynamicPoint":false,"reachTime":0,"deliveryTime":0,"deliveryLat":0,"deliveryLng":0,"clusterId":null,"address":{"id":"890436f1-1709-4c2d-90e2-68d4778c91a4","address":"148/2 20th Main Rd, 2nd Cross Rd, Aicobo Nagar, 1st Stage, BTM 1st Stage, Bengaluru, Karnataka 560029","lat":12.9176922,"lng":77.612642,"orderId":"28216183-0db0-4932-95e0-e2f3294435a7"}},{"id":"9c904f73-beaa-4ea9-8572-1971f6e7a1cd","productId":"SKU_108","name":"Irene Phillips","status":"PENDING","awb":"55959522737","isDynamicPoint":false,"reachTime":0,"deliveryTime":0,"deliveryLat":0,"deliveryLng":0,"clusterId":null,"address":{"id":"edc77576-613b-4951-aa7e-78adba5f1dcc","address":"934, 16th Main Rd, BTM 2nd Stage, Kuvempu Nagar, BTM 2nd Stage, BTM Layout, Bengaluru, Karnataka 560076","lat":12.915634,"lng":77.61025699999999,"orderId":"9c904f73-beaa-4ea9-8572-1971f6e7a1cd"}},{"id":"94a10d1c-212a-4b95-b8ae-61304cf29b3a","productId":"SKU_123","name":"Diane Farias","status":"PENDING","awb":"38554277593","isDynamicPoint":false,"reachTime":0,"deliveryTime":0,"deliveryLat":0,"deliveryLng":0,"clusterId":null,"address":{"id":"35967dd6-091f-4d4d-b0ab-057dce4b902a","address":"35/4, 3rd Cross Rd, Achappa Layout, Puttenahalli, JP Nagar 7th Phase, J. P. Nagar, Bengaluru, Karnataka 560078","lat":12.8955069,"lng":77.5853162,"orderId":"94a10d1c-212a-4b95-b8ae-61304cf29b3a"}},{"id":"df20fe82-3888-4e26-aedd-81367126226b","productId":"SKU_44","name":"Rolf Ross","status":"PENDING","awb":"24551259384","isDynamicPoint":false,"reachTime":0,"deliveryTime":0,"deliveryLat":0,"deliveryLng":0,"clusterId":null,"address":{"id":"ab369abf-f38d-4f25-9e5a-f90362b308ef","address":"No.56, 1st Stage, BTM Layout, Bengaluru, Karnataka 560068","lat":12.9199409,"lng":77.61065119999999,"orderId":"df20fe82-3888-4e26-aedd-81367126226b"}},{"id":"7760c7ef-c203-494e-a244-0dadf89fa046","productId":"SKU_49","name":"Juanita Barre","status":"PENDING","awb":"26561159430","isDynamicPoint":false,"reachTime":0,"deliveryTime":0,"deliveryLat":0,"deliveryLng":0,"clusterId":null,"address":{"id":"5af702d5-32b1-4e5a-a457-4b3b99c44e6b","address":"13, C Sarakki Main Rd, SBI Colony, 1st Phase, J. P. Nagar, Bengaluru, Karnataka 560078","lat":12.9129725,"lng":77.5788819,"orderId":"7760c7ef-c203-494e-a244-0dadf89fa046"}},{"id":"61ee6539-0a97-4f27-b538-daf35547485b","productId":"SKU_144","name":"Millard Robidoux","status":"PENDING","awb":"64998800309","isDynamicPoint":false,"reachTime":0,"deliveryTime":0,"deliveryLat":0,"deliveryLng":0,"clusterId":null,"address":{"id":"22efb073-d5d9-4c79-8f15-0d269d5d42b6","address":"no. 2, 1st Main Rd, Zuzuvadi, Madiwala, 1st Stage, BTM Layout, Bengaluru, Karnataka 560068","lat":12.9250098,"lng":77.6166765,"orderId":"61ee6539-0a97-4f27-b538-daf35547485b"}},{"id":"484543c8-941a-44b6-a8d3-5b937e230954","productId":"SKU_46","name":"James Williams","status":"PENDING","awb":"72610492367","isDynamicPoint":false,"reachTime":0,"deliveryTime":0,"deliveryLat":0,"deliveryLng":0,"clusterId":null,"address":{"id":"065f0413-35ec-4838-ac36-d7151745d66e","address":"633, Outer Ring Rd, Dollar Layout, 3rd Phase, J. P. Nagar, Bengaluru, Karnataka 560076","lat":12.906406,"lng":77.5958928,"orderId":"484543c8-941a-44b6-a8d3-5b937e230954"}},{"id":"0aaa16f9-f5e1-41f1-a4a4-1d5d63bb2ce1","productId":"SKU_45","name":"David Scott","status":"PENDING","awb":"15900802811","isDynamicPoint":false,"reachTime":0,"deliveryTime":0,"deliveryLat":0,"deliveryLng":0,"clusterId":null,"address":{"id":"d3af8ef7-d6ec-4091-a607-374720513f95","address":"1st Main, 2nd Cross, Maruthi Nagar, Madiwala, Bengaluru, Karnataka 560068","lat":12.9252927,"lng":77.6169293,"orderId":"0aaa16f9-f5e1-41f1-a4a4-1d5d63bb2ce1"}},{"id":"c7c3357f-197b-471e-a8f2-da4448bb4b72","productId":"SKU_54","name":"Laura Covington","status":"PENDING","awb":"24592086894","isDynamicPoint":false,"reachTime":0,"deliveryTime":0,"deliveryLat":0,"deliveryLng":0,"clusterId":null,"address":{"id":"c80993c6-b94b-48e1-996e-f974fca6775c","address":"949, 16th Main Rd, BTM 2nd Stage, Kuvempu Nagar, BTM 2nd Stage, BTM Layout, Bengaluru, Karnataka 560076","lat":12.9138089,"lng":77.6102415,"orderId":"c7c3357f-197b-471e-a8f2-da4448bb4b72"}},{"id":"a64b82e8-d00b-434d-b9a5-fb2c24459008","productId":"SKU_148","name":"Norma Bell","status":"PENDING","awb":"61168860341","isDynamicPoint":false,"reachTime":0,"deliveryTime":0,"deliveryLat":0,"deliveryLng":0,"clusterId":null,"address":{"id":"1d7bd87c-5a4a-433a-9c7a-a01d3e4534e0","address":"287, Outer Ring Rd, Kathreguppe, Banashankari 3rd Stage, Banashankari, Bengaluru, Karnataka 560085","lat":12.9230869,"lng":77.5551924,"orderId":"a64b82e8-d00b-434d-b9a5-fb2c24459008"}},{"id":"3ec4e414-721f-430b-a17e-62f216d63186","productId":"SKU_70","name":"Brian Hazen","status":"PENDING","awb":"33277826548","isDynamicPoint":false,"reachTime":0,"deliveryTime":0,"deliveryLat":0,"deliveryLng":0,"clusterId":null,"address":{"id":"59cae460-9052-458e-bbd9-f6ccc052cfaa","address":"VJV6+7PH Gangaparameshwari Nagar, Kodichikknahalli Vijaya Bank Layout, 4th Stage, BTM Layout, Bengaluru, Karnataka 560076","lat":12.8938396,"lng":77.61145259999999,"orderId":"3ec4e414-721f-430b-a17e-62f216d63186"}},{"id":"3bbc1395-0461-4aec-8bfb-21b449222c74","productId":"SKU_86","name":"Joanne Henson","status":"PENDING","awb":"27484088882","isDynamicPoint":false,"reachTime":0,"deliveryTime":0,"deliveryLat":0,"deliveryLng":0,"clusterId":null,"address":{"id":"07b64cc4-b0ce-40da-8e03-95b816ba29b8","address":"269, 6th Main Rd, BTM 2nd Stage, BTM Layout, Bengaluru, Karnataka 560076","lat":12.9156387,"lng":77.6056703,"orderId":"3bbc1395-0461-4aec-8bfb-21b449222c74"}},{"id":"c7660655-ba8f-45d3-8ef2-88b4925ecba6","productId":"SKU_146","name":"Gail Segraves","status":"PENDING","awb":"88909159201","isDynamicPoint":false,"reachTime":0,"deliveryTime":0,"deliveryLat":0,"deliveryLng":0,"clusterId":null,"address":{"id":"cb55f83a-3594-4c52-9a57-a0565b31d178","address":"17, K.R.Colony, Krishna Reddy Layout, Domlur, Bengaluru, Karnataka 560071","lat":12.9560195,"lng":77.6368664,"orderId":"c7660655-ba8f-45d3-8ef2-88b4925ecba6"}},{"id":"9244cba9-872d-43b6-8f9c-7dc990ec256b","productId":"SKU_124","name":"Lewis Lofton","status":"PENDING","awb":"91272772991","isDynamicPoint":false,"reachTime":0,"deliveryTime":0,"deliveryLat":0,"deliveryLng":0,"clusterId":null,"address":{"id":"30902262-c1cd-43cc-81a0-10b394ce44e6","address":"313, 10th Main Road, 27th Cross Rd, 4th Block, Jayanagar, Bengaluru, Karnataka 560011","lat":12.9310188,"lng":77.5850733,"orderId":"9244cba9-872d-43b6-8f9c-7dc990ec256b"}},{"id":"d31bf896-0044-464d-8400-8530fe3302b1","productId":"SKU_20","name":"Bessie Siewers","status":"PENDING","awb":"53768835207","isDynamicPoint":false,"reachTime":0,"deliveryTime":0,"deliveryLat":0,"deliveryLng":0,"clusterId":null,"address":{"id":"dca5bfc5-1fc6-4e89-a2ff-2fa0de2879f8","address":"114, 7th Main Rd, Jaya Nagar 1st Block, 4th Block, Jayanagar, Bengaluru, Karnataka 560041","lat":12.9306816,"lng":77.58177119999999,"orderId":"d31bf896-0044-464d-8400-8530fe3302b1"}},{"id":"a75edf92-f6f6-46ce-a6e2-b2054ac737e1","productId":"SKU_35","name":"Julio Thompson","status":"PENDING","awb":"15422243156","isDynamicPoint":false,"reachTime":0,"deliveryTime":0,"deliveryLat":0,"deliveryLng":0,"clusterId":null,"address":{"id":"1ee170b4-65d5-423d-a3c9-6582a6a2b678","address":"17th Cross Rd, Industrial Area, Stage 2, BTM Layout, Bengaluru, Karnataka 560076","lat":12.9098096,"lng":77.6064866,"orderId":"a75edf92-f6f6-46ce-a6e2-b2054ac737e1"}},{"id":"ce68f2d0-4cbb-4ef6-8b92-5a6e1fa34427","productId":"SKU_102","name":"Eva Davenport","status":"PENDING","awb":"98800473107","isDynamicPoint":false,"reachTime":0,"deliveryTime":0,"deliveryLat":0,"deliveryLng":0,"clusterId":null,"address":{"id":"dcd6a71d-fd8b-4d0b-b819-d784b4d14244","address":"No 1, KDP Building, Kira layout, Hosur Rd, near Christ Lane, S.G. Palya, Bengaluru, Karnataka 560029","lat":12.9345768,"lng":77.6095445,"orderId":"ce68f2d0-4cbb-4ef6-8b92-5a6e1fa34427"}},{"id":"636f6873-4779-4cf4-8771-c0980a67b458","productId":"SKU_144","name":"Arlene Nelson","status":"PENDING","awb":"25234621096","isDynamicPoint":false,"reachTime":0,"deliveryTime":0,"deliveryLat":0,"deliveryLng":0,"clusterId":null,"address":{"id":"85ee9eb7-6790-4a94-97a1-70ba457d050e","address":"340, 4th E Cross Rd, HRBR Layout 3rd Block, HRBR Layout, Kalyan Nagar, Bengaluru, Karnataka 560043","lat":13.0251641,"lng":77.6358004,"orderId":"636f6873-4779-4cf4-8771-c0980a67b458"}},{"id":"c8b74bc8-f21d-44bd-ae24-4788cad1181c","productId":"SKU_57","name":"Otis Griffen","status":"PENDING","awb":"52160458325","isDynamicPoint":false,"reachTime":0,"deliveryTime":0,"deliveryLat":0,"deliveryLng":0,"clusterId":null,"address":{"id":"7f5a1c3a-d105-467d-82b5-f2958a74d2b3","address":"JP Nagara 5th Phase, 16th Cross, 100 Feet Ring Road, 26, 18th Main Rd, J. P. Nagar, Bengaluru, Karnataka 560078","lat":12.9064609,"lng":77.5980282,"orderId":"c8b74bc8-f21d-44bd-ae24-4788cad1181c"}},{"id":"313cf514-87b8-4efb-8098-8bafe125c216","productId":"SKU_95","name":"Matthew Friedman","status":"PENDING","awb":"77090592229","isDynamicPoint":false,"reachTime":0,"deliveryTime":0,"deliveryLat":0,"deliveryLng":0,"clusterId":null,"address":{"id":"95c196fb-a5b3-46a7-9d1a-59b76359d392","address":"52, 1st Floor, 33rd Cross Rd, near Cafe Coffee Day, 4th Block, Jayanagar, Bengaluru, Karnataka 560011","lat":12.9263315,"lng":77.5836895,"orderId":"313cf514-87b8-4efb-8098-8bafe125c216"}},{"id":"c517c254-0445-4d24-bf72-f0940987266e","productId":"SKU_3","name":"Darlene Lu","status":"PENDING","awb":"39984562652","isDynamicPoint":false,"reachTime":0,"deliveryTime":0,"deliveryLat":0,"deliveryLng":0,"clusterId":null,"address":{"id":"3a10e0f5-f9ce-4f35-9818-ac2826a32e66","address":"923, 1005, 1st F Main Rd, 1st phase Girinagar, Phase 2, Banashankari, Bengaluru, Karnataka 560085","lat":12.9393497,"lng":77.54044739999999,"orderId":"c517c254-0445-4d24-bf72-f0940987266e"}},{"id":"e7ee4dc7-8827-4585-886d-17c9a0ab90cf","productId":"SKU_84","name":"Tim Owens","status":"PENDING","awb":"21128608156","isDynamicPoint":false,"reachTime":0,"deliveryTime":0,"deliveryLat":0,"deliveryLng":0,"clusterId":null,"address":{"id":"ba583f3e-96ed-4b93-8ae8-db37045b060b","address":"733/A, 10th Main Rd, 4th Block, Jayanagar, Bengaluru, Karnataka 560011","lat":12.9244394,"lng":77.5850995,"orderId":"e7ee4dc7-8827-4585-886d-17c9a0ab90cf"}},{"id":"4a1c03b7-ac6e-449c-ac72-f414e9529e20","productId":"SKU_34","name":"David Lembo","status":"PENDING","awb":"23327995627","isDynamicPoint":false,"reachTime":0,"deliveryTime":0,"deliveryLat":0,"deliveryLng":0,"clusterId":null,"address":{"id":"1134540c-4e49-4762-b5a8-b72d98ecfd37","address":"5, 9th Cross Rd, Shakambari Nagar, Stage 2, J. P. Nagar, Bengaluru, Karnataka 560078","lat":12.9112021,"lng":77.57583710000002,"orderId":"4a1c03b7-ac6e-449c-ac72-f414e9529e20"}},{"id":"80027ef4-1962-4344-813d-d7b0046e7e46","productId":"SKU_140","name":"Lillie Beckham","status":"PENDING","awb":"25952181223","isDynamicPoint":false,"reachTime":0,"deliveryTime":0,"deliveryLat":0,"deliveryLng":0,"clusterId":null,"address":{"id":"5276873f-eeab-4976-9895-c756d2dd4c79","address":"No 27, 27th cross, opp. Monotype, Banashankari Stage II, Bengaluru, Karnataka 560070","lat":12.9309768,"lng":77.5784623,"orderId":"80027ef4-1962-4344-813d-d7b0046e7e46"}},{"id":"4d798406-44be-437b-8800-16963d73bfd8","productId":"SKU_15","name":"Linda Schradle","status":"PENDING","awb":"29536503470","isDynamicPoint":false,"reachTime":0,"deliveryTime":0,"deliveryLat":0,"deliveryLng":0,"clusterId":null,"address":{"id":"1cbce44b-4853-421d-a7d3-22408c3a9eb1","address":"1 st Floor, DLF New Town, Near, Begur - Hulimavu Rd, Classic Paradise Layout, Bengaluru, Karnataka 560076","lat":12.8775401,"lng":77.6212673,"orderId":"4d798406-44be-437b-8800-16963d73bfd8"}},{"id":"de442d29-434f-46c9-b7bd-57060628866f","productId":"SKU_97","name":"Dianna Mahone","status":"PENDING","awb":"49221207977","isDynamicPoint":false,"reachTime":0,"deliveryTime":0,"deliveryLat":0,"deliveryLng":0,"clusterId":null,"address":{"id":"cf6a4d6b-857f-4483-945c-be8321e29eed","address":"21st Cross, 16th Main Rd, BTM 2nd Stage, BTM Layout, Bengaluru, Karnataka 560076","lat":12.9060731,"lng":77.6113506,"orderId":"de442d29-434f-46c9-b7bd-57060628866f"}},{"id":"fbe0bbed-22b2-45af-9172-5145b6688f8b","productId":"SKU_94","name":"Christine Emmett","status":"PENDING","awb":"13473865777","isDynamicPoint":false,"reachTime":0,"deliveryTime":0,"deliveryLat":0,"deliveryLng":0,"clusterId":null,"address":{"id":"64fe6271-010d-41c0-91ab-13fd6e17b2ee","address":"Outer Ring Rd, Old Madiwala, Jay Bheema Nagar, 1st Stage, BTM Layout, Bengaluru, Karnataka 560068","lat":12.9164317,"lng":77.6151948,"orderId":"fbe0bbed-22b2-45af-9172-5145b6688f8b"}},{"id":"a56759cc-4ed1-41ab-ba73-3d08adea1a84","productId":"SKU_119","name":"Wanita Dukes","status":"PENDING","awb":"89239199577","isDynamicPoint":false,"reachTime":0,"deliveryTime":0,"deliveryLat":0,"deliveryLng":0,"clusterId":null,"address":{"id":"afe2740a-9e49-4ca7-84ea-f44b693d2889","address":"29th Main Lake Road, Stage 2, BTM Layout, Bengaluru, Karnataka 560076","lat":12.9107374,"lng":77.6144791,"orderId":"a56759cc-4ed1-41ab-ba73-3d08adea1a84"}},{"id":"20824d4a-98ac-450b-9238-4286a93fe484","productId":"SKU_85","name":"Jacob Zepp","status":"PENDING","awb":"80550041455","isDynamicPoint":false,"reachTime":0,"deliveryTime":0,"deliveryLat":0,"deliveryLng":0,"clusterId":null,"address":{"id":"d03aa7f0-6c91-4f34-b7c9-a61e9e94b332","address":"WH6Q+6C7, near Venkateshwara Swamy temple, Marenahalli, 2nd Phase, J. P. Nagar, Bengaluru, Karnataka 560078","lat":12.9168239,"lng":77.58702819999999,"orderId":"20824d4a-98ac-450b-9238-4286a93fe484"}},{"id":"8ee839aa-58ab-4181-890d-8ffaf3a908fe","productId":"SKU_125","name":"Bertha Lim","status":"PENDING","awb":"13927026997","isDynamicPoint":false,"reachTime":0,"deliveryTime":0,"deliveryLat":0,"deliveryLng":0,"clusterId":null,"address":{"id":"1226eddc-18d1-4a4b-be51-a116ac6b856c","address":"Abbaappa Layout, Stage 2, BTM Layout, Bengaluru, Karnataka 560076","lat":12.9073282,"lng":77.6052799,"orderId":"8ee839aa-58ab-4181-890d-8ffaf3a908fe"}},{"id":"a97aa7bf-4e3e-4bb3-aa6e-f5d0c69968e2","productId":"SKU_9","name":"Ryan Hebert","status":"PENDING","awb":"11318522128","isDynamicPoint":false,"reachTime":0,"deliveryTime":0,"deliveryLat":0,"deliveryLng":0,"clusterId":null,"address":{"id":"f0bd9e01-61f5-48af-a29d-90c1a544582e","address":"96, Outer Ring Rd, KEB Colony, New Gurappana Palya, 1st Stage, BTM Layout, Bengaluru, Karnataka 560029","lat":12.9168533,"lng":77.60365630000001,"orderId":"a97aa7bf-4e3e-4bb3-aa6e-f5d0c69968e2"}},{"id":"7f211a30-2d6d-4ddf-9574-a3e463c4970b","productId":"SKU_18","name":"Mary Cox","status":"PENDING","awb":"53525802589","isDynamicPoint":false,"reachTime":0,"deliveryTime":0,"deliveryLat":0,"deliveryLng":0,"clusterId":null,"address":{"id":"c95ae7ea-76f2-438c-9fa1-dfe9edef2600","address":"5,, 4th Main, BTM 1st Stage, Abbaappa Layout, Stage 2, BTM Layout, Bengaluru, Karnataka 560076","lat":12.9082597,"lng":77.60389049999999,"orderId":"7f211a30-2d6d-4ddf-9574-a3e463c4970b"}},{"id":"aa46aef5-a042-4875-a210-5341769cc443","productId":"SKU_42","name":"Larry Pariente","status":"PENDING","awb":"45000993727","isDynamicPoint":false,"reachTime":0,"deliveryTime":0,"deliveryLat":0,"deliveryLng":0,"clusterId":null,"address":{"id":"eed12623-e8ad-434f-9649-7c9b47fd4245","address":"599, 24th Cross Rd, Siddanna Layout, Banashankari Stage II, Banashankari, Bengaluru, Karnataka 560070","lat":12.9239899,"lng":77.568334,"orderId":"aa46aef5-a042-4875-a210-5341769cc443"}},{"id":"aac525a4-a331-44fa-88fb-c139b12c55af","productId":"SKU_96","name":"Stephen Ascolese","status":"PENDING","awb":"90833778262","isDynamicPoint":false,"reachTime":0,"deliveryTime":0,"deliveryLat":0,"deliveryLng":0,"clusterId":null,"address":{"id":"a91d55cc-8a1f-469b-bf57-1bf8a8b8a597","address":"S No 23,Opp. Madivala Police Station, Hosur Rd, Madiwala, Bengaluru, Karnataka 560068","lat":12.9202474,"lng":77.6205428,"orderId":"aac525a4-a331-44fa-88fb-c139b12c55af"}},{"id":"163e13c8-e424-414b-9b74-f17fb81288f3","productId":"SKU_35","name":"Kim Iorio","status":"PENDING","awb":"86323193979","isDynamicPoint":false,"reachTime":0,"deliveryTime":0,"deliveryLat":0,"deliveryLng":0,"clusterId":null,"address":{"id":"ec517f34-42ce-4b0b-b22f-beb935ad289b","address":"309, Outer Ring Rd, J P Nagar Phase 5, J. P. Nagar, Bengaluru, Karnataka 560078","lat":12.906069,"lng":77.5928189,"orderId":"163e13c8-e424-414b-9b74-f17fb81288f3"}},{"id":"2acb6545-8ad3-47f1-bde7-a05009185bc9","productId":"SKU_55","name":"Holly Young","status":"PENDING","awb":"37396410989","isDynamicPoint":false,"reachTime":0,"deliveryTime":0,"deliveryLat":0,"deliveryLng":0,"clusterId":null,"address":{"id":"caedb30e-c437-4c94-96f0-f9b938ce13a7","address":"no. 2, 1st Main Rd, Zuzuvadi, Madiwala, 1st Stage, BTM Layout, Bengaluru, Karnataka 560068","lat":12.9250098,"lng":77.6166765,"orderId":"2acb6545-8ad3-47f1-bde7-a05009185bc9"}},{"id":"fe6addef-9b7b-40b6-b032-d4360ce8d4ed","productId":"SKU_112","name":"Wanda Allen","status":"PENDING","awb":"57219606052","isDynamicPoint":false,"reachTime":0,"deliveryTime":0,"deliveryLat":0,"deliveryLng":0,"clusterId":null,"address":{"id":"6ac9665e-e7c5-4871-9766-7e810c92286c","address":"No. 54, Sri Durga Avenue, 3rd Floor, 33rd Cross Rd, Opp. Navarathan, Jewe, Bengaluru, Karnataka 560011","lat":12.9264272,"lng":77.5843208,"orderId":"fe6addef-9b7b-40b6-b032-d4360ce8d4ed"}},{"id":"9dab8b7b-401c-424e-9579-c9a96e67ced5","productId":"SKU_14","name":"Lisa Wright","status":"PENDING","awb":"15284893638","isDynamicPoint":false,"reachTime":0,"deliveryTime":0,"deliveryLat":0,"deliveryLng":0,"clusterId":null,"address":{"id":"fdf50dfa-377b-440e-afce-d47207ee67a3","address":"No 722/22, 36th Cross, 10th 'A' Main, Near-Kotak Mahendra Bank, Jayanagar 4th Block, Bengaluru, Karnataka 560011","lat":12.9259248,"lng":77.58367179999999,"orderId":"9dab8b7b-401c-424e-9579-c9a96e67ced5"}},{"id":"25efdd70-75f9-42e0-b0ab-8c29e74a16d6","productId":"SKU_57","name":"David Sewell","status":"PENDING","awb":"48136027338","isDynamicPoint":false,"reachTime":0,"deliveryTime":0,"deliveryLat":0,"deliveryLng":0,"clusterId":null,"address":{"id":"d88c57c8-232b-4efd-a42c-1182292306ea","address":"7 Block, Banagirinagara, Banashankari 3rd Stage, Banashankari, Bengaluru, Karnataka 560085","lat":12.9247245,"lng":77.5558518,"orderId":"25efdd70-75f9-42e0-b0ab-8c29e74a16d6"}},{"id":"ff1096a7-40c4-4e89-90d3-d43c171d2ce0","productId":"SKU_22","name":"Patricia Kucera","status":"PENDING","awb":"82414396469","isDynamicPoint":false,"reachTime":0,"deliveryTime":0,"deliveryLat":0,"deliveryLng":0,"clusterId":null,"address":{"id":"43f16808-d7a8-4336-b4a7-4db3cca8c182","address":"Plot 25, 1st Floor, 6th Main, Mico Layout, BTM Layout 2nd Stage, Bengaluru, Karnataka 560076","lat":12.9127367,"lng":77.6058102,"orderId":"ff1096a7-40c4-4e89-90d3-d43c171d2ce0"}},{"id":"9f406669-a83d-41ab-b297-d0e67b40803f","productId":"SKU_109","name":"Kristen Hicks","status":"PENDING","awb":"16966425340","isDynamicPoint":false,"reachTime":0,"deliveryTime":0,"deliveryLat":0,"deliveryLng":0,"clusterId":null,"address":{"id":"55538070-f606-46be-959d-8b17f7e73b02","address":"VP Rd, Old Madiwala, Madiwala, 1st Stage, BTM Layout, Bengaluru, Karnataka 560029","lat":12.9193316,"lng":77.6179717,"orderId":"9f406669-a83d-41ab-b297-d0e67b40803f"}},{"id":"73a16cbc-bebc-4ccc-8ac2-78bf743e70e6","productId":"SKU_27","name":"Eleanor Black","status":"PENDING","awb":"48202566040","isDynamicPoint":false,"reachTime":0,"deliveryTime":0,"deliveryLat":0,"deliveryLng":0,"clusterId":null,"address":{"id":"50dd5008-04c6-403e-9d6a-83c0bfdc79f1","address":"Hosur Road, Opp. Madiwala Traffic Police Station, Koramangala, Bengaluru, Karnataka 560068","lat":12.9210491,"lng":77.62070299999999,"orderId":"73a16cbc-bebc-4ccc-8ac2-78bf743e70e6"}},{"id":"e44aa21c-a67e-4dbc-9718-1738dd9ac45c","productId":"SKU_124","name":"Dorothy Williams","status":"PENDING","awb":"57512706651","isDynamicPoint":false,"reachTime":0,"deliveryTime":0,"deliveryLat":0,"deliveryLng":0,"clusterId":null,"address":{"id":"d95373ca-be9c-4a23-93cc-6484c8b4ea49","address":"25/1, 27th Cross Rd, Banashankari Stage II, Banashankari, Bengaluru, Karnataka 560070","lat":12.9214192,"lng":77.5710307,"orderId":"e44aa21c-a67e-4dbc-9718-1738dd9ac45c"}},{"id":"36f531d5-2d7c-41df-b7ee-a1565585e31a","productId":"SKU_93","name":"Anthony Kearby","status":"PENDING","awb":"51186429153","isDynamicPoint":false,"reachTime":0,"deliveryTime":0,"deliveryLat":0,"deliveryLng":0,"clusterId":null,"address":{"id":"6b984397-0032-4703-a498-88c6ea89ce90","address":"79/A, 2nd A Cross Rd, R.K Colony, Marenahalli, 2nd Phase, J. P. Nagar, Bengaluru, Karnataka 560040","lat":12.9139703,"lng":77.5858385,"orderId":"36f531d5-2d7c-41df-b7ee-a1565585e31a"}},{"id":"dd6d69f1-138a-4f26-81fe-df5135bdea1c","productId":"SKU_15","name":"Kimberly Cox","status":"PENDING","awb":"23593509013","isDynamicPoint":false,"reachTime":0,"deliveryTime":0,"deliveryLat":0,"deliveryLng":0,"clusterId":null,"address":{"id":"a0e1b873-1e73-4ab2-ba7c-06a01f881cc5","address":"Palazzo mall, Ibrahim Sahib St, Shivaji Nagar, Bengaluru, Karnataka 560001","lat":12.9826137,"lng":77.6095567,"orderId":"dd6d69f1-138a-4f26-81fe-df5135bdea1c"}},{"id":"d27ef866-ae18-4775-a86b-3b05bdaad8ec","productId":"SKU_32","name":"David Mann","status":"PENDING","awb":"27340729627","isDynamicPoint":false,"reachTime":0,"deliveryTime":0,"deliveryLat":0,"deliveryLng":0,"clusterId":null,"address":{"id":"a885e53c-9c0a-4a3d-8f28-917f3f01fb56","address":"No 27, 27th cross, opp. Monotype, Banashankari Stage II, Bengaluru, Karnataka 560070","lat":12.9309768,"lng":77.5784623,"orderId":"d27ef866-ae18-4775-a86b-3b05bdaad8ec"}},{"id":"40857caa-bf97-4259-a824-11054dcc2469","productId":"SKU_122","name":"Robert Gray","status":"PENDING","awb":"30359936418","isDynamicPoint":false,"reachTime":0,"deliveryTime":0,"deliveryLat":0,"deliveryLng":0,"clusterId":null,"address":{"id":"0f21fb5f-e88a-4906-a150-4e90a0758c8f","address":"WJ96+W9J, 8th Cross Rd, Tavarekere, Narayan Gowda Layout, 1st Stage, BTM 1st Stage, Bengaluru, Karnataka 560029","lat":12.919741,"lng":77.6103349,"orderId":"40857caa-bf97-4259-a824-11054dcc2469"}},{"id":"74dc9d8c-87d7-4551-ab49-c23347e5022a","productId":"SKU_19","name":"Amy Valdez","status":"PENDING","awb":"64679610025","isDynamicPoint":false,"reachTime":0,"deliveryTime":0,"deliveryLat":0,"deliveryLng":0,"clusterId":null,"address":{"id":"25191ffd-46cb-4412-9a0d-9763c684c22e","address":"Madeena Masjid, 16th Main Rd, 21st Cross Rd, Mahadeshwara Nagar, Stage 2, Bengaluru, Karnataka 560076","lat":12.9203921,"lng":77.6087384,"orderId":"74dc9d8c-87d7-4551-ab49-c23347e5022a"}},{"id":"a825ee4f-8274-420d-abf7-031396212d63","productId":"SKU_135","name":"Jessie Rush","status":"PENDING","awb":"33290891109","isDynamicPoint":false,"reachTime":0,"deliveryTime":0,"deliveryLat":0,"deliveryLng":0,"clusterId":null,"address":{"id":"4f5344b5-fd41-4c61-87bb-f084c34f0a53","address":"633, Outer Ring Rd, Dollar Layout, 3rd Phase, J. P. Nagar, Bengaluru, Karnataka 560076","lat":12.906406,"lng":77.5958928,"orderId":"a825ee4f-8274-420d-abf7-031396212d63"}},{"id":"cc603711-08c4-48ad-9543-7cd83818b48f","productId":"SKU_63","name":"Jacinto Miller","status":"PENDING","awb":"82183768969","isDynamicPoint":false,"reachTime":0,"deliveryTime":0,"deliveryLat":0,"deliveryLng":0,"clusterId":null,"address":{"id":"9ac5bbb4-dd18-442d-b0e8-49832a1a0d3a","address":"Just Bake, C/O, Maruthi Nagar Main Rd, opposite Super Gas Station, Madiwala, 1st Stage, BTM 1st Stage, Bengaluru, Karnataka 560068","lat":12.923954,"lng":77.6148771,"orderId":"cc603711-08c4-48ad-9543-7cd83818b48f"}},{"id":"ba72d5ed-cf08-4b35-9b7e-37a166c38edc","productId":"SKU_130","name":"Shaneka Adams","status":"PENDING","awb":"83583643181","isDynamicPoint":false,"reachTime":0,"deliveryTime":0,"deliveryLat":0,"deliveryLng":0,"clusterId":null,"address":{"id":"e5b50dc4-1e91-46a2-85c1-71b3e1034fbb","address":"Shop No.25, Opp. P.M. Kalyana Mantapa, 1st Main Road, Bannerghatta Main Rd, NS Palya, BTM 2nd Stage, Bengaluru, Karnataka 560076","lat":12.9114588,"lng":77.6024442,"orderId":"ba72d5ed-cf08-4b35-9b7e-37a166c38edc"}},{"id":"e975d60c-0344-4d35-b076-3970cff5e091","productId":"SKU_83","name":"Jeanette Demello","status":"PENDING","awb":"98792370035","isDynamicPoint":false,"reachTime":0,"deliveryTime":0,"deliveryLat":0,"deliveryLng":0,"clusterId":null,"address":{"id":"f6df4a8b-8bc3-4741-b2ff-025455144b40","address":"No.2465, 24th Cross Rd, Siddanna Layout, Banashankari Stage II, Banashankari, Bengaluru, Karnataka 560070","lat":12.9241759,"lng":77.565017,"orderId":"e975d60c-0344-4d35-b076-3970cff5e091"}},{"id":"aff62f9b-ce2a-4d9f-a915-c38e8c72b408","productId":"SKU_114","name":"Robbie Dowst","status":"PENDING","awb":"52994964243","isDynamicPoint":false,"reachTime":0,"deliveryTime":0,"deliveryLat":0,"deliveryLng":0,"clusterId":null,"address":{"id":"235f8f70-0261-42e1-854e-4f3d630852ae","address":"10/4, 3rd Main Rd, Mount Joy Extension, Hanumanthnagar, Banashankari 1st Stage, Banashankari, Bengaluru, Karnataka 560019","lat":12.9405743,"lng":77.5644008,"orderId":"aff62f9b-ce2a-4d9f-a915-c38e8c72b408"}},{"id":"e225f5ef-5a67-4faf-9199-a9cd6c1b3537","productId":"SKU_139","name":"Shannon Jones","status":"PENDING","awb":"38059292907","isDynamicPoint":false,"reachTime":0,"deliveryTime":0,"deliveryLat":0,"deliveryLng":0,"clusterId":null,"address":{"id":"bd4a995f-54a5-4bd4-9229-7027c6cab7c1","address":"26, Amar Nilaya, C,1, 1st cross rd, old madiwala, chikka madivala, Maruti Nagar, 1st Stage, BTM 1st Stage, Bengaluru, Karnataka 560029","lat":12.920887,"lng":77.6156642,"orderId":"e225f5ef-5a67-4faf-9199-a9cd6c1b3537"}},{"id":"be26cbd2-39f5-4fca-9b16-a8b152112838","productId":"SKU_27","name":"Joshua Soto","status":"PENDING","awb":"82281135591","isDynamicPoint":false,"reachTime":0,"deliveryTime":0,"deliveryLat":0,"deliveryLng":0,"clusterId":null,"address":{"id":"35f2d621-fb61-43ad-a4c6-ccb72079af5d","address":"669, RBI Layout Main Rd, RBI Layout, JP Nagar 7th Phase, J. P. Nagar, Bengaluru, Karnataka 560078","lat":12.8918123,"lng":77.5793673,"orderId":"be26cbd2-39f5-4fca-9b16-a8b152112838"}},{"id":"9f59eed7-e6fe-4d6c-b897-040fc6a2b1ba","productId":"SKU_69","name":"Jay Schwenke","status":"PENDING","awb":"44208074096","isDynamicPoint":false,"reachTime":0,"deliveryTime":0,"deliveryLat":0,"deliveryLng":0,"clusterId":null,"address":{"id":"d7f9721b-9eb0-41ec-a622-04e5f41346b5","address":"361, Swagath Rd, BTB Areba, 4th T Block East, Jayanagar, Bengaluru, Karnataka 560041","lat":12.9283501,"lng":77.5925108,"orderId":"9f59eed7-e6fe-4d6c-b897-040fc6a2b1ba"}},{"id":"23175bcf-7f80-4a0e-9e6f-a55bd843bd47","productId":"SKU_101","name":"Christopher Mcwhorter","status":"PENDING","awb":"91179216667","isDynamicPoint":false,"reachTime":0,"deliveryTime":0,"deliveryLat":0,"deliveryLng":0,"clusterId":null,"address":{"id":"24475937-6133-4438-b937-fa1bc05e824d","address":"733/A, 10th Main Rd, 4th Block, Jayanagar, Bengaluru, Karnataka 560011","lat":12.9244394,"lng":77.5850995,"orderId":"23175bcf-7f80-4a0e-9e6f-a55bd843bd47"}},{"id":"303d7e16-08a3-46b3-a832-1c5b10be431a","productId":"SKU_116","name":"Erwin Whittle","status":"PENDING","awb":"53058056369","isDynamicPoint":false,"reachTime":0,"deliveryTime":0,"deliveryLat":0,"deliveryLng":0,"clusterId":null,"address":{"id":"48a644f9-1b2a-4a4e-b231-cff5a5d8d5c0","address":"4, T-Block, Jaya Nagar, Bengaluru, Karnataka 560041","lat":12.92567,"lng":77.59453309999999,"orderId":"303d7e16-08a3-46b3-a832-1c5b10be431a"}},{"id":"c246af88-bacb-4d80-871a-5f683190eda7","productId":"SKU_114","name":"Jacob Elkins","status":"PENDING","awb":"91696228698","isDynamicPoint":false,"reachTime":0,"deliveryTime":0,"deliveryLat":0,"deliveryLng":0,"clusterId":null,"address":{"id":"2e78bb20-b50a-42a4-b3f4-be7826129c35","address":"WJ75+HHV, 7th Cross Rd, Stage 2, BTM Layout, Bengaluru, Karnataka 560076","lat":12.9135564,"lng":77.6047039,"orderId":"c246af88-bacb-4d80-871a-5f683190eda7"}},{"id":"85addc13-0838-4ce4-8176-a2fa1f55504c","productId":"SKU_133","name":"Thelma Oneil","status":"PENDING","awb":"88827163512","isDynamicPoint":false,"reachTime":0,"deliveryTime":0,"deliveryLat":0,"deliveryLng":0,"clusterId":null,"address":{"id":"c02e2fea-e90c-43d1-a990-e89df4b9cd78","address":"8th F Main Rd, Near-Canara Bank, Jayanagar 3rd Block, Jayanagar, Bengaluru, Karnataka 560011","lat":12.931634,"lng":77.5835173,"orderId":"85addc13-0838-4ce4-8176-a2fa1f55504c"}},{"id":"9cebd673-e9da-4d90-9735-e6b0e659f082","productId":"SKU_116","name":"John Berry","status":"PENDING","awb":"80865662674","isDynamicPoint":false,"reachTime":0,"deliveryTime":0,"deliveryLat":0,"deliveryLng":0,"clusterId":null,"address":{"id":"88246fa1-c9d2-498e-b04b-6d86dc48c8b8","address":"Aicobo Nagar, 1st Stage, BTM 1st Stage, Bengaluru, Karnataka 560029","lat":12.9177884,"lng":77.609935,"orderId":"9cebd673-e9da-4d90-9735-e6b0e659f082"}},{"id":"ed095bd8-cb2f-4fd6-a3da-eafc3ba5e219","productId":"SKU_68","name":"Gregg Presley","status":"PENDING","awb":"54376014020","isDynamicPoint":false,"reachTime":0,"deliveryTime":0,"deliveryLat":0,"deliveryLng":0,"clusterId":null,"address":{"id":"c809c9d9-99b7-41ea-a4a8-f0349076ab26","address":"WJ52+W2C, JP Nagar Industrial Area Road, 3rd Phase, J. P. Nagar, Bengaluru, Karnataka 560078","lat":12.9101566,"lng":77.5999862,"orderId":"ed095bd8-cb2f-4fd6-a3da-eafc3ba5e219"}},{"id":"25af8a10-1030-41c2-be23-11dec99f6859","productId":"SKU_93","name":"Patricia Cobb","status":"PENDING","awb":"55832510393","isDynamicPoint":false,"reachTime":0,"deliveryTime":0,"deliveryLat":0,"deliveryLng":0,"clusterId":null,"address":{"id":"b45b072c-e330-4770-8462-e1138320056b","address":"126, 7th Main Rd, 4th Block, Jayanagar, Bengaluru, Karnataka 560011","lat":12.9282946,"lng":77.58166969999999,"orderId":"25af8a10-1030-41c2-be23-11dec99f6859"}},{"id":"7679cefb-65c2-4593-8be6-fa7a05b8c70e","productId":"SKU_64","name":"Maribel Rouse","status":"PENDING","awb":"86289113509","isDynamicPoint":false,"reachTime":0,"deliveryTime":0,"deliveryLat":0,"deliveryLng":0,"clusterId":null,"address":{"id":"0d320ac2-c44e-4e26-9858-142a9f585995","address":"33rd Main Rd, JP Nagar 6th Phase, KR Layout, JP Nagar Phase 6, J. P. Nagar, Bengaluru, Karnataka 560078","lat":12.904169,"lng":77.5802962,"orderId":"7679cefb-65c2-4593-8be6-fa7a05b8c70e"}},{"id":"4f914825-fca6-4e17-86e8-2a4d2e24e058","productId":"SKU_48","name":"Cassandra Carlson","status":"PENDING","awb":"75981254128","isDynamicPoint":false,"reachTime":0,"deliveryTime":0,"deliveryLat":0,"deliveryLng":0,"clusterId":null,"address":{"id":"9e3f5cb6-422e-4c47-8bf6-f324ccd630cd","address":"177/3, Bannerghatta Main Rd, Dollars Colony, Phase 4, J. P. Nagar, Bengaluru, Karnataka 560076","lat":12.904164,"lng":77.60051399999999,"orderId":"4f914825-fca6-4e17-86e8-2a4d2e24e058"}},{"id":"c2edc432-5431-4e4e-b511-c02ba417770c","productId":"SKU_101","name":"John Stommes","status":"PENDING","awb":"96561759420","isDynamicPoint":false,"reachTime":0,"deliveryTime":0,"deliveryLat":0,"deliveryLng":0,"clusterId":null,"address":{"id":"fd55f0dc-80a7-41ad-baf6-8a2507f5f91d","address":"1112, 30th Main Rd, Siddanna Layout, Banashankari Stage II, Banashankari, Bengaluru, Karnataka 560070","lat":12.927628,"lng":77.562046,"orderId":"c2edc432-5431-4e4e-b511-c02ba417770c"}},{"id":"2673fdf7-fe18-429a-90c7-0e44068a824a","productId":"SKU_23","name":"Carl Cox","status":"PENDING","awb":"86572552388","isDynamicPoint":false,"reachTime":0,"deliveryTime":0,"deliveryLat":0,"deliveryLng":0,"clusterId":null,"address":{"id":"b61b540f-e972-4892-ba7e-0e8caf67cb43","address":"Shop No. 312, Sultan Arcade, 15th Cross Rd, 5th Phase, J. P. Nagar, Bengaluru, Karnataka 560078","lat":12.9063958,"lng":77.5886106,"orderId":"2673fdf7-fe18-429a-90c7-0e44068a824a"}},{"id":"232390b2-0f43-421e-ad98-df966e0d2259","productId":"SKU_6","name":"Rachael Block","status":"PENDING","awb":"86078433402","isDynamicPoint":false,"reachTime":0,"deliveryTime":0,"deliveryLat":0,"deliveryLng":0,"clusterId":null,"address":{"id":"ab410db6-e441-4787-942f-d1d99ee2a769","address":"147, 24th Main Rd, R.K Colony, Marenahalli, 2nd Phase, J. P. Nagar, Bengaluru, Karnataka 560078","lat":12.9147029,"lng":77.586288,"orderId":"232390b2-0f43-421e-ad98-df966e0d2259"}},{"id":"fcf74277-4d2f-41a9-a9f3-f456cb31ad2d","productId":"SKU_137","name":"Marjorie Stoeger","status":"PENDING","awb":"84785126300","isDynamicPoint":false,"reachTime":0,"deliveryTime":0,"deliveryLat":0,"deliveryLng":0,"clusterId":null,"address":{"id":"c7237580-4d30-4195-996d-b313a2aeff2a","address":"509/A, Water Tank Rd, 4th Block, Banashankari 3rd Stage, Banashankari, Bengaluru, Karnataka 560085","lat":12.9293019,"lng":77.548993,"orderId":"fcf74277-4d2f-41a9-a9f3-f456cb31ad2d"}},{"id":"c712d7b3-f445-4551-b9f5-8cc72728f47e","productId":"SKU_106","name":"Patricia Helmes","status":"PENDING","awb":"88641855694","isDynamicPoint":false,"reachTime":0,"deliveryTime":0,"deliveryLat":0,"deliveryLng":0,"clusterId":null,"address":{"id":"04419715-3ac9-43a1-8cbf-6b255e7bdfe2","address":"3, Kothnur Main Rd, Nrupathunga Nagar, JP Nagar 7th Phase, J. P. Nagar, Bengaluru, Karnataka 560078","lat":12.8830931,"lng":77.5830352,"orderId":"c712d7b3-f445-4551-b9f5-8cc72728f47e"}},{"id":"1926234f-d4f3-42e6-a513-9bf345ca92bc","productId":"SKU_27","name":"Ruth Barnard","status":"PENDING","awb":"59120890236","isDynamicPoint":false,"reachTime":0,"deliveryTime":0,"deliveryLat":0,"deliveryLng":0,"clusterId":null,"address":{"id":"76a58794-e08d-4630-9448-f73384b3f799","address":"WJ54+QH2, 7th Main Rd, New Extension, Mahadeshwara Nagar, Stage 2, BTM Layout, Bengaluru, Karnataka 560076","lat":12.9083464,"lng":77.6063547,"orderId":"1926234f-d4f3-42e6-a513-9bf345ca92bc"}},{"id":"a5ec4bb4-351d-4355-85ea-6454bb3b6438","productId":"SKU_136","name":"Jack Porter","status":"PENDING","awb":"94711775363","isDynamicPoint":false,"reachTime":0,"deliveryTime":0,"deliveryLat":0,"deliveryLng":0,"clusterId":null,"address":{"id":"b32024d2-cb2c-4f05-b6e7-4a799216b445","address":"Shop No-29, SG Palya Main Rd, 8th Cross, DRC Post, Venkateshwara Layout, S.G. Palya, Bengaluru, Karnataka 560029","lat":12.9316407,"lng":77.60735559999999,"orderId":"a5ec4bb4-351d-4355-85ea-6454bb3b6438"}},{"id":"c7e610b5-83b5-48b9-9b7f-11903eacd9a0","productId":"SKU_44","name":"Anna Gamez","status":"PENDING","awb":"34867598067","isDynamicPoint":false,"reachTime":0,"deliveryTime":0,"deliveryLat":0,"deliveryLng":0,"clusterId":null,"address":{"id":"e8b3100a-7e89-4e43-879c-51738bf92122","address":"511, 28th Main Rd, 9th Cross, EWS Colony, Stage 2, BTM Layout, Bengaluru, Karnataka 560076","lat":12.9087984,"lng":77.61232079999999,"orderId":"c7e610b5-83b5-48b9-9b7f-11903eacd9a0"}},{"id":"c215baae-650d-43b7-a0c4-d36a4e10fc73","productId":"SKU_42","name":"Lawrence Goodman","status":"PENDING","awb":"70188710589","isDynamicPoint":false,"reachTime":0,"deliveryTime":0,"deliveryLat":0,"deliveryLng":0,"clusterId":null,"address":{"id":"7b3da074-3d78-4d75-b5e7-e2abad96d4b5","address":"268, 6th Main Rd, Near Indian Oil Petrol Bunk, Vysya Bank Colony, Stage 2, BTM Layout, Bengaluru, Karnataka 560076","lat":12.9154218,"lng":77.6057232,"orderId":"c215baae-650d-43b7-a0c4-d36a4e10fc73"}},{"id":"55e9cb4f-3591-4a57-9df0-ac3403ec7121","productId":"SKU_77","name":"Alexis Frasier","status":"PENDING","awb":"58254350974","isDynamicPoint":false,"reachTime":0,"deliveryTime":0,"deliveryLat":0,"deliveryLng":0,"clusterId":null,"address":{"id":"e4345d9c-01dc-4b89-8c90-b6b587d4bc8f","address":"1009 Vijaya Bank layout, BTM 4th Stage, Bengaluru, Karnataka 560076","lat":12.8851954,"lng":77.615875,"orderId":"55e9cb4f-3591-4a57-9df0-ac3403ec7121"}},{"id":"01d60cd9-8a75-472e-a27c-2f131e256652","productId":"SKU_53","name":"Scott Thresher","status":"PENDING","awb":"59080684363","isDynamicPoint":false,"reachTime":0,"deliveryTime":0,"deliveryLat":0,"deliveryLng":0,"clusterId":null,"address":{"id":"21f9e6c8-ce3f-449c-9aa6-7c996e952d3e","address":"VHPJ+PQP, RBI Layout, Phase 7, J. P. Nagar, Bengaluru, Karnataka 560078","lat":12.8895219,"lng":77.57985219999999,"orderId":"01d60cd9-8a75-472e-a27c-2f131e256652"}},{"id":"ba81c8cb-bd8a-4475-a881-d5db4b59db04","productId":"SKU_148","name":"Michelle Kerr","status":"PENDING","awb":"71271800797","isDynamicPoint":false,"reachTime":0,"deliveryTime":0,"deliveryLat":0,"deliveryLng":0,"clusterId":null,"address":{"id":"5275791a-2269-455b-a4b9-754dc39c71d6","address":"Soul Space Paradigm, 2nd Floor,, Outer Ring Rd, Marathahalli Village, Marathahalli, Bengaluru, Karnataka 560037","lat":12.9165769,"lng":77.61968519999999,"orderId":"ba81c8cb-bd8a-4475-a881-d5db4b59db04"}},{"id":"f7e25a06-4653-43ef-a2a8-6992656d38dc","productId":"SKU_57","name":"Richard Anello","status":"PENDING","awb":"62625900004","isDynamicPoint":false,"reachTime":0,"deliveryTime":0,"deliveryLat":0,"deliveryLng":0,"clusterId":null,"address":{"id":"bdf672b7-186f-4899-84b8-ade2b4e94027","address":"WGVV+7X4, Giri Nagar, II Phase, Banashankari 1st Stage, Banashankari, Bengaluru, Karnataka 560026","lat":12.9464295,"lng":77.5442752,"orderId":"f7e25a06-4653-43ef-a2a8-6992656d38dc"}},{"id":"8a483c13-a4c0-4531-8ba8-9294d1cb9d55","productId":"SKU_92","name":"Sara Stevens","status":"PENDING","awb":"31886824697","isDynamicPoint":false,"reachTime":0,"deliveryTime":0,"deliveryLat":0,"deliveryLng":0,"clusterId":null,"address":{"id":"b45c32ac-18ad-4558-ae3d-1a2f948cd807","address":"No.11, 24th Main Rd, 5th Phase, Ayodya Nagar, J P Nagar Phase 5, J. P. Nagar, Bengaluru, Karnataka 560078","lat":12.9020554,"lng":77.5857013,"orderId":"8a483c13-a4c0-4531-8ba8-9294d1cb9d55"}},{"id":"f7a52353-3a09-4091-be06-b38b16cc9c42","productId":"SKU_89","name":"Samatha Gunn","status":"PENDING","awb":"83480419918","isDynamicPoint":false,"reachTime":0,"deliveryTime":0,"deliveryLat":0,"deliveryLng":0,"clusterId":null,"address":{"id":"5961c622-4b94-4744-b1a9-8b3660ee9485","address":"6th Main Rd, Microlayout, Papannareddy Layout, Garvebhavi Palya, Bengaluru, Karnataka 560068","lat":12.8968205,"lng":77.6300754,"orderId":"f7a52353-3a09-4091-be06-b38b16cc9c42"}},{"id":"4afe0f79-f3fb-404d-bec1-09c94c72bec7","productId":"SKU_15","name":"Robert Cain","status":"PENDING","awb":"86480930075","isDynamicPoint":false,"reachTime":0,"deliveryTime":0,"deliveryLat":0,"deliveryLng":0,"clusterId":null,"address":{"id":"e8cae8e6-f27b-49d3-b472-3771ca4f4e29","address":"45, 13th Cross Rd, Old Madiwala, Maruti Nagar, 1st Stage, BTM Layout, Bengaluru, Karnataka 560068","lat":12.9219536,"lng":77.61449,"orderId":"4afe0f79-f3fb-404d-bec1-09c94c72bec7"}},{"id":"d1ed4f14-38b7-4c78-a3f0-ff33ba675459","productId":"SKU_8","name":"Marjorie Pittman","status":"PENDING","awb":"58820195333","isDynamicPoint":false,"reachTime":0,"deliveryTime":0,"deliveryLat":0,"deliveryLng":0,"clusterId":null,"address":{"id":"909cc25a-a3e3-4ab3-8c5a-71c6496cd384","address":"373, Swagath Rd, BTB Area, 4th T Block East, Jayanagar, Bengaluru, Karnataka 560041","lat":12.9283865,"lng":77.5931238,"orderId":"d1ed4f14-38b7-4c78-a3f0-ff33ba675459"}},{"id":"6155ce20-4531-43b6-8580-f93c44c8a30d","productId":"SKU_60","name":"Arlene Kenny","status":"PENDING","awb":"13664656749","isDynamicPoint":false,"reachTime":0,"deliveryTime":0,"deliveryLat":0,"deliveryLng":0,"clusterId":null,"address":{"id":"7e962dfd-f2fb-4b81-8094-0e3bfa9b7a2c","address":"39, 1st A Cross, Opp Swaraj Hypermarket, Chocolate Factory Rd, Tavarekere, BTM 1st Stage, Bengaluru, Karnataka 560068","lat":12.923326,"lng":77.61228969999999,"orderId":"6155ce20-4531-43b6-8580-f93c44c8a30d"}},{"id":"5d2be8c0-6e1b-4d19-a7a3-1f1ba3b1b57c","productId":"SKU_142","name":"Micah Joseph","status":"PENDING","awb":"75231506245","isDynamicPoint":false,"reachTime":0,"deliveryTime":0,"deliveryLat":0,"deliveryLng":0,"clusterId":null,"address":{"id":"1ac33181-dd26-4985-a910-a318e8458cc3","address":"340, 4th E Cross Rd, HRBR Layout 3rd Block, HRBR Layout, Kalyan Nagar, Bengaluru, Karnataka 560043","lat":13.0251641,"lng":77.6358004,"orderId":"5d2be8c0-6e1b-4d19-a7a3-1f1ba3b1b57c"}},{"id":"b14d6472-0cf8-4995-b9e4-1fde99900c05","productId":"SKU_148","name":"Jacob Godbee","status":"PENDING","awb":"74281553359","isDynamicPoint":false,"reachTime":0,"deliveryTime":0,"deliveryLat":0,"deliveryLng":0,"clusterId":null,"address":{"id":"418db260-16d9-455d-93bf-07dd9244bc34","address":"450, Outer Ring Rd, J P Nagar Phase 5, J. P. Nagar, Bengaluru, Karnataka 560078","lat":12.9061205,"lng":77.5903211,"orderId":"b14d6472-0cf8-4995-b9e4-1fde99900c05"}},{"id":"9888b515-6ada-4631-ad95-c196e9b3ba70","productId":"SKU_109","name":"Shannon Enciso","status":"PENDING","awb":"16603011240","isDynamicPoint":false,"reachTime":0,"deliveryTime":0,"deliveryLat":0,"deliveryLng":0,"clusterId":null,"address":{"id":"91210595-84e3-429c-b98e-d7a0588c7804","address":"530, 11th Main Rd, near GRT Jewellers, 4th T Block East, 4th Block, Jayanagar, Bengaluru, Karnataka 560011","lat":12.9264814,"lng":77.5859159,"orderId":"9888b515-6ada-4631-ad95-c196e9b3ba70"}}]}
