{"noOfOrders":211,"noOfRiders":20,"warehouseLocation":{"lat":12.971599,"lng":77.638725},"consignments":[{"id":"02b1d574-1620-47f6-9746-0d4517683459","productId":"SKU_140","name":"John Granderson","status":"PENDING","awb":"19455702296","isDynamicPoint":false,"reachTime":0,"deliveryTime":0,"deliveryLat":0,"deliveryLng":0,"clusterId":null,"address":{"id":"bf84d1a9-e922-48fd-a2b0-4d78cc2b4ea3","address":"Kadubeesanahalli, Near Aricent Technologies, Marathahalli, Bangalore","lat":12.9394137,"lng":77.6952031,"orderId":"02b1d574-1620-47f6-9746-0d4517683459"}},{"id":"1ae71b7d-8b9b-4fd6-be1a-b95022b614f3","productId":"SKU_138","name":"Sarah Kardashian","status":"PENDING","awb":"72031214940","isDynamicPoint":false,"reachTime":0,"deliveryTime":0,"deliveryLat":0,"deliveryLng":0,"clusterId":null,"address":{"id":"031cf1aa-6859-4620-820f-342720ac56fb","address":"8, 15th Main, 5th Phase, JP Nagar, Bangalore","lat":12.9033045,"lng":77.59173849999999,"orderId":"1ae71b7d-8b9b-4fd6-be1a-b95022b614f3"}},{"id":"668ea6f0-dc67-4c11-984e-cd79e85c02fe","productId":"SKU_146","name":"Thomas Viviano","status":"PENDING","awb":"46767096463","isDynamicPoint":false,"reachTime":0,"deliveryTime":0,"deliveryLat":0,"deliveryLng":0,"clusterId":null,"address":{"id":"2d4cbcda-3aa7-41c3-bf5a-71c15721a0e9","address":"Next to CMH Metro Station, CMH Road, Indiranagar, Bangalore","lat":12.9778862,"lng":77.64619789999999,"orderId":"668ea6f0-dc67-4c11-984e-cd79e85c02fe"}},{"id":"f7e5bbfa-0790-4d95-a3d6-c6b2ba76f595","productId":"SKU_113","name":"Daniel Marrin","status":"PENDING","awb":"94667742985","isDynamicPoint":false,"reachTime":0,"deliveryTime":0,"deliveryLat":0,"deliveryLng":0,"clusterId":null,"address":{"id":"13459db4-5af9-4424-9cf4-56c145bd2ffa","address":"970, 12th Main, 5th Cross, Indiranagar, Bangalore","lat":12.969924,"lng":77.6388704,"orderId":"f7e5bbfa-0790-4d95-a3d6-c6b2ba76f595"}},{"id":"41215bcd-6209-4d36-b789-af278210289d","productId":"SKU_24","name":"Larry Solomon","status":"PENDING","awb":"47772983315","isDynamicPoint":false,"reachTime":0,"deliveryTime":0,"deliveryLat":0,"deliveryLng":0,"clusterId":null,"address":{"id":"b0b747f3-4e4a-4ea4-a17f-1d118699b38e","address":"Near Bank Of India ATM, Ramka Colony, Bilekahalli, Marathahalli, Bangalore","lat":12.9019819,"lng":77.6042056,"orderId":"41215bcd-6209-4d36-b789-af278210289d"}},{"id":"a55e7789-db40-4052-9cb8-b4a98ef5784d","productId":"SKU_51","name":"Elijah Reno","status":"PENDING","awb":"69289578038","isDynamicPoint":false,"reachTime":0,"deliveryTime":0,"deliveryLat":0,"deliveryLng":0,"clusterId":null,"address":{"id":"1ae67e65-bd0d-453f-aa61-2b3242c372b0","address":"Brigade Millenium Inside Indian Music Experience Museum, JP Nagar, Bangalore, Bengaluru","lat":12.8917987,"lng":77.58368610000001,"orderId":"a55e7789-db40-4052-9cb8-b4a98ef5784d"}},{"id":"fd91e13c-6cb9-4a09-a3ae-6b5729074789","productId":"SKU_96","name":"Gerard Cardin","status":"PENDING","awb":"66193906105","isDynamicPoint":false,"reachTime":0,"deliveryTime":0,"deliveryLat":0,"deliveryLng":0,"clusterId":null,"address":{"id":"3a3212ec-78da-4a32-b5c5-e2fac5573247","address":"Site 15, 15th Cross, 100 Feet Road, 4th Phase, JP Nagar, Bangalore","lat":12.9061345,"lng":77.5968288,"orderId":"fd91e13c-6cb9-4a09-a3ae-6b5729074789"}},{"id":"a9b4177d-0f17-4001-98a7-9ca773d0290a","productId":"SKU_130","name":"Antoine Robertson","status":"PENDING","awb":"28090773455","isDynamicPoint":false,"reachTime":0,"deliveryTime":0,"deliveryLat":0,"deliveryLng":0,"clusterId":null,"address":{"id":"65a9cc0d-425c-4659-bae8-24fb16a64cc7","address":"Big Bazzar Building, JP Nagar, Bangalore","lat":12.8872242,"lng":77.58182599999999,"orderId":"a9b4177d-0f17-4001-98a7-9ca773d0290a"}},{"id":"c483f22c-d430-4a3d-b49e-32090bed9ab0","productId":"SKU_127","name":"Mary Reed","status":"PENDING","awb":"70918939146","isDynamicPoint":false,"reachTime":0,"deliveryTime":0,"deliveryLat":0,"deliveryLng":0,"clusterId":null,"address":{"id":"727db757-b933-4745-8f02-3c916f8a711a","address":"24, Church Street, Bangalore","lat":12.974685,"lng":77.605791,"orderId":"c483f22c-d430-4a3d-b49e-32090bed9ab0"}},{"id":"8eafbe4f-6da6-4e25-9ab3-4c6513127845","productId":"SKU_109","name":"Virginia Sauer","status":"PENDING","awb":"81926175607","isDynamicPoint":false,"reachTime":0,"deliveryTime":0,"deliveryLat":0,"deliveryLng":0,"clusterId":null,"address":{"id":"3c3379bc-fda2-477f-ae6b-fd9f595da2ff","address":"Cross Roads Inn, 827, Near RV Dental College Compound, 24th Main, 12th Cross, JP Nagar, Bangalore","lat":12.9085621,"lng":77.5859526,"orderId":"8eafbe4f-6da6-4e25-9ab3-4c6513127845"}},{"id":"7b028d17-f45a-43bf-9f7a-bb86dd10b1d3","productId":"SKU_100","name":"Herman Boulds","status":"PENDING","awb":"75026092650","isDynamicPoint":false,"reachTime":0,"deliveryTime":0,"deliveryLat":0,"deliveryLng":0,"clusterId":null,"address":{"id":"77ce08d9-0783-4c70-aaa4-d36b0c04102e","address":"6,Opposite Prestige Tech Park, Kadubeesanhalli Bus Stop, Marathahalli, Bangalore","lat":12.9432425,"lng":77.69190569999999,"orderId":"7b028d17-f45a-43bf-9f7a-bb86dd10b1d3"}},{"id":"c7acca14-6633-458d-9626-a799f0dc25d1","productId":"SKU_80","name":"Shelia West","status":"PENDING","awb":"84612864961","isDynamicPoint":false,"reachTime":0,"deliveryTime":0,"deliveryLat":0,"deliveryLng":0,"clusterId":null,"address":{"id":"6f781810-d736-4c67-ae92-c73c5f3daff9","address":"12th Main, HAL 2nd Stage, ESI To Domlur, Service Road, Indiranagar, Bangalore","lat":12.9614154,"lng":77.6349097,"orderId":"c7acca14-6633-458d-9626-a799f0dc25d1"}},{"id":"6bbb3cf9-9ec9-4bb4-a031-2129750ef652","productId":"SKU_48","name":"Mary Paongo","status":"PENDING","awb":"65188908427","isDynamicPoint":false,"reachTime":0,"deliveryTime":0,"deliveryLat":0,"deliveryLng":0,"clusterId":null,"address":{"id":"34bdfdcb-94f2-45b0-a631-746017015378","address":"Near Madurai Idly, SGR Dental College Road, CKB Layout, Chandra Layout, Marathahalli, Bengalore","lat":12.9499411,"lng":77.7006733,"orderId":"6bbb3cf9-9ec9-4bb4-a031-2129750ef652"}},{"id":"056e1ad7-f495-40f2-b70b-5354fbe8710f","productId":"SKU_103","name":"Martha Braun","status":"PENDING","awb":"60270106051","isDynamicPoint":false,"reachTime":0,"deliveryTime":0,"deliveryLat":0,"deliveryLng":0,"clusterId":null,"address":{"id":"456c7ebc-b5f5-41fa-80a9-2dd842bb3add","address":"296, Ground Floor, 5th Phase, 100 ft Outer Ring Road, JP Nagar, Bangalore","lat":12.906285,"lng":77.5874455,"orderId":"056e1ad7-f495-40f2-b70b-5354fbe8710f"}},{"id":"703b79da-9605-46be-bc8a-647d191154a0","productId":"SKU_88","name":"Ralph Evans","status":"PENDING","awb":"41965274833","isDynamicPoint":false,"reachTime":0,"deliveryTime":0,"deliveryLat":0,"deliveryLng":0,"clusterId":null,"address":{"id":"21a5c8b2-a8d7-4489-aed5-696b8e2f2972","address":"46, Church Street, Bangalore","lat":12.9757082,"lng":77.6023934,"orderId":"703b79da-9605-46be-bc8a-647d191154a0"}},{"id":"e2ef1d48-799b-4c06-abb4-e0e8c102561a","productId":"SKU_68","name":"Richard Wheeless","status":"PENDING","awb":"60147650973","isDynamicPoint":false,"reachTime":0,"deliveryTime":0,"deliveryLat":0,"deliveryLng":0,"clusterId":null,"address":{"id":"12c90754-ac56-497d-afb6-f62c250d587c","address":"20/7, Swamy Legato, Outer Ring Road, Kadubeesanahalli, Marathahalli, Bangalore","lat":12.9389269,"lng":77.6946805,"orderId":"e2ef1d48-799b-4c06-abb4-e0e8c102561a"}},{"id":"e238dc40-a33b-473b-9440-dbec792d6731","productId":"SKU_125","name":"Tim Sokol","status":"PENDING","awb":"50581824353","isDynamicPoint":false,"reachTime":0,"deliveryTime":0,"deliveryLat":0,"deliveryLng":0,"clusterId":null,"address":{"id":"afc3e5d3-d44f-423e-a56d-b939dc490b27","address":"724, 3rd Floor, RBI Layout, Rini Pearl, Opposite E.K. Retail, 7th Phase, JP Nagar, Bangalore","lat":12.8917914,"lng":77.577754,"orderId":"e238dc40-a33b-473b-9440-dbec792d6731"}},{"id":"a3b98e09-ed3a-4ffa-bb28-969eb7fd599e","productId":"SKU_38","name":"Theodore Bunch","status":"PENDING","awb":"85469796479","isDynamicPoint":false,"reachTime":0,"deliveryTime":0,"deliveryLat":0,"deliveryLng":0,"clusterId":null,"address":{"id":"a4839fc1-9047-4524-bc41-148059e6e559","address":"Opposite NIFT College, 2733, 16th Cross, 27th Main Road, PWD Quarters, 1st Sector, HSR Layout, HSR, Bangalore","lat":12.912702,"lng":77.652479,"orderId":"a3b98e09-ed3a-4ffa-bb28-969eb7fd599e"}},{"id":"34e87ed1-b53d-4d2f-b086-59668ca1cafd","productId":"SKU_36","name":"Virginia Hartzler","status":"PENDING","awb":"47626343441","isDynamicPoint":false,"reachTime":0,"deliveryTime":0,"deliveryLat":0,"deliveryLng":0,"clusterId":null,"address":{"id":"a736956d-9eb9-4f4b-bfef-707e193322b7","address":"2/1 Unit 6, Hoodi Kodigehalli Road, Opposite Crystal Apartment, KR Puram, Bangalore","lat":13.0017902,"lng":77.7231486,"orderId":"34e87ed1-b53d-4d2f-b086-59668ca1cafd"}},{"id":"b045476e-a2d2-42ac-a0e9-b5f8f85a7dcb","productId":"SKU_81","name":"Terry Mitchell","status":"PENDING","awb":"29925333677","isDynamicPoint":false,"reachTime":0,"deliveryTime":0,"deliveryLat":0,"deliveryLng":0,"clusterId":null,"address":{"id":"a7a46d7f-bbae-42ce-9d88-0daf0bc8c287","address":"8/ 9, 17th F Cross, 2nd Stage, Indiranagar, Bengaluru","lat":12.9771437,"lng":77.63256419999999,"orderId":"b045476e-a2d2-42ac-a0e9-b5f8f85a7dcb"}},{"id":"57dca210-44cf-4235-86a0-1b27da86f1b3","productId":"SKU_2","name":"Charles Trembley","status":"PENDING","awb":"22921695090","isDynamicPoint":false,"reachTime":0,"deliveryTime":0,"deliveryLat":0,"deliveryLng":0,"clusterId":null,"address":{"id":"4bf1c705-f905-4e45-bccd-846ecc044343","address":"1562, Sector 1, HSR, Bangalore","lat":12.9175337,"lng":77.65045719999999,"orderId":"57dca210-44cf-4235-86a0-1b27da86f1b3"}},{"id":"e46ce976-e5f4-4ef1-be72-df3124c10565","productId":"SKU_7","name":"Antonio Oliver","status":"PENDING","awb":"52273090335","isDynamicPoint":false,"reachTime":0,"deliveryTime":0,"deliveryLat":0,"deliveryLng":0,"clusterId":null,"address":{"id":"e0350a6e-0812-498f-8749-fbae44a52c8a","address":"305, Anand NR Onyx, 15th Cross, 100 Feet Ring Road, 5th Phase Extension, JP Nagar, Bangalore","lat":12.906285,"lng":77.5874455,"orderId":"e46ce976-e5f4-4ef1-be72-df3124c10565"}},{"id":"9aa38b06-c9d9-4f2e-80d5-c7932945fab0","productId":"SKU_16","name":"Frank Garcia","status":"PENDING","awb":"36774055970","isDynamicPoint":false,"reachTime":0,"deliveryTime":0,"deliveryLat":0,"deliveryLng":0,"clusterId":null,"address":{"id":"bb2fa32e-5a6d-4659-9b14-27af55c6aae8","address":"Eden Park7, 8 Doresani Palya, Near Kalyani Magnum, Opposite Oracle, 5th Phase, JP Nagar, Bangalore","lat":12.901773,"lng":77.594978,"orderId":"9aa38b06-c9d9-4f2e-80d5-c7932945fab0"}},{"id":"4114346c-e5cb-423e-8153-9c54daaee442","productId":"SKU_83","name":"Robert Olsen","status":"PENDING","awb":"44759282449","isDynamicPoint":false,"reachTime":0,"deliveryTime":0,"deliveryLat":0,"deliveryLng":0,"clusterId":null,"address":{"id":"f05ad5eb-8d9d-442a-b551-5da6e3c25405","address":"36, Off MG Road, Church Street, Bangalore","lat":12.9739924,"lng":77.6124456,"orderId":"4114346c-e5cb-423e-8153-9c54daaee442"}},{"id":"523fe6e8-a7d6-4281-9f2f-fdae29ee63e3","productId":"SKU_55","name":"Patrick Gilliam","status":"PENDING","awb":"51656603551","isDynamicPoint":false,"reachTime":0,"deliveryTime":0,"deliveryLat":0,"deliveryLng":0,"clusterId":null,"address":{"id":"6d8b9df6-e2cd-4b55-a1ef-04f6c3c3262a","address":"90/4, Above Sony Centre, Opposite Park Plaza, Outer Ring Road, Marathahalli, Bangalore","lat":12.9502139,"lng":77.6989321,"orderId":"523fe6e8-a7d6-4281-9f2f-fdae29ee63e3"}},{"id":"b27681a2-f293-4163-b7fa-f362e85f91a1","productId":"SKU_106","name":"Christopher Watters","status":"PENDING","awb":"83381832974","isDynamicPoint":false,"reachTime":0,"deliveryTime":0,"deliveryLat":0,"deliveryLng":0,"clusterId":null,"address":{"id":"b00d739d-815e-4090-bc48-b6782c531f7f","address":"G-005, City Centre, 28/4, Church Street, Bangalore","lat":12.9756472,"lng":77.60225369999999,"orderId":"b27681a2-f293-4163-b7fa-f362e85f91a1"}},{"id":"c31a7b2d-e89f-4b13-83ae-7893d42a5f22","productId":"SKU_17","name":"George Douglas","status":"PENDING","awb":"86841663173","isDynamicPoint":false,"reachTime":0,"deliveryTime":0,"deliveryLat":0,"deliveryLng":0,"clusterId":null,"address":{"id":"3cd6a8ac-8fb7-4997-9077-be002e8df156","address":"Domlur, Bangalore","lat":12.9609857,"lng":77.6387316,"orderId":"c31a7b2d-e89f-4b13-83ae-7893d42a5f22"}},{"id":"9053dc36-618f-42af-8b4a-b6455d8a021c","productId":"SKU_106","name":"Jesus Rodriguez","status":"PENDING","awb":"66471762239","isDynamicPoint":false,"reachTime":0,"deliveryTime":0,"deliveryLat":0,"deliveryLng":0,"clusterId":null,"address":{"id":"5f64d1a3-3420-44b6-842f-666f808398c3","address":"Shop 339, 27th Main Road, HSR Layout Sector 2, Bangalore","lat":12.9078089,"lng":77.651859,"orderId":"9053dc36-618f-42af-8b4a-b6455d8a021c"}},{"id":"9f212dbe-8452-4d44-9473-6ddea1e0728b","productId":"SKU_144","name":"John Dutton","status":"PENDING","awb":"85830764356","isDynamicPoint":false,"reachTime":0,"deliveryTime":0,"deliveryLat":0,"deliveryLng":0,"clusterId":null,"address":{"id":"6d03219f-7f66-4af2-ad8c-97dff7548dca","address":"77/1, 24th Main, 2nd Phase, JP Nagar, Bangalore","lat":12.9158698,"lng":77.5860082,"orderId":"9f212dbe-8452-4d44-9473-6ddea1e0728b"}},{"id":"e1595584-a43a-4e5e-bad8-b28c214fada5","productId":"SKU_74","name":"Daren Devit","status":"PENDING","awb":"82980897770","isDynamicPoint":false,"reachTime":0,"deliveryTime":0,"deliveryLat":0,"deliveryLng":0,"clusterId":null,"address":{"id":"2b951e57-ccd8-4c9e-a4dc-891d765d234b","address":"Amoolya, 1st Floor, 24th Main, 6th Phase, JP Nagar, Bangalore","lat":12.9088826,"lng":77.5857567,"orderId":"e1595584-a43a-4e5e-bad8-b28c214fada5"}},{"id":"460c5f5c-39d8-457f-b7a3-56e977fa8033","productId":"SKU_21","name":"John Fridley","status":"PENDING","awb":"14876577908","isDynamicPoint":false,"reachTime":0,"deliveryTime":0,"deliveryLat":0,"deliveryLng":0,"clusterId":null,"address":{"id":"c9a7276c-4fd7-4b16-89a5-670236d648f0","address":"1260 SY 35/4 SJR Tower's, 24th Main Puttanhalli, JP Nagar 7th Phase, Bangalore","lat":12.9003937,"lng":77.5858415,"orderId":"460c5f5c-39d8-457f-b7a3-56e977fa8033"}},{"id":"0f0363e1-cc24-434b-b5b6-915dee269e11","productId":"SKU_134","name":"Johnny Runyan","status":"PENDING","awb":"66314622688","isDynamicPoint":false,"reachTime":0,"deliveryTime":0,"deliveryLat":0,"deliveryLng":0,"clusterId":null,"address":{"id":"2ad64108-92aa-419a-b537-810b608afaa3","address":"99/4, Nataraja Layout, 7th Phase, JP Nagar, Bangalore","lat":12.8897963,"lng":77.58558289999999,"orderId":"0f0363e1-cc24-434b-b5b6-915dee269e11"}},{"id":"40d6b416-099a-4af0-9a63-06812d19fee7","productId":"SKU_13","name":"James Rego","status":"PENDING","awb":"72346908029","isDynamicPoint":false,"reachTime":0,"deliveryTime":0,"deliveryLat":0,"deliveryLng":0,"clusterId":null,"address":{"id":"55cde1c1-9d10-4c13-966f-d7d13e374238","address":"97, Wilson Garden Housing Society, 7th Phase, JP Nagar, Bangalore","lat":12.8978624,"lng":77.58450839999999,"orderId":"40d6b416-099a-4af0-9a63-06812d19fee7"}},{"id":"12b574e5-7c81-4464-bb8a-f3c83ce8b81d","productId":"SKU_77","name":"William Rivera","status":"PENDING","awb":"60615787248","isDynamicPoint":false,"reachTime":0,"deliveryTime":0,"deliveryLat":0,"deliveryLng":0,"clusterId":null,"address":{"id":"1fd71c9d-05be-406d-90fe-f59bccd9d5af","address":"99/2A, Kothnoor Main Road, Opposite RBI Layout Bus Stop, 7th Phase, JP Nagar, Bangalore","lat":12.8902416,"lng":77.58212879999999,"orderId":"12b574e5-7c81-4464-bb8a-f3c83ce8b81d"}},{"id":"6e24843b-7139-4e97-a231-90c212ba91b0","productId":"SKU_98","name":"Mildred Richards","status":"PENDING","awb":"73908465584","isDynamicPoint":false,"reachTime":0,"deliveryTime":0,"deliveryLat":0,"deliveryLng":0,"clusterId":null,"address":{"id":"4dfa8ed5-bb0b-4deb-8953-419288e50f8a","address":"44-45, Terrace Floor, 24th Main Road, 7th phase, JP Nagar, Bangalore","lat":12.8982804,"lng":77.5858544,"orderId":"6e24843b-7139-4e97-a231-90c212ba91b0"}},{"id":"acd4880b-d00b-41e4-b2b8-f406951a8bfd","productId":"SKU_116","name":"Phyllis Ehlers","status":"PENDING","awb":"84366653069","isDynamicPoint":false,"reachTime":0,"deliveryTime":0,"deliveryLat":0,"deliveryLng":0,"clusterId":null,"address":{"id":"7f975657-0cdb-4f55-9e62-fef948cf4010","address":"2, Church Street, Bangalore","lat":12.9746635,"lng":77.60765219999999,"orderId":"acd4880b-d00b-41e4-b2b8-f406951a8bfd"}},{"id":"fa043d06-f51a-4ecc-864b-3f20bcbf5fc0","productId":"SKU_73","name":"Marvin Buck","status":"PENDING","awb":"76687493477","isDynamicPoint":false,"reachTime":0,"deliveryTime":0,"deliveryLat":0,"deliveryLng":0,"clusterId":null,"address":{"id":"3e61de27-8922-46a7-8fab-d4b2f8f05dae","address":"2317, 27th Main, Sector 1, Opposite NIFT College, HSR Layout, HSR, Bangalore","lat":12.9124495,"lng":77.65167629999999,"orderId":"fa043d06-f51a-4ecc-864b-3f20bcbf5fc0"}},{"id":"0c4d3b84-3301-49bd-a5d0-14d3c1ebacb3","productId":"SKU_114","name":"Doria Ferguson","status":"PENDING","awb":"20550226542","isDynamicPoint":false,"reachTime":0,"deliveryTime":0,"deliveryLat":0,"deliveryLng":0,"clusterId":null,"address":{"id":"6f982fa2-b72a-4928-9197-26048c205a3a","address":"1083, 12th main, 5th Cross, Indiranagar, Bangalore","lat":12.9699539,"lng":77.638717,"orderId":"0c4d3b84-3301-49bd-a5d0-14d3c1ebacb3"}},{"id":"c8342da0-c328-4fb9-b429-5079084b0791","productId":"SKU_100","name":"Willie Matson","status":"PENDING","awb":"77357637627","isDynamicPoint":false,"reachTime":0,"deliveryTime":0,"deliveryLat":0,"deliveryLng":0,"clusterId":null,"address":{"id":"bb7bbdd9-2bad-482a-a122-f8cf9604e1f7","address":"18, K.R Layout, Dollar Colony, 4th Phase, JP Nagar","lat":12.9052573,"lng":77.5841502,"orderId":"c8342da0-c328-4fb9-b429-5079084b0791"}},{"id":"a842902e-4824-4415-8d7b-9ff624e5a6cd","productId":"SKU_116","name":"Peggy Heisler","status":"PENDING","awb":"84014569034","isDynamicPoint":false,"reachTime":0,"deliveryTime":0,"deliveryLat":0,"deliveryLng":0,"clusterId":null,"address":{"id":"8fea3af6-7581-4e51-82bf-6edfce7f1a7b","address":"Shop 2, Kodigahalli Main Road, KR Puram","lat":13.0077274,"lng":77.7342053,"orderId":"a842902e-4824-4415-8d7b-9ff624e5a6cd"}},{"id":"92145bb0-709a-4387-821a-2d1f1fd7edb0","productId":"SKU_65","name":"Nathan Merkel","status":"PENDING","awb":"65216540873","isDynamicPoint":false,"reachTime":0,"deliveryTime":0,"deliveryLat":0,"deliveryLng":0,"clusterId":null,"address":{"id":"18cdd256-f50d-411e-9321-6fd71d52cea1","address":"15, 7th Cross, Near Mother Teresa School, ITI Layout, Hosapalya Main Road, HSR, Bangalore","lat":12.8921504,"lng":77.6282442,"orderId":"92145bb0-709a-4387-821a-2d1f1fd7edb0"}},{"id":"2893da48-698b-42e5-865c-00e4f7cfa8b2","productId":"SKU_9","name":"William Wilson","status":"PENDING","awb":"95752660397","isDynamicPoint":false,"reachTime":0,"deliveryTime":0,"deliveryLat":0,"deliveryLng":0,"clusterId":null,"address":{"id":"cbbbee71-9e38-47b2-80a8-988570bbc266","address":"1554, Ground Floor, 19th Main, Sector 1, HSR, Bangalore","lat":12.9136257,"lng":77.6446549,"orderId":"2893da48-698b-42e5-865c-00e4f7cfa8b2"}},{"id":"abb49ea6-68fe-4d42-b32f-fc310d91cebe","productId":"SKU_70","name":"Terresa Breau","status":"PENDING","awb":"41474085570","isDynamicPoint":false,"reachTime":0,"deliveryTime":0,"deliveryLat":0,"deliveryLng":0,"clusterId":null,"address":{"id":"0820f0f5-0683-4a19-b195-3f19dfca4226","address":"2331, 17th Cross, 24th Main, HSR, Bangalore","lat":12.9120766,"lng":77.6494981,"orderId":"abb49ea6-68fe-4d42-b32f-fc310d91cebe"}},{"id":"a7fea780-018a-407f-b179-99873063a311","productId":"SKU_27","name":"Virginia Cole","status":"PENDING","awb":"15239382796","isDynamicPoint":false,"reachTime":0,"deliveryTime":0,"deliveryLat":0,"deliveryLng":0,"clusterId":null,"address":{"id":"c911cf98-f362-4347-baaf-7e3d36b93f55","address":"14, 2nd Floor, Church Street, Bangalore","lat":12.9743127,"lng":77.6077163,"orderId":"a7fea780-018a-407f-b179-99873063a311"}},{"id":"c0f1d033-7271-4094-88ff-f48eebbbddf9","productId":"SKU_23","name":"Shawn Reeves","status":"PENDING","awb":"40661403008","isDynamicPoint":false,"reachTime":0,"deliveryTime":0,"deliveryLat":0,"deliveryLng":0,"clusterId":null,"address":{"id":"ba62ce4f-ca8a-4d84-9214-a8ab578f3a90","address":"9/3, Prestige Pearl House, Museum Road, Church Street, Bangalore","lat":12.9735121,"lng":77.60334499999999,"orderId":"c0f1d033-7271-4094-88ff-f48eebbbddf9"}},{"id":"cdc7491d-406e-493b-84aa-18316c6d48a7","productId":"SKU_92","name":"Daniel Moore","status":"PENDING","awb":"81028594970","isDynamicPoint":false,"reachTime":0,"deliveryTime":0,"deliveryLat":0,"deliveryLng":0,"clusterId":null,"address":{"id":"2f22bf58-9ee3-4b04-8d7a-179e4694bbc4","address":"57, 15th Cross Road, Outer Ring Road, Phase 6, JP Nagar, Bangalore","lat":12.9070991,"lng":77.5996462,"orderId":"cdc7491d-406e-493b-84aa-18316c6d48a7"}},{"id":"271e1aff-952a-4fb2-a7e3-042dce18395c","productId":"SKU_45","name":"Michael Frasier","status":"PENDING","awb":"38200322788","isDynamicPoint":false,"reachTime":0,"deliveryTime":0,"deliveryLat":0,"deliveryLng":0,"clusterId":null,"address":{"id":"46a48e7c-6372-4a11-8018-1b9291abd159","address":"544, First Floor, Near Indiranagar Metro Station, CMH Road, Indiranagar, Bangalore","lat":12.9783143,"lng":77.637585,"orderId":"271e1aff-952a-4fb2-a7e3-042dce18395c"}},{"id":"4fb771ec-b3d5-4394-b526-6d3d41e23a70","productId":"SKU_41","name":"Jessica Blakely","status":"PENDING","awb":"35496906287","isDynamicPoint":false,"reachTime":0,"deliveryTime":0,"deliveryLat":0,"deliveryLng":0,"clusterId":null,"address":{"id":"21ce0870-32ee-477e-baa2-55f4d65cec2e","address":"Near Bank Of India ATM, Ramka Colony, Bilekahalli, Marathahalli, Bangalore","lat":12.9019819,"lng":77.6042056,"orderId":"4fb771ec-b3d5-4394-b526-6d3d41e23a70"}},{"id":"c182c666-2123-4981-a1c2-39175d6d7e76","productId":"SKU_10","name":"Shirlee Tennant","status":"PENDING","awb":"66146763539","isDynamicPoint":false,"reachTime":0,"deliveryTime":0,"deliveryLat":0,"deliveryLng":0,"clusterId":null,"address":{"id":"1c3c71f0-6aba-49fa-b3b6-bd1a6dfe2cf1","address":"3217, 13th Cross, Indiranagar, Bangalore","lat":12.9727187,"lng":77.63514049999999,"orderId":"c182c666-2123-4981-a1c2-39175d6d7e76"}},{"id":"4bdead6d-9612-41c2-944f-756029cdca1f","productId":"SKU_120","name":"Patricia Haislip","status":"PENDING","awb":"98312518779","isDynamicPoint":false,"reachTime":0,"deliveryTime":0,"deliveryLat":0,"deliveryLng":0,"clusterId":null,"address":{"id":"3cc91a00-a58b-4ec4-9474-91387749f1ed","address":"94/2, Panathur Railway Station Road, Opp to JP Morgan (Outer Ring Road), Munnireddy Layout, Panathur, Bangalore","lat":12.9409139,"lng":77.696234,"orderId":"4bdead6d-9612-41c2-944f-756029cdca1f"}},{"id":"83788a61-9c5c-4b24-9dac-fe10192a78dc","productId":"SKU_106","name":"Christopher Porter","status":"PENDING","awb":"50745703670","isDynamicPoint":false,"reachTime":0,"deliveryTime":0,"deliveryLat":0,"deliveryLng":0,"clusterId":null,"address":{"id":"8c0b5077-f9fc-49a9-82c2-f1321fe7b08b","address":"2610, 27th Main, Near NIFT, HSR Layout, HSR, Bangalore","lat":12.9129272,"lng":77.6516473,"orderId":"83788a61-9c5c-4b24-9dac-fe10192a78dc"}},{"id":"33ee73cf-42c8-4074-81ad-d9f2c5c7c433","productId":"SKU_87","name":"Tracy Vanhoy","status":"PENDING","awb":"17162566322","isDynamicPoint":false,"reachTime":0,"deliveryTime":0,"deliveryLat":0,"deliveryLng":0,"clusterId":null,"address":{"id":"70e3baeb-4b39-47a7-814a-f63927acfe7f","address":"41, Kadubeesanahalli, Marathahalli, Bangalore","lat":12.9394137,"lng":77.6952031,"orderId":"33ee73cf-42c8-4074-81ad-d9f2c5c7c433"}},{"id":"f0dfa531-b5e2-4385-82e2-d09405c523c7","productId":"SKU_28","name":"Leticia Coleman","status":"PENDING","awb":"13385067871","isDynamicPoint":false,"reachTime":0,"deliveryTime":0,"deliveryLat":0,"deliveryLng":0,"clusterId":null,"address":{"id":"d2c87280-c399-4793-9922-73dfb46c9574","address":"5th A Cross, Lakshmi Complex, Manjunatha Colony, Near RV Dental College, 2nd phase, JP Nagar, Bangalore","lat":12.9113897,"lng":77.584992,"orderId":"f0dfa531-b5e2-4385-82e2-d09405c523c7"}},{"id":"8b6d05e4-3bac-4acd-a523-ff7574981f75","productId":"SKU_83","name":"Sam Vest","status":"PENDING","awb":"96594637899","isDynamicPoint":false,"reachTime":0,"deliveryTime":0,"deliveryLat":0,"deliveryLng":0,"clusterId":null,"address":{"id":"d1b34ebb-b99e-4390-abb7-c6376142acf9","address":"1260 SY 35/4 SJR Tower's, JP Nagar 7th Phase, 24th Main Puttanhalli, JP Nagar, Bangalore","lat":12.9003937,"lng":77.5858415,"orderId":"8b6d05e4-3bac-4acd-a523-ff7574981f75"}},{"id":"51352375-8059-49d0-a4d9-9e72761918cd","productId":"SKU_89","name":"Nanette Mcbride","status":"PENDING","awb":"11910424508","isDynamicPoint":false,"reachTime":0,"deliveryTime":0,"deliveryLat":0,"deliveryLng":0,"clusterId":null,"address":{"id":"09dec1de-7a85-4cd1-8674-7f85b729a02e","address":"680-669, 13th Cross Rd, 1st Sector, HSR Layout, Bengaluru, Karnataka","lat":12.9159261,"lng":77.6497332,"orderId":"51352375-8059-49d0-a4d9-9e72761918cd"}},{"id":"e272a66f-e4e5-45ed-98e8-c149d1f7693c","productId":"SKU_83","name":"Thelma Howells","status":"PENDING","awb":"28074155949","isDynamicPoint":false,"reachTime":0,"deliveryTime":0,"deliveryLat":0,"deliveryLng":0,"clusterId":null,"address":{"id":"35ddf02c-75ea-4452-9ee8-43a622ec87fc","address":"2610, 27th Main, Near NIFT, HSR Layout, HSR, Bangalore","lat":12.9129272,"lng":77.6516473,"orderId":"e272a66f-e4e5-45ed-98e8-c149d1f7693c"}},{"id":"f8819426-f2e9-4358-845e-f1cc5107830f","productId":"SKU_8","name":"John Kessler","status":"PENDING","awb":"84961010116","isDynamicPoint":false,"reachTime":0,"deliveryTime":0,"deliveryLat":0,"deliveryLng":0,"clusterId":null,"address":{"id":"22b86201-9e48-4968-ac89-58a11a687bfa","address":"20\\5, Panathur Junction, Outer Ring Road, Kadubeessanahalli, Marathahalli, Bangalore","lat":12.9399931,"lng":77.6962218,"orderId":"f8819426-f2e9-4358-845e-f1cc5107830f"}},{"id":"0a60846d-e150-4a0f-a8f5-916cbae6dcfe","productId":"SKU_138","name":"Harry Heishman","status":"PENDING","awb":"32184021928","isDynamicPoint":false,"reachTime":0,"deliveryTime":0,"deliveryLat":0,"deliveryLng":0,"clusterId":null,"address":{"id":"d880771b-4d10-4a45-8c47-9b8108a245fb","address":"5, KBR Mall Complex, Ground Floor, More Mega Store, Varthur Hobli, Marathahalli, Bangalore","lat":12.9482807,"lng":77.6983956,"orderId":"0a60846d-e150-4a0f-a8f5-916cbae6dcfe"}},{"id":"290b38e2-7e8f-4889-be8f-e6df23301897","productId":"SKU_91","name":"Marjorie Williamson","status":"PENDING","awb":"24472334890","isDynamicPoint":false,"reachTime":0,"deliveryTime":0,"deliveryLat":0,"deliveryLng":0,"clusterId":null,"address":{"id":"8efb9721-cd8d-45e2-a3a2-ffbd235da363","address":"46, Church Street, Bangalore","lat":12.9757082,"lng":77.6023934,"orderId":"290b38e2-7e8f-4889-be8f-e6df23301897"}},{"id":"9c320888-09b9-4cf2-bc62-18a96499419c","productId":"SKU_136","name":"Jenna Reed","status":"PENDING","awb":"30262250302","isDynamicPoint":false,"reachTime":0,"deliveryTime":0,"deliveryLat":0,"deliveryLng":0,"clusterId":null,"address":{"id":"6b69c6ce-6eb2-499b-b76f-4ac9e9884fe7","address":"119/19, Ground Floor, 10th Cross, Venkateshwara Layout, SG Palya, HSR, Bangalore","lat":12.9481544,"lng":77.5971734,"orderId":"9c320888-09b9-4cf2-bc62-18a96499419c"}},{"id":"2e494d2b-f431-4a19-86b3-4cc833ebdbbf","productId":"SKU_3","name":"Bobbie Scarborough","status":"PENDING","awb":"60841023934","isDynamicPoint":false,"reachTime":0,"deliveryTime":0,"deliveryLat":0,"deliveryLng":0,"clusterId":null,"address":{"id":"e560e2fd-2cdc-42f6-8c34-ed9715d3d6c7","address":"Srinivasa Nilayam, Site 3, Vidya Vikas School Road, Panathur New Extension, Kaverappa Layout, Marathahalli, Bangalore","lat":12.9351663,"lng":77.7008211,"orderId":"2e494d2b-f431-4a19-86b3-4cc833ebdbbf"}},{"id":"0596cdbb-1d7b-4187-a992-2cfb91b2f27c","productId":"SKU_75","name":"Lawerence Lindsay","status":"PENDING","awb":"13337031353","isDynamicPoint":false,"reachTime":0,"deliveryTime":0,"deliveryLat":0,"deliveryLng":0,"clusterId":null,"address":{"id":"372d96dd-c87f-4fe6-8ee0-91430b86ece7","address":"212/A, 1st Main Road, Stage 2, Indiranagar, Bangalore","lat":12.9653791,"lng":77.63803399999999,"orderId":"0596cdbb-1d7b-4187-a992-2cfb91b2f27c"}},{"id":"22ce608a-5de6-4b89-9742-4ac19288b3a3","productId":"SKU_110","name":"Frances Chai","status":"PENDING","awb":"96874607527","isDynamicPoint":false,"reachTime":0,"deliveryTime":0,"deliveryLat":0,"deliveryLng":0,"clusterId":null,"address":{"id":"6e4f7d51-955f-4ce1-85f0-fd17cf356a82","address":"647, Ground Floor, 27th Main Road, Sector 1, HSR, Bangalore","lat":12.9119893,"lng":77.651832,"orderId":"22ce608a-5de6-4b89-9742-4ac19288b3a3"}},{"id":"d2adf9e8-793e-42a6-83a4-b3199ae83f62","productId":"SKU_45","name":"Brian Glass","status":"PENDING","awb":"98072567575","isDynamicPoint":false,"reachTime":0,"deliveryTime":0,"deliveryLat":0,"deliveryLng":0,"clusterId":null,"address":{"id":"fae87fa4-de14-4cf0-9d9b-9194eb8a0861","address":"5th Cross Road, Dollar Layout, 3rd Phase, JP Nagar, Bangalore","lat":12.9066907,"lng":77.602318,"orderId":"d2adf9e8-793e-42a6-83a4-b3199ae83f62"}},{"id":"27ab8d67-7f92-40b2-8543-bce23d3857b1","productId":"SKU_82","name":"Kenneth Baker","status":"PENDING","awb":"42498449819","isDynamicPoint":false,"reachTime":0,"deliveryTime":0,"deliveryLat":0,"deliveryLng":0,"clusterId":null,"address":{"id":"47f537b5-33e6-4132-b6b5-7650dccb114d","address":"2318, 27th Main Road, 1st Sector, HSR, Bangalore","lat":12.9121594,"lng":77.6516733,"orderId":"27ab8d67-7f92-40b2-8543-bce23d3857b1"}},{"id":"632c79c7-f3fb-41a2-8986-099d1e93bab5","productId":"SKU_93","name":"Carol Pettway","status":"PENDING","awb":"74962568491","isDynamicPoint":false,"reachTime":0,"deliveryTime":0,"deliveryLat":0,"deliveryLng":0,"clusterId":null,"address":{"id":"7d433b28-dbf0-4635-b9c1-2a78d8c6ac69","address":"Shop 5, LNR Building, Harlur Road, HSR, Bangalore","lat":12.9069779,"lng":77.6634925,"orderId":"632c79c7-f3fb-41a2-8986-099d1e93bab5"}},{"id":"f5c327c2-8c53-4bed-9c20-e3a8bad79c66","productId":"SKU_104","name":"Virginia Hernandez","status":"PENDING","awb":"81129879069","isDynamicPoint":false,"reachTime":0,"deliveryTime":0,"deliveryLat":0,"deliveryLng":0,"clusterId":null,"address":{"id":"94c8431b-5895-4622-9e07-24a1b1dabe7a","address":"92, Kodigehalli Main Road, Ayyappa Nagar, KR Puram, Bangalore","lat":13.004608,"lng":77.7140429,"orderId":"f5c327c2-8c53-4bed-9c20-e3a8bad79c66"}},{"id":"1b250189-7797-4f07-a2ed-346ede362617","productId":"SKU_149","name":"Delores Dupont","status":"PENDING","awb":"22660986194","isDynamicPoint":false,"reachTime":0,"deliveryTime":0,"deliveryLat":0,"deliveryLng":0,"clusterId":null,"address":{"id":"19144877-ef48-4e1a-b744-2b7f85b6673f","address":"20\\5, Panathur Junction, Outer Ring Road, Kadubeessanahalli, Marathahalli, Bangalore","lat":12.9399931,"lng":77.6962218,"orderId":"1b250189-7797-4f07-a2ed-346ede362617"}},{"id":"ede970ba-2cf2-496d-b36c-88e683d4a8f8","productId":"SKU_13","name":"Mary Davis","status":"PENDING","awb":"49002247401","isDynamicPoint":false,"reachTime":0,"deliveryTime":0,"deliveryLat":0,"deliveryLng":0,"clusterId":null,"address":{"id":"ee23d7ff-ddc3-4a0b-b237-715836acf076","address":"2633, 27th Main, 13th Cross, 1st Sector, Liss Arcade, HSR, Bangalore","lat":12.9156333,"lng":77.6516664,"orderId":"ede970ba-2cf2-496d-b36c-88e683d4a8f8"}},{"id":"9b1494a3-acf6-44cb-aba1-5388ecc54a93","productId":"SKU_148","name":"Jane Jones","status":"PENDING","awb":"73406214406","isDynamicPoint":false,"reachTime":0,"deliveryTime":0,"deliveryLat":0,"deliveryLng":0,"clusterId":null,"address":{"id":"fbc59ccc-1fc9-45a3-ae84-ce90be29acad","address":"88, KBR Complex, More Mega Store, Marathahalli, Bangalore","lat":12.9482807,"lng":77.6983956,"orderId":"9b1494a3-acf6-44cb-aba1-5388ecc54a93"}},{"id":"93924549-ca7c-4963-9d65-3e9a2e201369","productId":"SKU_90","name":"Mary Duffy","status":"PENDING","awb":"62758300340","isDynamicPoint":false,"reachTime":0,"deliveryTime":0,"deliveryLat":0,"deliveryLng":0,"clusterId":null,"address":{"id":"80500229-affb-4337-ba79-d8ddd0bd24e3","address":"88, 1st Floor, VIMS Hospital Building, Outer Ring Road, Marathahalli, Bangalore","lat":12.9483018,"lng":77.69946519999999,"orderId":"93924549-ca7c-4963-9d65-3e9a2e201369"}},{"id":"413b4af3-ca0d-4fd2-be2e-c1b0de24cbbd","productId":"SKU_136","name":"Diana Gerry","status":"PENDING","awb":"34795550625","isDynamicPoint":false,"reachTime":0,"deliveryTime":0,"deliveryLat":0,"deliveryLng":0,"clusterId":null,"address":{"id":"a7ebaff6-191f-4d19-9360-f2dbd104abe8","address":"44, Kodigehalli to Hoodi Main Road, Mahadevapura Post, KR Puram, Bangalore","lat":12.9860236,"lng":77.7084196,"orderId":"413b4af3-ca0d-4fd2-be2e-c1b0de24cbbd"}},{"id":"d1b22201-6e78-4d13-8f88-a10ec677c5af","productId":"SKU_38","name":"Anna Kelly","status":"PENDING","awb":"76031744666","isDynamicPoint":false,"reachTime":0,"deliveryTime":0,"deliveryLat":0,"deliveryLng":0,"clusterId":null,"address":{"id":"f8b83fc2-3302-4bad-b928-e29d567bad95","address":"281, 2nd Floor, 15th Cross, 5th Phase, JP Nagar, Bangalore","lat":12.9063958,"lng":77.5886106,"orderId":"d1b22201-6e78-4d13-8f88-a10ec677c5af"}},{"id":"8c9e3887-8ebd-4a27-81a0-37ed0c02f142","productId":"SKU_69","name":"Jeffrey Mekee","status":"PENDING","awb":"81065467193","isDynamicPoint":false,"reachTime":0,"deliveryTime":0,"deliveryLat":0,"deliveryLng":0,"clusterId":null,"address":{"id":"f98491da-01aa-4b8d-ae8a-8be485d50f88","address":"46/1, Cobalt Building, Church Street, Bangalore","lat":12.9748809,"lng":77.6056454,"orderId":"8c9e3887-8ebd-4a27-81a0-37ed0c02f142"}},{"id":"e334d6b7-fc66-4960-8eda-f572e8a8ca5e","productId":"SKU_9","name":"Ronnie Cameron","status":"PENDING","awb":"49180403091","isDynamicPoint":false,"reachTime":0,"deliveryTime":0,"deliveryLat":0,"deliveryLng":0,"clusterId":null,"address":{"id":"b3808a17-7502-4b7b-ac65-9a30ea36e448","address":"Amoolya, 1st Floor, 24th Main, 6th Phase, JP Nagar, Bangalore","lat":12.9088826,"lng":77.5857567,"orderId":"e334d6b7-fc66-4960-8eda-f572e8a8ca5e"}},{"id":"cc7195b6-4d35-4d94-953a-83cfc4dae21f","productId":"SKU_33","name":"Robert Michaud","status":"PENDING","awb":"22195593543","isDynamicPoint":false,"reachTime":0,"deliveryTime":0,"deliveryLat":0,"deliveryLng":0,"clusterId":null,"address":{"id":"146520f0-ec18-4665-8df6-a876835cfa67","address":"Ibis Bengaluru, Opposite RMZ Ecospace Business Park, Sarjapur Outer Ring Road, Marathahalli, Bangalore","lat":12.9253796,"lng":77.6876118,"orderId":"cc7195b6-4d35-4d94-953a-83cfc4dae21f"}},{"id":"da24a7ae-edbb-42b9-9838-974e7b35f7f4","productId":"SKU_48","name":"Larry Herndon","status":"PENDING","awb":"89111417547","isDynamicPoint":false,"reachTime":0,"deliveryTime":0,"deliveryLat":0,"deliveryLng":0,"clusterId":null,"address":{"id":"70b5ddef-b707-4966-8569-c03892d5f0bb","address":"1, 328, 27th Main, 21st Cross, Sector 2, HSR, Bangalore","lat":12.9042116,"lng":77.6507228,"orderId":"da24a7ae-edbb-42b9-9838-974e7b35f7f4"}},{"id":"0526449a-0ec7-4735-888b-8e47c4a22e03","productId":"SKU_102","name":"James Allen","status":"PENDING","awb":"54016008457","isDynamicPoint":false,"reachTime":0,"deliveryTime":0,"deliveryLat":0,"deliveryLng":0,"clusterId":null,"address":{"id":"75bbfe88-326b-401a-ae22-25be77334af8","address":"Ikon Building, Next to Sony Centre, Outer Ring Road, Marathahalli","lat":13.0274976,"lng":77.63458159999999,"orderId":"0526449a-0ec7-4735-888b-8e47c4a22e03"}},{"id":"9c755089-32d1-4b2a-b4df-ada337eedcb5","productId":"SKU_31","name":"Jon Hall","status":"PENDING","awb":"73350066683","isDynamicPoint":false,"reachTime":0,"deliveryTime":0,"deliveryLat":0,"deliveryLng":0,"clusterId":null,"address":{"id":"1854c3f7-898c-43d7-9502-a339109e5473","address":"1, 24th Main Rd, 1st Phase, Girinagar, KR Layout, Muneshwara T-Block, JP Nagar, Bangalore","lat":12.904529,"lng":77.5855601,"orderId":"9c755089-32d1-4b2a-b4df-ada337eedcb5"}},{"id":"c7c1725f-ac2f-4260-a07b-8b503378d0d4","productId":"SKU_139","name":"Donald Allen","status":"PENDING","awb":"78472305957","isDynamicPoint":false,"reachTime":0,"deliveryTime":0,"deliveryLat":0,"deliveryLng":0,"clusterId":null,"address":{"id":"39b01fbf-3717-472d-b7f3-1418bc2ed7b1","address":"7th Cross Road, Agara Village, 1st Sector, HSR, Bangalore","lat":12.9194418,"lng":77.647291,"orderId":"c7c1725f-ac2f-4260-a07b-8b503378d0d4"}},{"id":"9ecd1c05-20f3-4024-85c8-5b4c8a5050ca","productId":"SKU_58","name":"Lidia Wickham","status":"PENDING","awb":"71217404672","isDynamicPoint":false,"reachTime":0,"deliveryTime":0,"deliveryLat":0,"deliveryLng":0,"clusterId":null,"address":{"id":"9f192ec1-13cd-4a2c-9607-b59679d7f084","address":"81, 7th Main, 5th Cross, Bank of Baroda Colony, 7th Phase, JP Nagar, Bangalore","lat":12.9059478,"lng":77.6058923,"orderId":"9ecd1c05-20f3-4024-85c8-5b4c8a5050ca"}},{"id":"59eebe6f-2e66-4685-81a1-3ba33dd25af6","productId":"SKU_61","name":"Katie Kochevar","status":"PENDING","awb":"31203804545","isDynamicPoint":false,"reachTime":0,"deliveryTime":0,"deliveryLat":0,"deliveryLng":0,"clusterId":null,"address":{"id":"2308ee7a-33b1-4384-ac2f-f6bd606d789e","address":"Ground Floor, Vims Hospital Buidling, Opposite to More, Marathahalli, Bangalore","lat":12.9483018,"lng":77.69946519999999,"orderId":"59eebe6f-2e66-4685-81a1-3ba33dd25af6"}},{"id":"afb0f11c-80fd-4749-b9c6-b11c9d062ca4","productId":"SKU_85","name":"Howard Roman","status":"PENDING","awb":"94402524628","isDynamicPoint":false,"reachTime":0,"deliveryTime":0,"deliveryLat":0,"deliveryLng":0,"clusterId":null,"address":{"id":"a93791b8-b372-42a1-9720-3cc18a85fcfa","address":"2606, Ground Floor, The Ambience Building, 16th Cross, 27th Main, Sector 1, HSR, Bangalore","lat":12.9125829,"lng":77.6514055,"orderId":"afb0f11c-80fd-4749-b9c6-b11c9d062ca4"}},{"id":"1532b2f3-9efe-4600-8147-8a80b57e313f","productId":"SKU_28","name":"Marissa Coram","status":"PENDING","awb":"91311238475","isDynamicPoint":false,"reachTime":0,"deliveryTime":0,"deliveryLat":0,"deliveryLng":0,"clusterId":null,"address":{"id":"7cb6cc30-5449-4d51-b2b5-d2c009e7bc7f","address":"2738, 27th Main, Sector 1, HSR, Bangalore","lat":12.912786,"lng":77.6520296,"orderId":"1532b2f3-9efe-4600-8147-8a80b57e313f"}},{"id":"dbb73ec9-21d4-4142-a921-b2835734cf26","productId":"SKU_12","name":"Romelia Phillips","status":"PENDING","awb":"60559333974","isDynamicPoint":false,"reachTime":0,"deliveryTime":0,"deliveryLat":0,"deliveryLng":0,"clusterId":null,"address":{"id":"9d7e3901-95d8-4c22-b813-42a77468fe0e","address":"7, Anurhh Arcade, Hoodi Road, Kodigehalli Road, KR Puram, Bangalore","lat":13.0044944,"lng":77.7125871,"orderId":"dbb73ec9-21d4-4142-a921-b2835734cf26"}},{"id":"a35f65fa-a920-4637-afd8-e2f239c565e1","productId":"SKU_103","name":"Brenda Berry","status":"PENDING","awb":"67841310375","isDynamicPoint":false,"reachTime":0,"deliveryTime":0,"deliveryLat":0,"deliveryLng":0,"clusterId":null,"address":{"id":"6d8271a9-289d-4fff-862e-2b5d361136fd","address":"Quality Inn - Shravanthi, 60, 13th Cross, 2nd Main, 3rd Phase, JP Nagar, Bangalore","lat":12.907355,"lng":77.5985151,"orderId":"a35f65fa-a920-4637-afd8-e2f239c565e1"}},{"id":"57ba3c84-5347-4d0d-b413-d79d6d9f2768","productId":"SKU_124","name":"Joe Lawson","status":"PENDING","awb":"69379883919","isDynamicPoint":false,"reachTime":0,"deliveryTime":0,"deliveryLat":0,"deliveryLng":0,"clusterId":null,"address":{"id":"d87456b5-133c-4652-8a6d-2baf310099a8","address":"Church Street","lat":44.4767527,"lng":-73.21262879999999,"orderId":"57ba3c84-5347-4d0d-b413-d79d6d9f2768"}},{"id":"ff5be7af-7593-47a2-b1f1-34a22448aac7","productId":"SKU_42","name":"David Webber","status":"PENDING","awb":"89394948450","isDynamicPoint":false,"reachTime":0,"deliveryTime":0,"deliveryLat":0,"deliveryLng":0,"clusterId":null,"address":{"id":"4b8c4fab-8d7b-4351-a85b-894889bc1faa","address":"2724, 31st Main, 17th Cross, HSR, Bangalore","lat":12.9126877,"lng":77.6532769,"orderId":"ff5be7af-7593-47a2-b1f1-34a22448aac7"}},{"id":"7462253e-0702-4af3-bf47-a833a2453ea2","productId":"SKU_117","name":"Gustavo Bailey","status":"PENDING","awb":"94332983235","isDynamicPoint":false,"reachTime":0,"deliveryTime":0,"deliveryLat":0,"deliveryLng":0,"clusterId":null,"address":{"id":"1808c9ce-2248-43c3-b9f0-9f70c1c2e2a0","address":"543, 7th Cross, 24th Main, Opposite Nous Info Systems, Sector 1, HSR, Bangalore","lat":12.9196367,"lng":77.64947529999999,"orderId":"7462253e-0702-4af3-bf47-a833a2453ea2"}},{"id":"fcfe62ad-368d-4e2e-8b86-1f0cc09d3211","productId":"SKU_67","name":"Anthony Torres","status":"PENDING","awb":"19783328541","isDynamicPoint":false,"reachTime":0,"deliveryTime":0,"deliveryLat":0,"deliveryLng":0,"clusterId":null,"address":{"id":"6df4543d-7a31-4fa3-a646-60d2a6170439","address":"20/5, 1st Floor, Panathur Junction, Outer Ring Road, Marathahalli, Bangalore","lat":12.9399931,"lng":77.6962218,"orderId":"fcfe62ad-368d-4e2e-8b86-1f0cc09d3211"}},{"id":"48a1ab99-bd11-42c9-9019-f480808eeae8","productId":"SKU_77","name":"Carrie Lumpkin","status":"PENDING","awb":"45180804640","isDynamicPoint":false,"reachTime":0,"deliveryTime":0,"deliveryLat":0,"deliveryLng":0,"clusterId":null,"address":{"id":"4853a413-1fb4-4577-9fd3-d33040c80f1a","address":"127, Kadubisannhalli, Panathur Main Road, Marathahalli, Bangalore","lat":12.9324386,"lng":77.7081077,"orderId":"48a1ab99-bd11-42c9-9019-f480808eeae8"}},{"id":"1a5e1c7d-182a-451a-b2ee-4460ed1a96f1","productId":"SKU_127","name":"Willie Kirkwood","status":"PENDING","awb":"79263517463","isDynamicPoint":false,"reachTime":0,"deliveryTime":0,"deliveryLat":0,"deliveryLng":0,"clusterId":null,"address":{"id":"8a88a70a-1a10-489b-b8dd-3163a4c474be","address":"2nd Floor, All Season Super Market Building, Panathur Road, Kadubeesanahalli, Panathur, Marathahalli, Bangalore","lat":12.9371973,"lng":77.7024654,"orderId":"1a5e1c7d-182a-451a-b2ee-4460ed1a96f1"}},{"id":"6ad1e19d-0b68-45fe-b86c-eab5616c7a54","productId":"SKU_129","name":"Tommy Mason","status":"PENDING","awb":"61450912280","isDynamicPoint":false,"reachTime":0,"deliveryTime":0,"deliveryLat":0,"deliveryLng":0,"clusterId":null,"address":{"id":"404854b8-5a24-457c-a268-a349db3c2d3f","address":"Shop 7, 8 Opposite, Airtel Express, Panathur Main Road, Marathahalli, Bangalore","lat":12.9324386,"lng":77.7081077,"orderId":"6ad1e19d-0b68-45fe-b86c-eab5616c7a54"}},{"id":"3fd61a03-7d81-49ca-81a6-760cb4397b97","productId":"SKU_139","name":"Annie Farrior","status":"PENDING","awb":"12358732625","isDynamicPoint":false,"reachTime":0,"deliveryTime":0,"deliveryLat":0,"deliveryLng":0,"clusterId":null,"address":{"id":"e0e52075-a2b5-49f2-be0b-b6ac1ea025b2","address":"Yemalur, Marathahalli, Bangalore","lat":12.9446164,"lng":77.6836756,"orderId":"3fd61a03-7d81-49ca-81a6-760cb4397b97"}},{"id":"03800295-a72f-46d1-b7ed-7510c6b1fc97","productId":"SKU_55","name":"Amber Johnson","status":"PENDING","awb":"18227945733","isDynamicPoint":false,"reachTime":0,"deliveryTime":0,"deliveryLat":0,"deliveryLng":0,"clusterId":null,"address":{"id":"9b65649c-348e-458f-8b1a-93576ac6de9b","address":"Next to Grigliato, Sector 1 , HSR Layout, HSR, Bangalore","lat":12.9221548,"lng":77.64537109999999,"orderId":"03800295-a72f-46d1-b7ed-7510c6b1fc97"}},{"id":"1d64a984-efdf-456b-be44-cb69c21ab835","productId":"SKU_19","name":"Elaine Watson","status":"PENDING","awb":"56766768595","isDynamicPoint":false,"reachTime":0,"deliveryTime":0,"deliveryLat":0,"deliveryLng":0,"clusterId":null,"address":{"id":"108a7c81-c54c-41e1-86c3-f76a2fc879f0","address":"49, Agara Circle, Near Hanuman Statue, HSR Layout, HSR, Bangalore","lat":12.9236427,"lng":77.6497211,"orderId":"1d64a984-efdf-456b-be44-cb69c21ab835"}},{"id":"21a1a31f-c9d8-49d0-af84-f40f0b4794e9","productId":"SKU_90","name":"Pam Trela","status":"PENDING","awb":"75568022308","isDynamicPoint":false,"reachTime":0,"deliveryTime":0,"deliveryLat":0,"deliveryLng":0,"clusterId":null,"address":{"id":"b14ccda5-cbac-4bd2-98f0-5f0d62b17316","address":"50/1, Haridevpur, Shantala Nagar, Ashok Nagar, Church Street, Bangalore","lat":12.9749903,"lng":77.6047836,"orderId":"21a1a31f-c9d8-49d0-af84-f40f0b4794e9"}},{"id":"63394d51-0cf3-427d-ba22-8dabb211c6ef","productId":"SKU_103","name":"Frank Lester","status":"PENDING","awb":"25907907008","isDynamicPoint":false,"reachTime":0,"deliveryTime":0,"deliveryLat":0,"deliveryLng":0,"clusterId":null,"address":{"id":"317291a6-574f-4322-8246-d13b9b7bc4dd","address":"Outer Ring Road, Opposite to JP Morgan, Kodbisanhalli, Marathahalli, Bangalore","lat":12.9428771,"lng":77.6966127,"orderId":"63394d51-0cf3-427d-ba22-8dabb211c6ef"}},{"id":"c7ff9b87-77ff-43d5-92b0-55edde0392ff","productId":"SKU_86","name":"Beverly Coleman","status":"PENDING","awb":"80856836359","isDynamicPoint":false,"reachTime":0,"deliveryTime":0,"deliveryLat":0,"deliveryLng":0,"clusterId":null,"address":{"id":"e53cb2c7-db52-4f80-9703-f71ec145f32e","address":"2/1 Unit 6, Hoodi Kodigehalli Road, Opposite Crystal Apartment, KR Puram, Bangalore","lat":13.0017902,"lng":77.7231486,"orderId":"c7ff9b87-77ff-43d5-92b0-55edde0392ff"}},{"id":"a4531216-a210-42b9-a69b-45d844d84457","productId":"SKU_59","name":"Angela Cowman","status":"PENDING","awb":"87207515803","isDynamicPoint":false,"reachTime":0,"deliveryTime":0,"deliveryLat":0,"deliveryLng":0,"clusterId":null,"address":{"id":"ed21e680-c09f-45d5-963b-1e0761b8b384","address":"18th Cross road, 5th Phase, JP Nagar, Bangalore","lat":12.9032116,"lng":77.5877971,"orderId":"a4531216-a210-42b9-a69b-45d844d84457"}},{"id":"2b976011-1930-436a-baac-3a5748aa5690","productId":"SKU_20","name":"Iva Bell","status":"PENDING","awb":"89040589151","isDynamicPoint":false,"reachTime":0,"deliveryTime":0,"deliveryLat":0,"deliveryLng":0,"clusterId":null,"address":{"id":"623abb23-05ea-4678-aa89-6389f27f9459","address":"646, 12th Cross, 27th Main, Sector 1, HSR, Bangalore","lat":12.9163356,"lng":77.6521815,"orderId":"2b976011-1930-436a-baac-3a5748aa5690"}},{"id":"912481a6-56bf-41b1-95b1-7cb55f96e340","productId":"SKU_114","name":"Lelia Wooten","status":"PENDING","awb":"59997033261","isDynamicPoint":false,"reachTime":0,"deliveryTime":0,"deliveryLat":0,"deliveryLng":0,"clusterId":null,"address":{"id":"e8a7d1aa-72a6-472c-8b25-874ee7e3b64d","address":"1A, Church Street, Bangalore","lat":12.9740428,"lng":77.6071375,"orderId":"912481a6-56bf-41b1-95b1-7cb55f96e340"}},{"id":"3f499fa2-d18e-4756-9940-40b9bc7a5baa","productId":"SKU_90","name":"Patrick Payne","status":"PENDING","awb":"72580152196","isDynamicPoint":false,"reachTime":0,"deliveryTime":0,"deliveryLat":0,"deliveryLng":0,"clusterId":null,"address":{"id":"34d2ab13-469c-4727-95ca-813de9363616","address":"Shop 217, 2nd main road, Kadubeesanahalli Croma, Back Side road Near Kumbeshwara Temple Marathahalli, Bangalore","lat":12.973296,"lng":77.6957888,"orderId":"3f499fa2-d18e-4756-9940-40b9bc7a5baa"}},{"id":"7984ff05-86f8-4743-b0c8-252be40f9115","productId":"SKU_127","name":"Adam Shelquist","status":"PENDING","awb":"16213830807","isDynamicPoint":false,"reachTime":0,"deliveryTime":0,"deliveryLat":0,"deliveryLng":0,"clusterId":null,"address":{"id":"d91494c6-539c-40f9-88cb-30bf1e375b81","address":"Near Madurai Idly, SGR Dental College Road, CKB Layout, Chandra Layout, Marathahalli, Bengalore","lat":12.9499411,"lng":77.7006733,"orderId":"7984ff05-86f8-4743-b0c8-252be40f9115"}},{"id":"505f55ec-8291-4fc2-ab64-e8ebd8dcf097","productId":"SKU_142","name":"Marshall Quinton","status":"PENDING","awb":"98967476662","isDynamicPoint":false,"reachTime":0,"deliveryTime":0,"deliveryLat":0,"deliveryLng":0,"clusterId":null,"address":{"id":"7576022e-2fab-4a0e-8402-99c40e05a36c","address":"2733, 16th Cross, 27th Main, Opposite NIFT, Sector 1, HSR Layout, Bangalore, HSR, Bangalore","lat":12.912702,"lng":77.652479,"orderId":"505f55ec-8291-4fc2-ab64-e8ebd8dcf097"}},{"id":"cbc308d4-f9f4-4c10-aef6-b90323d8ac04","productId":"SKU_18","name":"Roger Bouldin","status":"PENDING","awb":"26105795180","isDynamicPoint":false,"reachTime":0,"deliveryTime":0,"deliveryLat":0,"deliveryLng":0,"clusterId":null,"address":{"id":"7632d850-ce62-49c5-af63-01767c2243b9","address":"Shop 6, First Floor, Binnamangala First Stage, Indiranagar, Bangalore","lat":12.9809038,"lng":77.6398129,"orderId":"cbc308d4-f9f4-4c10-aef6-b90323d8ac04"}},{"id":"898a1d38-4e94-41b2-af70-c724c8dfac14","productId":"SKU_141","name":"Michael Parenteau","status":"PENDING","awb":"34763837898","isDynamicPoint":false,"reachTime":0,"deliveryTime":0,"deliveryLat":0,"deliveryLng":0,"clusterId":null,"address":{"id":"d9f787ea-e8a6-4acd-ab84-42a4f4c12395","address":"1260 SY 35/4 SJR Tower's, JP Nagar 7th Phase, 24th Main Puttanhalli, JP Nagar, Bangalore","lat":12.9003937,"lng":77.5858415,"orderId":"898a1d38-4e94-41b2-af70-c724c8dfac14"}},{"id":"230a4479-c054-4f58-be1e-74766468a061","productId":"SKU_59","name":"Teresa Ford","status":"PENDING","awb":"65307617155","isDynamicPoint":false,"reachTime":0,"deliveryTime":0,"deliveryLat":0,"deliveryLng":0,"clusterId":null,"address":{"id":"4686871a-2685-4c31-9837-b100637f9a80","address":"47/1, 9th Main,1st Cross, Miniforest, Phase 3, JP Nagar, Bangalore","lat":12.916563,"lng":77.583568,"orderId":"230a4479-c054-4f58-be1e-74766468a061"}},{"id":"ad892f6f-853e-49ab-bd50-15a89f774200","productId":"SKU_123","name":"Shana Davis","status":"PENDING","awb":"28764133976","isDynamicPoint":false,"reachTime":0,"deliveryTime":0,"deliveryLat":0,"deliveryLng":0,"clusterId":null,"address":{"id":"d8ea9636-d830-4de5-afb4-b50024b7f82e","address":"1548, 3rd Floor,19th Main Road, Sector 1, Agara Village, HSR, Bangalore","lat":12.9189625,"lng":77.6449137,"orderId":"ad892f6f-853e-49ab-bd50-15a89f774200"}},{"id":"619ed12d-4d9f-4319-925e-be662cf8c827","productId":"SKU_79","name":"Jon Villanueva","status":"PENDING","awb":"25842170396","isDynamicPoint":false,"reachTime":0,"deliveryTime":0,"deliveryLat":0,"deliveryLng":0,"clusterId":null,"address":{"id":"80f3007c-3be5-4645-b2a6-15de649e40ff","address":"595, Ground Floor, Kundalahalli, Varthur Hobli Mahadevpura, Marathahalli, Bangalore","lat":12.955812,"lng":77.713686,"orderId":"619ed12d-4d9f-4319-925e-be662cf8c827"}},{"id":"57aff42f-ba82-4c6b-b5fb-73860625c6cd","productId":"SKU_119","name":"Daniel Miller","status":"PENDING","awb":"84618864102","isDynamicPoint":false,"reachTime":0,"deliveryTime":0,"deliveryLat":0,"deliveryLng":0,"clusterId":null,"address":{"id":"47227b24-ff03-4a47-8b11-194835176b32","address":"2733, 16th Cross, 27th Main Road, Oppsite, NIFT College, 1st Sector, HSR Layout, Bangalore","lat":12.912702,"lng":77.652479,"orderId":"57aff42f-ba82-4c6b-b5fb-73860625c6cd"}},{"id":"609f5522-ff79-4ff7-8f04-3b46f0820251","productId":"SKU_70","name":"Tiffany Coker","status":"PENDING","awb":"15145909184","isDynamicPoint":false,"reachTime":0,"deliveryTime":0,"deliveryLat":0,"deliveryLng":0,"clusterId":null,"address":{"id":"c7100999-ccca-46af-9833-c67783f6f920","address":"7, Anurhh Arcade, Hoodi Road, Kodigehalli Road, KR Puram, Bangalore","lat":13.0044944,"lng":77.7125871,"orderId":"609f5522-ff79-4ff7-8f04-3b46f0820251"}},{"id":"509d86fc-0e95-4288-bd8c-a72dddea30a2","productId":"SKU_69","name":"Russell Diamond","status":"PENDING","awb":"87093968225","isDynamicPoint":false,"reachTime":0,"deliveryTime":0,"deliveryLat":0,"deliveryLng":0,"clusterId":null,"address":{"id":"9fd8c529-02ea-4c32-b813-48d1474f5ede","address":"23/4, Kariyammana Agrahara Road Kadubisinahalli, Prestige Tech Park Back Gate, Marathahalli, Bangalore","lat":12.948889,"lng":77.686014,"orderId":"509d86fc-0e95-4288-bd8c-a72dddea30a2"}},{"id":"0e894106-a956-4574-a0e0-43ee22597a7d","productId":"SKU_62","name":"Ivan Kinley","status":"PENDING","awb":"13002857017","isDynamicPoint":false,"reachTime":0,"deliveryTime":0,"deliveryLat":0,"deliveryLng":0,"clusterId":null,"address":{"id":"61955d61-4d5a-4ae1-af09-87a732b27e3c","address":"Ground Floor, More Megastore, Service Road, Marathahalli, Bangalore","lat":12.9482807,"lng":77.6983956,"orderId":"0e894106-a956-4574-a0e0-43ee22597a7d"}},{"id":"c5b68031-65bf-4bd7-8733-ba9a6ece25f4","productId":"SKU_70","name":"Gertrude Frazier","status":"PENDING","awb":"62280811516","isDynamicPoint":false,"reachTime":0,"deliveryTime":0,"deliveryLat":0,"deliveryLng":0,"clusterId":null,"address":{"id":"059691c1-f3b7-4ae9-9263-d6d5e8ba0d82","address":"4, St Mary's Building, 2nd Stage, Indiranagar, Bangalore","lat":12.9698565,"lng":77.7515638,"orderId":"c5b68031-65bf-4bd7-8733-ba9a6ece25f4"}},{"id":"3544f997-94b2-4877-b6c3-0c77ab4aa5af","productId":"SKU_144","name":"George Rivas","status":"PENDING","awb":"33178947349","isDynamicPoint":false,"reachTime":0,"deliveryTime":0,"deliveryLat":0,"deliveryLng":0,"clusterId":null,"address":{"id":"4db61bfb-eee1-4088-8088-48424b8ba061","address":"67, 15th Cross, 6th B Main, JP Nagar, Bangalore","lat":12.906383,"lng":77.596713,"orderId":"3544f997-94b2-4877-b6c3-0c77ab4aa5af"}},{"id":"d9181ee6-fc4c-47f7-800c-233fa572292f","productId":"SKU_41","name":"Carma Haynie","status":"PENDING","awb":"29805721561","isDynamicPoint":false,"reachTime":0,"deliveryTime":0,"deliveryLat":0,"deliveryLng":0,"clusterId":null,"address":{"id":"d1926d7f-a26d-438d-83ea-0325d014a1c0","address":"1548, 19th Main, Outer Ring Road, Opposite BMTC Bus Depot, HSR, Bangalore","lat":12.9202927,"lng":77.6451278,"orderId":"d9181ee6-fc4c-47f7-800c-233fa572292f"}},{"id":"0131ef1f-9f09-4b09-9105-4aa9ee33ad83","productId":"SKU_69","name":"Sherry Cole","status":"PENDING","awb":"62644046092","isDynamicPoint":false,"reachTime":0,"deliveryTime":0,"deliveryLat":0,"deliveryLng":0,"clusterId":null,"address":{"id":"e1488c66-0f54-48ef-8a9f-4bbd1b8f9398","address":"Coconut Garden Layout, Kodigehalli Main Road, KR Puram, Bangalore","lat":13.0034826,"lng":77.7175524,"orderId":"0131ef1f-9f09-4b09-9105-4aa9ee33ad83"}},{"id":"fb14db7f-0fd2-4d3a-b8ff-45cc27b91150","productId":"SKU_143","name":"Doris Floyd","status":"PENDING","awb":"75423501902","isDynamicPoint":false,"reachTime":0,"deliveryTime":0,"deliveryLat":0,"deliveryLng":0,"clusterId":null,"address":{"id":"5f6c223d-df0e-462e-b460-8782b25d5d38","address":"1260, SY 35/4, SJR Towers, 24th Main Puttanhalli, 7th Phase, JP Nagar, Bangalore","lat":12.9156577,"lng":77.5994159,"orderId":"fb14db7f-0fd2-4d3a-b8ff-45cc27b91150"}},{"id":"a887b1d6-0a1c-434b-934a-80223b143fa0","productId":"SKU_144","name":"Vickie Ramos","status":"PENDING","awb":"62201852038","isDynamicPoint":false,"reachTime":0,"deliveryTime":0,"deliveryLat":0,"deliveryLng":0,"clusterId":null,"address":{"id":"d04f1f99-2983-4c76-a8c3-0871e096e558","address":"6, Shakambari Nagar, 1st stage, JP Nagar, Bangalore","lat":12.9120799,"lng":77.5745235,"orderId":"a887b1d6-0a1c-434b-934a-80223b143fa0"}},{"id":"8e0df2e2-2827-44a7-96b6-8041a3b697c2","productId":"SKU_9","name":"Joanna Evetts","status":"PENDING","awb":"21225161006","isDynamicPoint":false,"reachTime":0,"deliveryTime":0,"deliveryLat":0,"deliveryLng":0,"clusterId":null,"address":{"id":"934a4a4c-af77-4094-816f-a03fa4234651","address":"712, 6th Cross, 5th Main, Off 80 Feet Road, Indiranagar, Bangalore","lat":12.9758079,"lng":77.6467327,"orderId":"8e0df2e2-2827-44a7-96b6-8041a3b697c2"}},{"id":"18a46ad5-8402-4b09-adae-beef4c12b05b","productId":"SKU_8","name":"Katrina Hilderbrandt","status":"PENDING","awb":"52917061849","isDynamicPoint":false,"reachTime":0,"deliveryTime":0,"deliveryLat":0,"deliveryLng":0,"clusterId":null,"address":{"id":"2745fab0-0d11-4ec2-9418-009ede0a4b69","address":"27th Main road, Sriven Teesta, Near Raymond?s Showroom HSR, Bangalore","lat":12.9121181,"lng":77.6445548,"orderId":"18a46ad5-8402-4b09-adae-beef4c12b05b"}},{"id":"6d27caa6-6c94-48a7-9da7-16322e05aef3","productId":"SKU_147","name":"Amber Smith","status":"PENDING","awb":"85984892588","isDynamicPoint":false,"reachTime":0,"deliveryTime":0,"deliveryLat":0,"deliveryLng":0,"clusterId":null,"address":{"id":"7435203f-bd2a-4d0b-afd2-7dbded492d3b","address":"Building 2686, 31 Main, 13 Cross, Sector 1, Behind CPWD Quarters, HSR Layout, HSR, Bangalore","lat":12.9096504,"lng":77.65330279999999,"orderId":"6d27caa6-6c94-48a7-9da7-16322e05aef3"}},{"id":"2e8617e0-9048-4b9f-bacb-971b150af2e3","productId":"SKU_150","name":"James Horne","status":"PENDING","awb":"84273793675","isDynamicPoint":false,"reachTime":0,"deliveryTime":0,"deliveryLat":0,"deliveryLng":0,"clusterId":null,"address":{"id":"66f25744-ddff-40e8-aca1-624e569d0988","address":"2/1 Unit 6, Hoodi Kodigehalli Road, Opposite Crystal Apartment, KR Puram, Bangalore","lat":13.0017902,"lng":77.7231486,"orderId":"2e8617e0-9048-4b9f-bacb-971b150af2e3"}},{"id":"f18875af-2e93-4f28-973f-0b05bd73447e","productId":"SKU_113","name":"Linda Kurland","status":"PENDING","awb":"60104333056","isDynamicPoint":false,"reachTime":0,"deliveryTime":0,"deliveryLat":0,"deliveryLng":0,"clusterId":null,"address":{"id":"cf47cc90-b927-41e0-9c75-72ac154cad07","address":"954, 2nd Floor, 24th Main, 2nd Phase, Opposite LIC Building, JP Nagar, Bangalore","lat":12.9115788,"lng":77.5857133,"orderId":"f18875af-2e93-4f28-973f-0b05bd73447e"}},{"id":"3a6499c6-f922-49ad-a5e0-402ea1531115","productId":"SKU_50","name":"Raymond Huffman","status":"PENDING","awb":"39213602287","isDynamicPoint":false,"reachTime":0,"deliveryTime":0,"deliveryLat":0,"deliveryLng":0,"clusterId":null,"address":{"id":"a2be7c6c-c3c0-4c33-91ae-dc83bf8a7cfa","address":"1558, 19th Main, Ring Road, Near Indian Oil Petrol Bunk, Sector 1, HSR, Bangalore","lat":12.92178,"lng":77.6451944,"orderId":"3a6499c6-f922-49ad-a5e0-402ea1531115"}},{"id":"bc01a5cc-c64b-4707-84a8-53da58a13f45","productId":"SKU_86","name":"Anna Bundy","status":"PENDING","awb":"75506986031","isDynamicPoint":false,"reachTime":0,"deliveryTime":0,"deliveryLat":0,"deliveryLng":0,"clusterId":null,"address":{"id":"0919c3f9-e3de-492b-97d4-77ef7bb902fc","address":"12th Main Road Junction, Double Road, Indiranagar, Bangalore","lat":12.9698507,"lng":77.6359686,"orderId":"bc01a5cc-c64b-4707-84a8-53da58a13f45"}},{"id":"5eb5be44-e26e-4e1c-a84d-d0139974cc93","productId":"SKU_7","name":"Gary Nelson","status":"PENDING","awb":"48712626536","isDynamicPoint":false,"reachTime":0,"deliveryTime":0,"deliveryLat":0,"deliveryLng":0,"clusterId":null,"address":{"id":"132231ff-ad11-472a-8b9b-f448bab0308a","address":"Shop 37, 3rd Cross, Outer Ring Road, Kadubisnahalli, Marathahalli, Bangalore","lat":12.9063438,"lng":77.5711549,"orderId":"5eb5be44-e26e-4e1c-a84d-d0139974cc93"}},{"id":"ffe837b4-f6c8-46a5-8921-76c8019dfbe3","productId":"SKU_29","name":"Ryan Orlando","status":"PENDING","awb":"13346207178","isDynamicPoint":false,"reachTime":0,"deliveryTime":0,"deliveryLat":0,"deliveryLng":0,"clusterId":null,"address":{"id":"ea23c6f2-4e61-4a1d-8ef4-1de0eab3f6b0","address":"114, Kothanur Main Road, Santrupthi Nagar, 7th Phase, JP Nagar, Bangalore","lat":12.8919779,"lng":77.5817794,"orderId":"ffe837b4-f6c8-46a5-8921-76c8019dfbe3"}},{"id":"de682939-14cc-42ca-bb7a-1f237974d34e","productId":"SKU_23","name":"Cora Massart","status":"PENDING","awb":"49726345575","isDynamicPoint":false,"reachTime":0,"deliveryTime":0,"deliveryLat":0,"deliveryLng":0,"clusterId":null,"address":{"id":"59bd3ebd-8ac1-4c72-b492-0911a97d71ca","address":"1, 24th Main Rd, 1st Phase, Girinagar, KR Layout, Muneshwara T-Block, JP Nagar, Bangalore","lat":12.904529,"lng":77.5855601,"orderId":"de682939-14cc-42ca-bb7a-1f237974d34e"}},{"id":"c2d930e4-2903-4084-9118-92bb86382dc8","productId":"SKU_115","name":"Jose Williams","status":"PENDING","awb":"81655937477","isDynamicPoint":false,"reachTime":0,"deliveryTime":0,"deliveryLat":0,"deliveryLng":0,"clusterId":null,"address":{"id":"52405f77-8b6b-41de-a573-22e05b10fb20","address":"1324, Double Road, 2nd Stage, Opposite Cauvery School, Indiranagar, Bangalore","lat":12.9750224,"lng":77.64493019999999,"orderId":"c2d930e4-2903-4084-9118-92bb86382dc8"}},{"id":"ce3d1e83-b6a9-4313-a9d9-78ce4dc75e92","productId":"SKU_25","name":"Jesse Vaness","status":"PENDING","awb":"35828962763","isDynamicPoint":false,"reachTime":0,"deliveryTime":0,"deliveryLat":0,"deliveryLng":0,"clusterId":null,"address":{"id":"3e7f0628-0aa5-4186-934b-cbc914cff317","address":"Salarpuria Sattva Aura, Kiosk 6, Foodworks Food Court, Block 11, Marathahalli - Sarjapur Outer Ring Road, Kaverappa Layout, Kadubeesanahalli, Marathahalli, Bangalore","lat":12.935653,"lng":77.695588,"orderId":"ce3d1e83-b6a9-4313-a9d9-78ce4dc75e92"}},{"id":"3d3f15a3-f24f-4a41-ade5-520f7003b7ef","productId":"SKU_95","name":"Jason Taylor","status":"PENDING","awb":"50570222462","isDynamicPoint":false,"reachTime":0,"deliveryTime":0,"deliveryLat":0,"deliveryLng":0,"clusterId":null,"address":{"id":"dd8e41c7-862e-4970-bc1c-929610b60249","address":"Someshwara Bhavan, RBI Layout, 7th Phase, Kothnur Main Road, JP Nagar, Bangalore","lat":12.8838109,"lng":77.5829501,"orderId":"3d3f15a3-f24f-4a41-ade5-520f7003b7ef"}},{"id":"d7d7133d-13cf-4ed8-a3ba-03443cc8faf1","productId":"SKU_76","name":"Margie Galvan","status":"PENDING","awb":"40837739535","isDynamicPoint":false,"reachTime":0,"deliveryTime":0,"deliveryLat":0,"deliveryLng":0,"clusterId":null,"address":{"id":"772c0bc7-b267-4a67-b827-45c6c6a82b41","address":"27th Main, Near NIFT, Sector-1, HSR, Bangalore","lat":12.9119893,"lng":77.651832,"orderId":"d7d7133d-13cf-4ed8-a3ba-03443cc8faf1"}},{"id":"85898f72-4ff3-478b-9599-7c46b209c9d5","productId":"SKU_79","name":"Rose Lau","status":"PENDING","awb":"66199582549","isDynamicPoint":false,"reachTime":0,"deliveryTime":0,"deliveryLat":0,"deliveryLng":0,"clusterId":null,"address":{"id":"fe132db4-f767-4cb4-a814-40048c9b995e","address":"77 Town Center, Yemalur Road, Marathahalli Village, Marathahalli, Bangalore","lat":12.9486582,"lng":77.6899712,"orderId":"85898f72-4ff3-478b-9599-7c46b209c9d5"}},{"id":"b5dd7d53-e5be-487a-a012-ff8aea24889d","productId":"SKU_42","name":"Barbara Capehart","status":"PENDING","awb":"48552195740","isDynamicPoint":false,"reachTime":0,"deliveryTime":0,"deliveryLat":0,"deliveryLng":0,"clusterId":null,"address":{"id":"308f8754-3d75-4575-b4e4-59bc83381bd3","address":"20/5, Narayanswamy Building, Kadubeesanahalli Bridge, Outer Ring Road, Kadubeesanahalli, Marathahalli, Bangalore","lat":12.9394098,"lng":77.69515729999999,"orderId":"b5dd7d53-e5be-487a-a012-ff8aea24889d"}},{"id":"ed763564-0d8f-44a3-98ba-276d4e9ea588","productId":"SKU_142","name":"Abraham Rehkop","status":"PENDING","awb":"44140764186","isDynamicPoint":false,"reachTime":0,"deliveryTime":0,"deliveryLat":0,"deliveryLng":0,"clusterId":null,"address":{"id":"78577e45-10f3-436a-9f69-55acaf51bbc1","address":"2/1 Unit 6, Hoodi Kodigehalli Road, Opposite Crystal Apartment, KR Puram, Bangalore","lat":13.0017902,"lng":77.7231486,"orderId":"ed763564-0d8f-44a3-98ba-276d4e9ea588"}},{"id":"3c431689-518a-40f9-9c04-7818e79d41ba","productId":"SKU_76","name":"Kathleen Cantrell","status":"PENDING","awb":"21104565365","isDynamicPoint":false,"reachTime":0,"deliveryTime":0,"deliveryLat":0,"deliveryLng":0,"clusterId":null,"address":{"id":"29bb1532-a0aa-44a9-8722-3f43a1eadbc0","address":"13th Cross, 24th Main, Opposite Assetz Apartment, 1st Sector, HSR, Bangalore","lat":12.91615,"lng":77.6488823,"orderId":"3c431689-518a-40f9-9c04-7818e79d41ba"}},{"id":"4656440e-f471-4dd4-b75c-ca498b85d341","productId":"SKU_146","name":"William Sherman","status":"PENDING","awb":"81727476606","isDynamicPoint":false,"reachTime":0,"deliveryTime":0,"deliveryLat":0,"deliveryLng":0,"clusterId":null,"address":{"id":"25ed3dde-db77-4b93-9f94-9345b3305605","address":"331, Ground Floor, 27th Main, 2nd Stage, HSR, Bangalore","lat":12.9119893,"lng":77.651832,"orderId":"4656440e-f471-4dd4-b75c-ca498b85d341"}},{"id":"adce3f93-7889-453d-b270-81a00d3a7ea4","productId":"SKU_147","name":"Richard Book","status":"PENDING","awb":"60730226124","isDynamicPoint":false,"reachTime":0,"deliveryTime":0,"deliveryLat":0,"deliveryLng":0,"clusterId":null,"address":{"id":"ce0020fb-4832-4187-8424-0994e88e423e","address":"104/1, 21st Main Road, 6th Cross Road, R K Colony, JP Nagar 2nd Phase, Bangalore","lat":12.9123174,"lng":77.58784109999999,"orderId":"adce3f93-7889-453d-b270-81a00d3a7ea4"}},{"id":"e608be46-19b0-4572-845a-eb81a279ac55","productId":"SKU_103","name":"Benjamin Smith","status":"PENDING","awb":"46205581478","isDynamicPoint":false,"reachTime":0,"deliveryTime":0,"deliveryLat":0,"deliveryLng":0,"clusterId":null,"address":{"id":"760e128f-45ca-4579-88bb-2af9679ff0ad","address":"2802, 27th Main Road, Sector 1, HSR, Bangalore","lat":12.9232993,"lng":77.6514254,"orderId":"e608be46-19b0-4572-845a-eb81a279ac55"}},{"id":"9f1085ab-7de6-4d8c-ae23-1b72d4f0c0a2","productId":"SKU_123","name":"Edward Leon","status":"PENDING","awb":"62376246282","isDynamicPoint":false,"reachTime":0,"deliveryTime":0,"deliveryLat":0,"deliveryLng":0,"clusterId":null,"address":{"id":"0e32770f-ec15-434f-9293-8c11aa1b4765","address":"1260, SY 35/4, SJR Tower's, 7th Phase, 24th Main Puttanhalli, JP Nagar, Bangalore","lat":12.9156577,"lng":77.5994159,"orderId":"9f1085ab-7de6-4d8c-ae23-1b72d4f0c0a2"}},{"id":"c3a1d820-d2a2-4256-80c6-9b9ddf9b5e4b","productId":"SKU_68","name":"Ricky Aschenbrenner","status":"PENDING","awb":"43727711975","isDynamicPoint":false,"reachTime":0,"deliveryTime":0,"deliveryLat":0,"deliveryLng":0,"clusterId":null,"address":{"id":"d0a33c2a-fe0a-4c2b-8c36-7fe929e83be0","address":"3, Srinivasa Nilayam, Vidya Vikas School Road, Panathur New Extension, Kaverappa Layout, Marathahalli, Bangalore","lat":12.9348385,"lng":77.7011844,"orderId":"c3a1d820-d2a2-4256-80c6-9b9ddf9b5e4b"}},{"id":"966da4f6-48bc-4ad8-9881-93852e9134eb","productId":"SKU_137","name":"Karen Yuen","status":"PENDING","awb":"38777880457","isDynamicPoint":false,"reachTime":0,"deliveryTime":0,"deliveryLat":0,"deliveryLng":0,"clusterId":null,"address":{"id":"df5b2b83-d739-48fe-a249-59e96eb80fd5","address":"1260 SY 35/4 SJR Tower's, 24th Main Puttanhalli, 7th Phase, JP Nagar Bangalore","lat":12.9003937,"lng":77.5858415,"orderId":"966da4f6-48bc-4ad8-9881-93852e9134eb"}},{"id":"eb74ea70-afc9-4269-ba3c-a534208da60a","productId":"SKU_72","name":"Stanley Davis","status":"PENDING","awb":"85725180680","isDynamicPoint":false,"reachTime":0,"deliveryTime":0,"deliveryLat":0,"deliveryLng":0,"clusterId":null,"address":{"id":"6b925c43-6528-4869-9a56-63c61ca78110","address":"598, 1st floor, 1st Cross, 1st A Main Road, Domlur Layout, 1st Stage, Domlur, Bangalore","lat":12.9600892,"lng":77.6357111,"orderId":"eb74ea70-afc9-4269-ba3c-a534208da60a"}},{"id":"eb7c5f5c-b9d6-46c6-841d-603212f6d1ac","productId":"SKU_142","name":"Joseph Jones","status":"PENDING","awb":"55217454663","isDynamicPoint":false,"reachTime":0,"deliveryTime":0,"deliveryLat":0,"deliveryLng":0,"clusterId":null,"address":{"id":"1576613b-c75b-4a07-8c49-93fe2791b440","address":"Srinivasan Towers, ESI Hospital Road, Off Double Road, Indiranagar, Bangalore","lat":12.9711854,"lng":77.63690989999999,"orderId":"eb7c5f5c-b9d6-46c6-841d-603212f6d1ac"}},{"id":"e59c5edc-69d6-488a-94b5-c1ae4dacf959","productId":"SKU_139","name":"Carolyn Buchan","status":"PENDING","awb":"55026656606","isDynamicPoint":false,"reachTime":0,"deliveryTime":0,"deliveryLat":0,"deliveryLng":0,"clusterId":null,"address":{"id":"b5e375ff-be01-49a0-a0bb-a8ca42a4815e","address":"89/1, Service Road, Marathahalli, Bangalore","lat":12.9503914,"lng":77.69867599999999,"orderId":"e59c5edc-69d6-488a-94b5-c1ae4dacf959"}},{"id":"6911125e-b323-474f-b454-16a1dd12343b","productId":"SKU_52","name":"Thomas Lindquist","status":"PENDING","awb":"91477551055","isDynamicPoint":false,"reachTime":0,"deliveryTime":0,"deliveryLat":0,"deliveryLng":0,"clusterId":null,"address":{"id":"ddba472f-d64a-4b7f-97fa-e83f6705036d","address":"2nd Stage, Indiranagar, Bangalore","lat":12.9620069,"lng":77.63437669999999,"orderId":"6911125e-b323-474f-b454-16a1dd12343b"}},{"id":"73df0f87-03e7-4cd7-ba89-3d483ee1ee24","productId":"SKU_150","name":"Terry Sanabria","status":"PENDING","awb":"98486281871","isDynamicPoint":false,"reachTime":0,"deliveryTime":0,"deliveryLat":0,"deliveryLng":0,"clusterId":null,"address":{"id":"50f9bdfc-9676-428c-9933-03c4f8f7ef85","address":"89/1, Tulasi Theater Road, Near SBR Palace, Marathahalli, Bangalore","lat":12.9499232,"lng":77.6976686,"orderId":"73df0f87-03e7-4cd7-ba89-3d483ee1ee24"}},{"id":"c87e103b-069e-4c59-b1f6-5eb3964b007c","productId":"SKU_15","name":"Louise Lynch","status":"PENDING","awb":"15743308603","isDynamicPoint":false,"reachTime":0,"deliveryTime":0,"deliveryLat":0,"deliveryLng":0,"clusterId":null,"address":{"id":"84e99998-25ea-4c82-9001-77ef4b4b933b","address":"1260, SY 35/4, SJR Towers, 24th Main Puttanhalli, 7th Phase, JP Nagar, Bangalore","lat":12.9156577,"lng":77.5994159,"orderId":"c87e103b-069e-4c59-b1f6-5eb3964b007c"}},{"id":"e0326a7b-5f99-42a1-b3db-7fb4452734d0","productId":"SKU_129","name":"Marie Harris","status":"PENDING","awb":"24526739732","isDynamicPoint":false,"reachTime":0,"deliveryTime":0,"deliveryLat":0,"deliveryLng":0,"clusterId":null,"address":{"id":"3a93c1e0-70c9-4bc8-8a05-38aadc4c1581","address":"First Floor, Raja Ikon, Opposite Hotel Radisson Blu, Near Marathahali Bridge, Marathahalli, Bangalore","lat":12.9493355,"lng":77.6998041,"orderId":"e0326a7b-5f99-42a1-b3db-7fb4452734d0"}},{"id":"4f4b4da0-9510-4243-88bb-cbb455036552","productId":"SKU_55","name":"Mary Perez","status":"PENDING","awb":"55525210263","isDynamicPoint":false,"reachTime":0,"deliveryTime":0,"deliveryLat":0,"deliveryLng":0,"clusterId":null,"address":{"id":"044b4637-a3f8-4364-b7d9-2f90b50e89e6","address":"4, 39/1, St Mary's Building, 2nd Stage, Indiranagar, Bangalore","lat":12.9783692,"lng":77.6408356,"orderId":"4f4b4da0-9510-4243-88bb-cbb455036552"}},{"id":"de7722d0-44d4-4874-bf67-53a3fad9fd97","productId":"SKU_98","name":"Jesse Suarez","status":"PENDING","awb":"73796529420","isDynamicPoint":false,"reachTime":0,"deliveryTime":0,"deliveryLat":0,"deliveryLng":0,"clusterId":null,"address":{"id":"88e9b550-62ac-4950-aa15-11610abff6a0","address":"48, Triumph Towers, Church Street, Bangalore","lat":12.975507,"lng":77.60314799999999,"orderId":"de7722d0-44d4-4874-bf67-53a3fad9fd97"}},{"id":"945f2015-3746-40d4-8ae2-7fd6b6cc7ec7","productId":"SKU_113","name":"Emma Saulsberry","status":"PENDING","awb":"34889886477","isDynamicPoint":false,"reachTime":0,"deliveryTime":0,"deliveryLat":0,"deliveryLng":0,"clusterId":null,"address":{"id":"333baa2d-9b2c-4187-956e-1516d2dff806","address":"88, 3rd Floor, KBR Mall, Above More Mega Store, Outer Ring Road, Marathahalli, Bangalore","lat":12.9577656,"lng":77.7011709,"orderId":"945f2015-3746-40d4-8ae2-7fd6b6cc7ec7"}},{"id":"3dd53d07-98d8-4d3c-a6e0-ebb20d3c646e","productId":"SKU_91","name":"Daniel Tremper","status":"PENDING","awb":"95782788535","isDynamicPoint":false,"reachTime":0,"deliveryTime":0,"deliveryLat":0,"deliveryLng":0,"clusterId":null,"address":{"id":"9ead8efe-22ab-4fd6-bf80-5f6e147ebb1c","address":"Shop 1, 129, 24th Main, 5th Phase, JP Nagar, Bangalore","lat":12.9038753,"lng":77.58590679999999,"orderId":"3dd53d07-98d8-4d3c-a6e0-ebb20d3c646e"}},{"id":"25f63b10-98cd-480e-92af-ed5dd5c84c71","productId":"SKU_59","name":"Ralph Martin","status":"PENDING","awb":"71466613736","isDynamicPoint":false,"reachTime":0,"deliveryTime":0,"deliveryLat":0,"deliveryLng":0,"clusterId":null,"address":{"id":"dd08283a-0f88-4135-8a70-ed334be554c2","address":"1214, 17th Cross Road, Parangi Palaya, Sector 2, HSR Layout, Bangalore","lat":12.9121301,"lng":77.650205,"orderId":"25f63b10-98cd-480e-92af-ed5dd5c84c71"}},{"id":"ec8044ff-c8fb-40cf-8c99-ebd3b3317295","productId":"SKU_107","name":"Joyce Brothers","status":"PENDING","awb":"52059909281","isDynamicPoint":false,"reachTime":0,"deliveryTime":0,"deliveryLat":0,"deliveryLng":0,"clusterId":null,"address":{"id":"aaf0d8a2-1ae0-49a1-b3de-a7b1dc7ce00c","address":"42, Church Street, Bangalore","lat":12.9757954,"lng":77.6019081,"orderId":"ec8044ff-c8fb-40cf-8c99-ebd3b3317295"}},{"id":"9d247de0-68af-490c-9c5f-56fbb4f8b663","productId":"SKU_53","name":"Juanita Pahulu","status":"PENDING","awb":"53402748741","isDynamicPoint":false,"reachTime":0,"deliveryTime":0,"deliveryLat":0,"deliveryLng":0,"clusterId":null,"address":{"id":"dc10a8ac-2e79-417a-9491-9f8dbb0a39e6","address":"191, Ground Floor, 27th Main Road, Near CPWD Quarters, Beside Lawrance & Mayo, Sector 2, HSR, Bangalore","lat":12.9119893,"lng":77.651832,"orderId":"9d247de0-68af-490c-9c5f-56fbb4f8b663"}},{"id":"396b3c75-49a6-4555-b205-dd58e3629f93","productId":"SKU_67","name":"Jacob Mccroy","status":"PENDING","awb":"62724763094","isDynamicPoint":false,"reachTime":0,"deliveryTime":0,"deliveryLat":0,"deliveryLng":0,"clusterId":null,"address":{"id":"1022520c-c5f0-49ad-9226-579275e17413","address":"92, Ground Floor, Muninanjappa Gardens, Kodigehalli Main Road, KR Puram, Bangalore","lat":13.003555,"lng":77.7245487,"orderId":"396b3c75-49a6-4555-b205-dd58e3629f93"}},{"id":"2de10dfc-1094-4e9c-86a5-3f6d42752377","productId":"SKU_45","name":"Aldo Edsall","status":"PENDING","awb":"61422999142","isDynamicPoint":false,"reachTime":0,"deliveryTime":0,"deliveryLat":0,"deliveryLng":0,"clusterId":null,"address":{"id":"cf3a11eb-5eaf-425a-99e6-aa13a6322396","address":"G-005, City Centre, 28/4, Church Street, Bangalore","lat":12.9756472,"lng":77.60225369999999,"orderId":"2de10dfc-1094-4e9c-86a5-3f6d42752377"}},{"id":"6ab4506c-606a-41dc-b317-fd548aba1a9f","productId":"SKU_29","name":"Mabel Covell","status":"PENDING","awb":"86868052143","isDynamicPoint":false,"reachTime":0,"deliveryTime":0,"deliveryLat":0,"deliveryLng":0,"clusterId":null,"address":{"id":"6348dcc9-7c17-4530-af9d-dfdbfbed2919","address":"10/3, Shamanna Garden, 22nd Main Rd, Phase 5, JP Nagar, Bangalore","lat":12.9037401,"lng":77.5870418,"orderId":"6ab4506c-606a-41dc-b317-fd548aba1a9f"}},{"id":"cef51f2f-4615-489c-a22b-c420e95f55e0","productId":"SKU_91","name":"Bonnie Heath","status":"PENDING","awb":"30449400919","isDynamicPoint":false,"reachTime":0,"deliveryTime":0,"deliveryLat":0,"deliveryLng":0,"clusterId":null,"address":{"id":"31120f6a-98b7-42a6-999e-1c5dcca668d8","address":"7th Cross, Sector 1, HSR, Bangalore","lat":12.9194511,"lng":77.6487443,"orderId":"cef51f2f-4615-489c-a22b-c420e95f55e0"}},{"id":"f2473f9a-ef24-41bb-b6f8-49366666545b","productId":"SKU_66","name":"Lola Lomago","status":"PENDING","awb":"86439214657","isDynamicPoint":false,"reachTime":0,"deliveryTime":0,"deliveryLat":0,"deliveryLng":0,"clusterId":null,"address":{"id":"21386664-5e14-45c5-aa2f-adae3f9c4d38","address":"10/3, Devarabeesanahali, Outer Ring Road, Opposite Embassy Tech Park, Marathahalli, Bangalore","lat":12.9267407,"lng":77.6895485,"orderId":"f2473f9a-ef24-41bb-b6f8-49366666545b"}},{"id":"a67843df-29dd-4d71-9568-ef562181abe9","productId":"SKU_22","name":"James Riley","status":"PENDING","awb":"61686659900","isDynamicPoint":false,"reachTime":0,"deliveryTime":0,"deliveryLat":0,"deliveryLng":0,"clusterId":null,"address":{"id":"dd97b53e-85eb-4a8b-b9dc-5f35e0954965","address":"46/A, 1st Main, 3rd Phase, JP Nagar, Bangalore","lat":12.9112119,"lng":77.599166,"orderId":"a67843df-29dd-4d71-9568-ef562181abe9"}},{"id":"b730b472-3553-4ee8-a3aa-97474ac12517","productId":"SKU_53","name":"Mary Compton","status":"PENDING","awb":"49695767650","isDynamicPoint":false,"reachTime":0,"deliveryTime":0,"deliveryLat":0,"deliveryLng":0,"clusterId":null,"address":{"id":"25cdd9ea-6b20-47be-9c9b-4d2639c0649e","address":"Shop 217, 2nd Main Road Kadubeesanahalli Croma Back Side Road Near Kumbeshwara Temple Marathahalli, Bangalore","lat":12.973296,"lng":77.6957888,"orderId":"b730b472-3553-4ee8-a3aa-97474ac12517"}},{"id":"f6c0aaf3-63af-4752-82a9-298aefdbb76a","productId":"SKU_148","name":"Samuel Sampley","status":"PENDING","awb":"38653109135","isDynamicPoint":false,"reachTime":0,"deliveryTime":0,"deliveryLat":0,"deliveryLng":0,"clusterId":null,"address":{"id":"f485dfc0-1ab8-469b-bbef-17986e0496d8","address":"Number 4 St Mary's Building, 39/1, 2nd Stage, Indiranagar, Bangalore","lat":13.0112545,"lng":77.50636089999999,"orderId":"f6c0aaf3-63af-4752-82a9-298aefdbb76a"}},{"id":"7bdb8f0a-4567-4b0d-8f81-cc411b2ead62","productId":"SKU_141","name":"Jesse Chan","status":"PENDING","awb":"27632908686","isDynamicPoint":false,"reachTime":0,"deliveryTime":0,"deliveryLat":0,"deliveryLng":0,"clusterId":null,"address":{"id":"e974817a-f6cc-4458-9c87-354f87c880b4","address":"21, 24th Main Road, 6th Phase, JP Nagar, Bangalore","lat":12.9029512,"lng":77.58562049999999,"orderId":"7bdb8f0a-4567-4b0d-8f81-cc411b2ead62"}},{"id":"aef6fbfe-13ef-423d-8d69-15566344fa82","productId":"SKU_18","name":"Thomas Lyons","status":"PENDING","awb":"92874070081","isDynamicPoint":false,"reachTime":0,"deliveryTime":0,"deliveryLat":0,"deliveryLng":0,"clusterId":null,"address":{"id":"49162ab1-086b-4174-a2a0-c0fdf04c3301","address":"311, 15th Cross, 5th Phase, JP Nagar, Bangalore","lat":12.9061386,"lng":77.5929986,"orderId":"aef6fbfe-13ef-423d-8d69-15566344fa82"}},{"id":"8a373fac-b0fc-471c-8885-378f6e7cfd1c","productId":"SKU_104","name":"Holly Sallee","status":"PENDING","awb":"70987447117","isDynamicPoint":false,"reachTime":0,"deliveryTime":0,"deliveryLat":0,"deliveryLng":0,"clusterId":null,"address":{"id":"2f9d994a-55ed-42e3-a0f5-f0bcaac51452","address":"Near kaka singh dhaba, RMZ eco world backgate","lat":12.918756,"lng":77.6851939,"orderId":"8a373fac-b0fc-471c-8885-378f6e7cfd1c"}},{"id":"c2e2494a-6a4d-4230-89d0-453788ba08fc","productId":"SKU_63","name":"Robert Clarke","status":"PENDING","awb":"56516948976","isDynamicPoint":false,"reachTime":0,"deliveryTime":0,"deliveryLat":0,"deliveryLng":0,"clusterId":null,"address":{"id":"db10f831-f49a-4eba-81ff-b2b1074146c8","address":"Kadubeesanahalli, Marathahalli Outer Ring Road, Opposite JP Morgan, Varthur Hobli, Marathahalli, Bangalore","lat":12.9641908,"lng":77.7019459,"orderId":"c2e2494a-6a4d-4230-89d0-453788ba08fc"}},{"id":"05a8bf2e-f723-41f9-a656-86fc08ef7e46","productId":"SKU_81","name":"Brian Isom","status":"PENDING","awb":"87898682349","isDynamicPoint":false,"reachTime":0,"deliveryTime":0,"deliveryLat":0,"deliveryLng":0,"clusterId":null,"address":{"id":"7274395f-2135-4e73-bc68-fe21d5e8d325","address":"1543, 7th Cross, 19th Main, 1st Sector, HSR, Bangalore","lat":12.9196402,"lng":77.64447919999999,"orderId":"05a8bf2e-f723-41f9-a656-86fc08ef7e46"}},{"id":"9867b6e2-70d5-49d3-ac33-09c97c198b06","productId":"SKU_123","name":"Lucille Keirstead","status":"PENDING","awb":"14699928469","isDynamicPoint":false,"reachTime":0,"deliveryTime":0,"deliveryLat":0,"deliveryLng":0,"clusterId":null,"address":{"id":"0b84e5e0-b3e1-4a3b-9589-007e15e03994","address":"569/4, Sector 1, HSR, Bangalore","lat":12.9257303,"lng":77.6651649,"orderId":"9867b6e2-70d5-49d3-ac33-09c97c198b06"}},{"id":"fef4a282-0a30-4ccd-8c9a-87a26aadd3a5","productId":"SKU_112","name":"Anita Valdez","status":"PENDING","awb":"47015403024","isDynamicPoint":false,"reachTime":0,"deliveryTime":0,"deliveryLat":0,"deliveryLng":0,"clusterId":null,"address":{"id":"fb67370a-579d-464a-8f70-f68c59907247","address":"Panathur Main Road, Kadubeesanahalli, Marathahalli, Bangalore","lat":12.9371558,"lng":77.7023374,"orderId":"fef4a282-0a30-4ccd-8c9a-87a26aadd3a5"}},{"id":"1db4e58f-8ea3-4d00-8462-a83728f71691","productId":"SKU_34","name":"Angela Hindman","status":"PENDING","awb":"19365687734","isDynamicPoint":false,"reachTime":0,"deliveryTime":0,"deliveryLat":0,"deliveryLng":0,"clusterId":null,"address":{"id":"b7691255-b87b-4af5-8211-e9d40ef9efe2","address":"1554, Ground Floor, 19th Main, Sector - 1, HSR, Bangalore","lat":12.9136257,"lng":77.6446549,"orderId":"1db4e58f-8ea3-4d00-8462-a83728f71691"}},{"id":"3af4f726-e63e-4e76-8373-1ef3f2751dd3","productId":"SKU_69","name":"Clarence Fuller","status":"PENDING","awb":"17354068059","isDynamicPoint":false,"reachTime":0,"deliveryTime":0,"deliveryLat":0,"deliveryLng":0,"clusterId":null,"address":{"id":"6b6a2792-fd00-4558-9bc9-cc09c47776ef","address":"191, First Floor, 27th Main, Sector 2, HSR, Bangalore","lat":12.9079765,"lng":77.6517237,"orderId":"3af4f726-e63e-4e76-8373-1ef3f2751dd3"}},{"id":"5f7c90a0-5eff-47fa-bc5c-de093048ade8","productId":"SKU_91","name":"Marlon Leonard","status":"PENDING","awb":"60381594139","isDynamicPoint":false,"reachTime":0,"deliveryTime":0,"deliveryLat":0,"deliveryLng":0,"clusterId":null,"address":{"id":"9bada99b-8370-4295-8e38-de88264acd50","address":"7, Anurhh Arcade, Hoodi Road, Kodigehalli Road, KR Puram, Bangalore","lat":13.0044944,"lng":77.7125871,"orderId":"5f7c90a0-5eff-47fa-bc5c-de093048ade8"}},{"id":"0a57ec5a-ea72-4466-ab1d-7fa9d69a7fbb","productId":"SKU_143","name":"Carl Luskey","status":"PENDING","awb":"81037487822","isDynamicPoint":false,"reachTime":0,"deliveryTime":0,"deliveryLat":0,"deliveryLng":0,"clusterId":null,"address":{"id":"710c465b-a88a-4b3e-91fb-8a730b7b9a0c","address":"7, Anurhh Arcade, Hoodi Road, Kodigehalli Road, KR Puram, Bangalore","lat":13.0044944,"lng":77.7125871,"orderId":"0a57ec5a-ea72-4466-ab1d-7fa9d69a7fbb"}},{"id":"b2fcfc18-533d-48ca-96b3-951a3f68620d","productId":"SKU_89","name":"Dana Farley","status":"PENDING","awb":"58089927559","isDynamicPoint":false,"reachTime":0,"deliveryTime":0,"deliveryLat":0,"deliveryLng":0,"clusterId":null,"address":{"id":"e911518d-c047-4147-aba3-28e98e9f1b75","address":"Basement 2064, Siri Iris Building, 24th Main, N.R.T.A Enclave, HSR, Bangalore","lat":12.9154599,"lng":77.6491032,"orderId":"b2fcfc18-533d-48ca-96b3-951a3f68620d"}},{"id":"1052da18-aa4b-46cd-8385-631e090a83d6","productId":"SKU_131","name":"Marshall Parham","status":"PENDING","awb":"47003637195","isDynamicPoint":false,"reachTime":0,"deliveryTime":0,"deliveryLat":0,"deliveryLng":0,"clusterId":null,"address":{"id":"c41585b1-545d-4fd3-91d6-bebd299e0d56","address":"212/A, 1st Main Road, Stage 2, Indiranagar, Bangalore","lat":12.9653791,"lng":77.63803399999999,"orderId":"1052da18-aa4b-46cd-8385-631e090a83d6"}},{"id":"dbb698b3-8dc7-4d3c-9ad4-0ea74eb4634c","productId":"SKU_50","name":"Sherry Ludlam","status":"PENDING","awb":"85539430303","isDynamicPoint":false,"reachTime":0,"deliveryTime":0,"deliveryLat":0,"deliveryLng":0,"clusterId":null,"address":{"id":"631fa111-1ec3-49c0-8208-a5196eb3dec4","address":"809/A, 27th Main, 100 Feet Road, 1st Sector, HSR, Bangalore","lat":12.9104699,"lng":77.6139457,"orderId":"dbb698b3-8dc7-4d3c-9ad4-0ea74eb4634c"}},{"id":"76087e0f-567c-4d2a-bb2b-9c8555fe72b0","productId":"SKU_44","name":"Dorothy Davis","status":"PENDING","awb":"71791751983","isDynamicPoint":false,"reachTime":0,"deliveryTime":0,"deliveryLat":0,"deliveryLng":0,"clusterId":null,"address":{"id":"4b546732-be14-44eb-a2cd-78a998586155","address":"Plot 302, Shop 1, 2nd Cross, Kadubesanahalli, Panathur Main Road, Marathahalli, Bangalore","lat":12.9399329,"lng":77.6979661,"orderId":"76087e0f-567c-4d2a-bb2b-9c8555fe72b0"}},{"id":"0c7d3b2b-8c85-4f86-8b96-b949f2088461","productId":"SKU_97","name":"Matthew Bass","status":"PENDING","awb":"61354798733","isDynamicPoint":false,"reachTime":0,"deliveryTime":0,"deliveryLat":0,"deliveryLng":0,"clusterId":null,"address":{"id":"ac4298af-7a77-4920-aa70-871320e85ed0","address":"76, Shruthi Layout, Basavanapura Main Road, KR Puram, Bangalore","lat":13.0103509,"lng":77.7034883,"orderId":"0c7d3b2b-8c85-4f86-8b96-b949f2088461"}},{"id":"535d10d9-6184-47ed-ac5e-e92680b026cc","productId":"SKU_1","name":"Twyla Nichols","status":"PENDING","awb":"98170732794","isDynamicPoint":false,"reachTime":0,"deliveryTime":0,"deliveryLat":0,"deliveryLng":0,"clusterId":null,"address":{"id":"81912e4d-bb1e-4e2c-a971-7c1fe21f74d0","address":"22, Amoeba Complex, Church Street, Bangalore","lat":12.9746781,"lng":77.60490279999999,"orderId":"535d10d9-6184-47ed-ac5e-e92680b026cc"}},{"id":"ec56c0ca-a846-417b-80d9-24cd9c88a981","productId":"SKU_18","name":"Rosa Alvarez","status":"PENDING","awb":"96249705883","isDynamicPoint":false,"reachTime":0,"deliveryTime":0,"deliveryLat":0,"deliveryLng":0,"clusterId":null,"address":{"id":"94d95f60-d422-4057-9944-a1cbfcd20fc4","address":"598, 1st Floor, 1st Cross, 1st A Main Road, Domlur Layout, 1st Stage, Domlur, Bangalore","lat":12.9600892,"lng":77.6357111,"orderId":"ec56c0ca-a846-417b-80d9-24cd9c88a981"}},{"id":"ffe9c736-08df-41ff-b3d2-1fc1155f5c92","productId":"SKU_113","name":"Normand Ashford","status":"PENDING","awb":"99015056791","isDynamicPoint":false,"reachTime":0,"deliveryTime":0,"deliveryLat":0,"deliveryLng":0,"clusterId":null,"address":{"id":"1185856a-67da-4da5-96de-f7b82e996378","address":"First Floor, 14, Church Street, Bangalore","lat":12.9752302,"lng":77.60346220000001,"orderId":"ffe9c736-08df-41ff-b3d2-1fc1155f5c92"}},{"id":"9b7bcb2a-326d-4bb9-81bc-57f3b66215c6","productId":"SKU_121","name":"Gary Simmons","status":"PENDING","awb":"70899793952","isDynamicPoint":false,"reachTime":0,"deliveryTime":0,"deliveryLat":0,"deliveryLng":0,"clusterId":null,"address":{"id":"1bad65e6-9a4a-4479-8a75-fdc17c3550c0","address":"197/A, Double Road, 2nd Stage, Opposite HDFC Bank, Indiranagar, Bangalore","lat":12.9613059,"lng":77.6366221,"orderId":"9b7bcb2a-326d-4bb9-81bc-57f3b66215c6"}},{"id":"08fc7eb3-96ac-4796-9981-ea6fcdd5e9c6","productId":"SKU_73","name":"James Carlen","status":"PENDING","awb":"89948676925","isDynamicPoint":false,"reachTime":0,"deliveryTime":0,"deliveryLat":0,"deliveryLng":0,"clusterId":null,"address":{"id":"a5ddbbf7-9e2c-4ce3-9452-15270918d779","address":"Shop 2, Kodigahalli Main Road, KR Puram","lat":13.0077274,"lng":77.7342053,"orderId":"08fc7eb3-96ac-4796-9981-ea6fcdd5e9c6"}},{"id":"6eb0cda1-29d4-470e-a739-202018afb662","productId":"SKU_61","name":"Mary Walton","status":"PENDING","awb":"65665446450","isDynamicPoint":false,"reachTime":0,"deliveryTime":0,"deliveryLat":0,"deliveryLng":0,"clusterId":null,"address":{"id":"1fb49150-8374-47d7-88ad-dbb8d4e33f7a","address":"949, 12th Main Rd, Appareddipalya, Indiranagar, Bengaluru, Karnataka","lat":12.9701997,"lng":77.6391119,"orderId":"6eb0cda1-29d4-470e-a739-202018afb662"}},{"id":"10dafd56-b7db-4741-ad13-0a57e3003503","productId":"SKU_10","name":"Carol Upchurch","status":"PENDING","awb":"20687322207","isDynamicPoint":false,"reachTime":0,"deliveryTime":0,"deliveryLat":0,"deliveryLng":0,"clusterId":null,"address":{"id":"6daa2a8b-2844-48b4-8d9a-dd6146e1e58f","address":"780, 12th Cross, 19th Main, HSR, Bangalore","lat":12.9163752,"lng":77.6497418,"orderId":"10dafd56-b7db-4741-ad13-0a57e3003503"}},{"id":"c25cc839-c693-4ea9-ae71-260eab52d946","productId":"SKU_129","name":"Joseph Boyd","status":"PENDING","awb":"92941598133","isDynamicPoint":false,"reachTime":0,"deliveryTime":0,"deliveryLat":0,"deliveryLng":0,"clusterId":null,"address":{"id":"edd30244-d8f6-4e31-b2f1-4a0bc2e30d40","address":"Ground Floor, Sri Shiva Sai Complex, 13th Cross, 7th Main, 2nd Stage, HAL, Off Double Road, Indiranagar, Bangalore","lat":12.9786738,"lng":77.6362003,"orderId":"c25cc839-c693-4ea9-ae71-260eab52d946"}},{"id":"c240f7ff-edad-45db-9aa1-9140650908be","productId":"SKU_10","name":"Charles Albrecht","status":"PENDING","awb":"18924249557","isDynamicPoint":false,"reachTime":0,"deliveryTime":0,"deliveryLat":0,"deliveryLng":0,"clusterId":null,"address":{"id":"88e14464-f57c-476b-affd-a1625f6367a3","address":"1st Floor, NTR Royal Plaza, Outer Ring Road, Marathahalli, Bangalore","lat":12.949365,"lng":77.6990172,"orderId":"c240f7ff-edad-45db-9aa1-9140650908be"}},{"id":"0b338c9a-6f4b-4384-827a-d01955bad9f6","productId":"SKU_89","name":"Naomi Daniels","status":"PENDING","awb":"49862610786","isDynamicPoint":false,"reachTime":0,"deliveryTime":0,"deliveryLat":0,"deliveryLng":0,"clusterId":null,"address":{"id":"ca36f922-8514-45c9-9ddf-55430e325c38","address":"20/5, Outer Ring Road, Kadubeesanahalli, Marathahalli, Bangalore","lat":12.9387303,"lng":77.6951242,"orderId":"0b338c9a-6f4b-4384-827a-d01955bad9f6"}},{"id":"c0876d7d-5d44-466f-9ea5-d02d1beee487","productId":"SKU_123","name":"Trudy Moore","status":"PENDING","awb":"38434272738","isDynamicPoint":false,"reachTime":0,"deliveryTime":0,"deliveryLat":0,"deliveryLng":0,"clusterId":null,"address":{"id":"33081d23-e1f9-48b6-aee4-238f686e2d61","address":"1088, 12th Main, HAL 2nd Stage, Off 100 Feet Road, Indiranagar, Bangalore","lat":12.9699142,"lng":77.6379417,"orderId":"c0876d7d-5d44-466f-9ea5-d02d1beee487"}},{"id":"aa302c89-5ba3-4cb0-9599-70044f0d7c13","productId":"SKU_20","name":"Patricia Johnston","status":"PENDING","awb":"77604849495","isDynamicPoint":false,"reachTime":0,"deliveryTime":0,"deliveryLat":0,"deliveryLng":0,"clusterId":null,"address":{"id":"91b1a262-bd33-45e0-bb26-39e1c833afd8","address":"949, Ground Floor, HAL 2nd Stage, 12th Main, 100 feet Road, Indiranagar, Bangalore","lat":12.970274,"lng":77.641387,"orderId":"aa302c89-5ba3-4cb0-9599-70044f0d7c13"}},{"id":"709812a6-f452-47ae-acd6-55b088c241df","productId":"SKU_77","name":"Milton Wilson","status":"PENDING","awb":"50915970151","isDynamicPoint":false,"reachTime":0,"deliveryTime":0,"deliveryLat":0,"deliveryLng":0,"clusterId":null,"address":{"id":"5e36c5e3-a49d-4195-afe1-1de888d87659","address":"2628, 27th Main Road, 1st Sector, HSR Layout, Bangalore, HSR, Bangalore","lat":12.915173,"lng":77.65158799999999,"orderId":"709812a6-f452-47ae-acd6-55b088c241df"}},{"id":"59c8ed0c-2db6-41c4-9acc-3cfcd8c91bf3","productId":"SKU_17","name":"Scott Peabody","status":"PENDING","awb":"81721151401","isDynamicPoint":false,"reachTime":0,"deliveryTime":0,"deliveryLat":0,"deliveryLng":0,"clusterId":null,"address":{"id":"a99283d3-6271-4eb7-a4c7-c52e58f91d4b","address":"765, 1st Floor, 1st Main, Domlur Layout, Domlur, Bangalore","lat":12.9599925,"lng":77.6407538,"orderId":"59c8ed0c-2db6-41c4-9acc-3cfcd8c91bf3"}},{"id":"f4c11de3-f4d9-44a2-bd15-27fa6d793f5b","productId":"SKU_40","name":"Freda Beauchamp","status":"PENDING","awb":"24549099395","isDynamicPoint":false,"reachTime":0,"deliveryTime":0,"deliveryLat":0,"deliveryLng":0,"clusterId":null,"address":{"id":"91a07207-bc0e-4c65-ba74-645064334ce4","address":"JP Nagar, Phase 7, Bangalore","lat":12.8890015,"lng":77.573385,"orderId":"f4c11de3-f4d9-44a2-bd15-27fa6d793f5b"}},{"id":"8f6711ee-5089-427d-ae41-8128620fcc4b","productId":"SKU_5","name":"Aaron Davis","status":"PENDING","awb":"62165843566","isDynamicPoint":false,"reachTime":0,"deliveryTime":0,"deliveryLat":0,"deliveryLng":0,"clusterId":null,"address":{"id":"f62d4e74-323d-4375-8639-1d0db577cc1f","address":"77 Town, Building No 3, Divya Shree Building, Yamalur Post, Marathahalli, Bangalore","lat":12.9257475,"lng":77.6143829,"orderId":"8f6711ee-5089-427d-ae41-8128620fcc4b"}},{"id":"07e0930c-d8d7-4912-a7ba-4a3e564a8e7c","productId":"SKU_43","name":"Deanna Castille","status":"PENDING","awb":"63269771781","isDynamicPoint":false,"reachTime":0,"deliveryTime":0,"deliveryLat":0,"deliveryLng":0,"clusterId":null,"address":{"id":"6ec3ddcb-931f-4fe6-b7dd-cbe6e9baea47","address":"39, Aiyaapanagar Main Road, Near Krishna Community Hall, KR Puram, Bangalore","lat":13.0031532,"lng":77.7126242,"orderId":"07e0930c-d8d7-4912-a7ba-4a3e564a8e7c"}},{"id":"e09dbb49-0402-4551-bc3b-9678616576ce","productId":"SKU_78","name":"Catherine Wilson","status":"PENDING","awb":"41891691354","isDynamicPoint":false,"reachTime":0,"deliveryTime":0,"deliveryLat":0,"deliveryLng":0,"clusterId":null,"address":{"id":"e6c79481-d3c6-44c5-b98c-1ea2ad23d8e0","address":"18, Prakruthi Enclave, Panathur Road, Kadubeesanahalli, Marathahalli, Bangalore","lat":12.9367813,"lng":77.71045889999999,"orderId":"e09dbb49-0402-4551-bc3b-9678616576ce"}},{"id":"8c0d4fd0-4be6-4f08-8dae-0cf5b6f01f0e","productId":"SKU_132","name":"Verna White","status":"PENDING","awb":"17432534499","isDynamicPoint":false,"reachTime":0,"deliveryTime":0,"deliveryLat":0,"deliveryLng":0,"clusterId":null,"address":{"id":"36bf5a7c-4cd6-459a-97e0-6bf5ff5b5691","address":"21/28, Radhakrishna Nilaya, Opp SEA Institutions, Ayappa Nagar, KR Puram, Bangalore","lat":12.9998189,"lng":77.7151616,"orderId":"8c0d4fd0-4be6-4f08-8dae-0cf5b6f01f0e"}},{"id":"f2de3dbc-825d-4790-b274-4e82139e2aa9","productId":"SKU_44","name":"Miguel Evanoff","status":"PENDING","awb":"32162999926","isDynamicPoint":false,"reachTime":0,"deliveryTime":0,"deliveryLat":0,"deliveryLng":0,"clusterId":null,"address":{"id":"4112d3f5-bbb7-4db7-8b1b-32d14bfa7ecb","address":"The HHI Select Bengaluru Hotel, 686, 15th Cross, Ring Road, 2nd Phase, JP Nagar, Bangalore","lat":12.9065794,"lng":77.5929269,"orderId":"f2de3dbc-825d-4790-b274-4e82139e2aa9"}},{"id":"8d2ace0a-f09f-434d-bccf-7bd4386f64e3","productId":"SKU_10","name":"George Garrett","status":"PENDING","awb":"76893410434","isDynamicPoint":false,"reachTime":0,"deliveryTime":0,"deliveryLat":0,"deliveryLng":0,"clusterId":null,"address":{"id":"fd6db571-69e4-4142-8cd5-c2794f0e8fa4","address":"33, High Gates Hotel, Church Street, Bangalore","lat":12.975079,"lng":77.603155,"orderId":"8d2ace0a-f09f-434d-bccf-7bd4386f64e3"}},{"id":"a90e62d6-3515-4965-a45b-43679d308305","productId":"SKU_56","name":"Rebecca Vanos","status":"PENDING","awb":"18834198685","isDynamicPoint":false,"reachTime":0,"deliveryTime":0,"deliveryLat":0,"deliveryLng":0,"clusterId":null,"address":{"id":"f647edde-1d45-4d98-b01d-aa2d9c942a33","address":"204, 4th Cross, KSRTC Layout, 2nd Phase, JP Nagar, Bangalore","lat":12.9127245,"lng":77.5958453,"orderId":"a90e62d6-3515-4965-a45b-43679d308305"}},{"id":"ee302eea-ce9d-4e29-a980-387243b98132","productId":"SKU_47","name":"Tara Allen","status":"PENDING","awb":"54163870135","isDynamicPoint":false,"reachTime":0,"deliveryTime":0,"deliveryLat":0,"deliveryLng":0,"clusterId":null,"address":{"id":"8a469848-b9a9-48ab-9cc6-5af3da49b574","address":"1554, Ground Floor, 19th Main, Sector - 1, HSR, Bangalore","lat":12.9136257,"lng":77.6446549,"orderId":"ee302eea-ce9d-4e29-a980-387243b98132"}},{"id":"9dab550f-a044-4bb3-b02e-6a0702e0c6e0","productId":"SKU_12","name":"Bryan Warthen","status":"PENDING","awb":"28529174781","isDynamicPoint":false,"reachTime":0,"deliveryTime":0,"deliveryLat":0,"deliveryLng":0,"clusterId":null,"address":{"id":"c2612b0d-4f67-4678-a3df-8e9a69acbf83","address":"Devasandra Main Road, Ayyappa Nagar, KR Puram, Bangalore","lat":13.0043122,"lng":77.7103151,"orderId":"9dab550f-a044-4bb3-b02e-6a0702e0c6e0"}},{"id":"bda8da5b-4ff7-41b2-83d2-518f2dffe40d","productId":"SKU_110","name":"Kathleen Thompson","status":"PENDING","awb":"53198547414","isDynamicPoint":false,"reachTime":0,"deliveryTime":0,"deliveryLat":0,"deliveryLng":0,"clusterId":null,"address":{"id":"9d9da3d1-6ea0-4b15-aa62-4e0f60ad524a","address":"181, 3rd Floor, Amar Jyothi Layout, Inner Ring Road, Domlur, Bangalore","lat":12.9539498,"lng":77.641089,"orderId":"bda8da5b-4ff7-41b2-83d2-518f2dffe40d"}},{"id":"30cefe36-ac7a-462b-b8fb-6bd14cc7bef8","productId":"SKU_91","name":"Harvey Tyner","status":"PENDING","awb":"62399381626","isDynamicPoint":false,"reachTime":0,"deliveryTime":0,"deliveryLat":0,"deliveryLng":0,"clusterId":null,"address":{"id":"7e4b087a-c2aa-477e-b276-5c3daa528d08","address":"949, 12th Main, Ground Floor, Off 100 Feet Road, Indiranagar, Bangalore","lat":12.9701997,"lng":77.6391119,"orderId":"30cefe36-ac7a-462b-b8fb-6bd14cc7bef8"}},{"id":"0f8bef6e-458a-4c1a-a758-5cf3e21f1e0a","productId":"SKU_97","name":"Kevin Schneider","status":"PENDING","awb":"15691083877","isDynamicPoint":false,"reachTime":0,"deliveryTime":0,"deliveryLat":0,"deliveryLng":0,"clusterId":null,"address":{"id":"6db1a224-fa11-4bbe-b4d2-0f7cee446e64","address":"88, Outer Ring Road, Next To More Mega Store, Marathahalli, Bangalore","lat":12.9486437,"lng":77.6996774,"orderId":"0f8bef6e-458a-4c1a-a758-5cf3e21f1e0a"}},{"id":"c1afb0ce-038b-496d-8f34-03309048df0e","productId":"SKU_6","name":"John Dennis","status":"PENDING","awb":"79226518761","isDynamicPoint":false,"reachTime":0,"deliveryTime":0,"deliveryLat":0,"deliveryLng":0,"clusterId":null,"address":{"id":"ada88c59-2897-45c7-9253-dcdee56247c2","address":"39/7, 5th Cross, 6th Main, Appareddy Palya, Indiranagar, Bangalore","lat":13.0116344,"lng":77.6485005,"orderId":"c1afb0ce-038b-496d-8f34-03309048df0e"}},{"id":"c17c91e8-19ce-4b44-a9fe-07a3d0b03987","productId":"SKU_64","name":"Peggy Hwang","status":"PENDING","awb":"47082143365","isDynamicPoint":false,"reachTime":0,"deliveryTime":0,"deliveryLat":0,"deliveryLng":0,"clusterId":null,"address":{"id":"696ffb4d-f5c7-4b04-a695-dc699b38f18f","address":"2606, The Ambience, 27th Main Road, 16th cross, HSR Layout","lat":12.9125829,"lng":77.6514055,"orderId":"c17c91e8-19ce-4b44-a9fe-07a3d0b03987"}}]}
