{"noOfOrders":66,"noOfRiders":20,"warehouseLocation":{"lat":12.971599,"lng":77.638725},"consignments":[{"id":"77712bb7-81f5-4583-8a5a-855960f0dadc","productId":"SKU_29","name":"Ryan Orlando","status":"PENDING","awb":"13346207178","isDynamicPoint":false,"reachTime":0,"deliveryTime":0,"deliveryLat":0,"deliveryLng":0,"clusterId":null,"address":{"id":"f80cda1b-cff7-4ca8-a251-a2b6a742b897","address":"114, Kothanur Main Road, Santrupthi Nagar, 7th Phase, JP Nagar, Bangalore","lat":12.8919779,"lng":77.5817794,"orderId":"77712bb7-81f5-4583-8a5a-855960f0dadc"}},{"id":"29b28879-1daf-4597-b840-6b47f37713e6","productId":"SKU_21","name":"John Fridley","status":"PENDING","awb":"14876577908","isDynamicPoint":false,"reachTime":0,"deliveryTime":0,"deliveryLat":0,"deliveryLng":0,"clusterId":null,"address":{"id":"23685cfd-bc53-412c-98ea-de94b5a7c15b","address":"1260 SY 35/4 SJR Tower's, 24th Main Puttanhalli, JP Nagar 7th Phase, Bangalore","lat":12.9003937,"lng":77.5858415,"orderId":"29b28879-1daf-4597-b840-6b47f37713e6"}},{"id":"afaaea25-f40f-4e23-b38e-1272c2d18d4d","productId":"SKU_139","name":"Donald Allen","status":"PENDING","awb":"78472305957","isDynamicPoint":false,"reachTime":0,"deliveryTime":0,"deliveryLat":0,"deliveryLng":0,"clusterId":null,"address":{"id":"5586385b-4044-423d-9c72-b66ce4956c79","address":"7th Cross Road, Agara Village, 1st Sector, HSR, Bangalore","lat":12.9194418,"lng":77.647291,"orderId":"afaaea25-f40f-4e23-b38e-1272c2d18d4d"}},{"id":"6fefea6c-38af-4d7b-94b2-704d5e652795","productId":"SKU_144","name":"John Dutton","status":"PENDING","awb":"85830764356","isDynamicPoint":false,"reachTime":0,"deliveryTime":0,"deliveryLat":0,"deliveryLng":0,"clusterId":null,"address":{"id":"98c453b9-b402-40f1-bfc2-4bdf35315469","address":"77/1, 24th Main, 2nd Phase, JP Nagar, Bangalore","lat":12.9158698,"lng":77.5860082,"orderId":"6fefea6c-38af-4d7b-94b2-704d5e652795"}},{"id":"1050547b-072c-400f-95c9-b8d2b22dca5a","productId":"SKU_13","name":"James Rego","status":"PENDING","awb":"72346908029","isDynamicPoint":false,"reachTime":0,"deliveryTime":0,"deliveryLat":0,"deliveryLng":0,"clusterId":null,"address":{"id":"62767cbe-fdc3-41b1-bf97-ee2137a4078e","address":"97, Wilson Garden Housing Society, 7th Phase, JP Nagar, Bangalore","lat":12.8978624,"lng":77.58450839999999,"orderId":"1050547b-072c-400f-95c9-b8d2b22dca5a"}},{"id":"a34124f9-a20b-49a7-8c18-444acbdf7ddd","productId":"SKU_77","name":"William Rivera","status":"PENDING","awb":"60615787248","isDynamicPoint":false,"reachTime":0,"deliveryTime":0,"deliveryLat":0,"deliveryLng":0,"clusterId":null,"address":{"id":"38c8003a-a144-4b42-9f5c-93b43e05bb57","address":"99/2A, Kothnoor Main Road, Opposite RBI Layout Bus Stop, 7th Phase, JP Nagar, Bangalore","lat":12.8902416,"lng":77.58212879999999,"orderId":"a34124f9-a20b-49a7-8c18-444acbdf7ddd"}},{"id":"76745e24-d893-462c-a8d7-a723052f38b8","productId":"SKU_89","name":"Nanette Mcbride","status":"PENDING","awb":"11910424508","isDynamicPoint":false,"reachTime":0,"deliveryTime":0,"deliveryLat":0,"deliveryLng":0,"clusterId":null,"address":{"id":"6a2ff3aa-f640-4f7c-ba05-dd9bb883ac59","address":"680-669, 13th Cross Rd, 1st Sector, HSR Layout, Bengaluru, Karnataka","lat":12.9159261,"lng":77.6497332,"orderId":"76745e24-d893-462c-a8d7-a723052f38b8"}},{"id":"406c58ba-c9a3-44a8-871f-24548a523b04","productId":"SKU_113","name":"Linda Kurland","status":"PENDING","awb":"60104333056","isDynamicPoint":false,"reachTime":0,"deliveryTime":0,"deliveryLat":0,"deliveryLng":0,"clusterId":null,"address":{"id":"aa84e5f2-77e1-481b-a6dc-f7602e7e0214","address":"954, 2nd Floor, 24th Main, 2nd Phase, Opposite LIC Building, JP Nagar, Bangalore","lat":12.9115788,"lng":77.5857133,"orderId":"406c58ba-c9a3-44a8-871f-24548a523b04"}},{"id":"48b8cac5-8ca9-42a3-8a7f-2ef5677b7c3e","productId":"SKU_81","name":"Brian Isom","status":"PENDING","awb":"87898682349","isDynamicPoint":false,"reachTime":0,"deliveryTime":0,"deliveryLat":0,"deliveryLng":0,"clusterId":null,"address":{"id":"be82c278-19b0-496e-92e3-1f3cfb3a0643","address":"1543, 7th Cross, 19th Main, 1st Sector, HSR, Bangalore","lat":12.9196402,"lng":77.64447919999999,"orderId":"48b8cac5-8ca9-42a3-8a7f-2ef5677b7c3e"}},{"id":"d5b3a64e-f446-44d3-934a-966cb21c36d7","productId":"SKU_58","name":"Lidia Wickham","status":"PENDING","awb":"71217404672","isDynamicPoint":false,"reachTime":0,"deliveryTime":0,"deliveryLat":0,"deliveryLng":0,"clusterId":null,"address":{"id":"ec67fd19-a170-474a-9987-d3aca185bc5d","address":"81, 7th Main, 5th Cross, Bank of Baroda Colony, 7th Phase, JP Nagar, Bangalore","lat":12.9059478,"lng":77.6058923,"orderId":"d5b3a64e-f446-44d3-934a-966cb21c36d7"}},{"id":"d2b3d392-30c6-4193-b537-95551e289679","productId":"SKU_76","name":"Margie Galvan","status":"PENDING","awb":"40837739535","isDynamicPoint":false,"reachTime":0,"deliveryTime":0,"deliveryLat":0,"deliveryLng":0,"clusterId":null,"address":{"id":"7b98bf11-edf7-4186-9891-fb93de10692e","address":"27th Main, Near NIFT, Sector-1, HSR, Bangalore","lat":12.9119893,"lng":77.651832,"orderId":"d2b3d392-30c6-4193-b537-95551e289679"}},{"id":"edb16ef3-777b-4fb5-8f88-c13817fe7a14","productId":"SKU_117","name":"Gustavo Bailey","status":"PENDING","awb":"94332983235","isDynamicPoint":false,"reachTime":0,"deliveryTime":0,"deliveryLat":0,"deliveryLng":0,"clusterId":null,"address":{"id":"4608f92c-77c0-4b82-b57e-5a03aba6a240","address":"543, 7th Cross, 24th Main, Opposite Nous Info Systems, Sector 1, HSR, Bangalore","lat":12.9196367,"lng":77.64947529999999,"orderId":"edb16ef3-777b-4fb5-8f88-c13817fe7a14"}},{"id":"1bd679e1-edad-4750-aef7-f3c4f2736794","productId":"SKU_138","name":"Sarah Kardashian","status":"PENDING","awb":"72031214940","isDynamicPoint":false,"reachTime":0,"deliveryTime":0,"deliveryLat":0,"deliveryLng":0,"clusterId":null,"address":{"id":"3cadeeb3-309c-4c20-aa97-b66423c363d8","address":"8, 15th Main, 5th Phase, JP Nagar, Bangalore","lat":12.9033045,"lng":77.59173849999999,"orderId":"1bd679e1-edad-4750-aef7-f3c4f2736794"}},{"id":"c8302df5-c30a-45d9-b9c5-470ce1265816","productId":"SKU_134","name":"Johnny Runyan","status":"PENDING","awb":"66314622688","isDynamicPoint":false,"reachTime":0,"deliveryTime":0,"deliveryLat":0,"deliveryLng":0,"clusterId":null,"address":{"id":"765ee137-d178-4f64-ae39-504b72c5a1af","address":"99/4, Nataraja Layout, 7th Phase, JP Nagar, Bangalore","lat":12.8897963,"lng":77.58558289999999,"orderId":"c8302df5-c30a-45d9-b9c5-470ce1265816"}},{"id":"9995e2fb-9c18-488d-a34d-45c04ba1d1cf","productId":"SKU_16","name":"Frank Garcia","status":"PENDING","awb":"36774055970","isDynamicPoint":false,"reachTime":0,"deliveryTime":0,"deliveryLat":0,"deliveryLng":0,"clusterId":null,"address":{"id":"316ce16b-4dce-49ac-96f5-f3fffc8dc466","address":"Eden Park7, 8 Doresani Palya, Near Kalyani Magnum, Opposite Oracle, 5th Phase, JP Nagar, Bangalore","lat":12.901773,"lng":77.594978,"orderId":"9995e2fb-9c18-488d-a34d-45c04ba1d1cf"}},{"id":"fbda1584-254e-4993-88d1-6be722639112","productId":"SKU_100","name":"Willie Matson","status":"PENDING","awb":"77357637627","isDynamicPoint":false,"reachTime":0,"deliveryTime":0,"deliveryLat":0,"deliveryLng":0,"clusterId":null,"address":{"id":"2abc8dcf-33d0-4f08-bd7a-b7a606fa4af2","address":"18, K.R Layout, Dollar Colony, 4th Phase, JP Nagar","lat":12.9052573,"lng":77.5841502,"orderId":"fbda1584-254e-4993-88d1-6be722639112"}},{"id":"3c0e9dbf-359b-4c16-86a0-eab73e24ccf4","productId":"SKU_144","name":"Vickie Ramos","status":"PENDING","awb":"62201852038","isDynamicPoint":false,"reachTime":0,"deliveryTime":0,"deliveryLat":0,"deliveryLng":0,"clusterId":null,"address":{"id":"9a1d0f49-2ad3-4f9f-b72a-645bbfb9a3e5","address":"6, Shakambari Nagar, 1st stage, JP Nagar, Bangalore","lat":12.9120799,"lng":77.5745235,"orderId":"3c0e9dbf-359b-4c16-86a0-eab73e24ccf4"}},{"id":"909117d8-cf52-4a29-8fb3-0ccba7b79e74","productId":"SKU_96","name":"Gerard Cardin","status":"PENDING","awb":"66193906105","isDynamicPoint":false,"reachTime":0,"deliveryTime":0,"deliveryLat":0,"deliveryLng":0,"clusterId":null,"address":{"id":"ccda37cc-850b-433e-8208-0bfc15403041","address":"Site 15, 15th Cross, 100 Feet Road, 4th Phase, JP Nagar, Bangalore","lat":12.9061345,"lng":77.5968288,"orderId":"909117d8-cf52-4a29-8fb3-0ccba7b79e74"}},{"id":"ae2e9cd6-cf10-45f2-8b44-1cefbe463475","productId":"SKU_95","name":"Jason Taylor","status":"PENDING","awb":"50570222462","isDynamicPoint":false,"reachTime":0,"deliveryTime":0,"deliveryLat":0,"deliveryLng":0,"clusterId":null,"address":{"id":"0f48cec6-acd8-44fe-afa8-62426009a266","address":"Someshwara Bhavan, RBI Layout, 7th Phase, Kothnur Main Road, JP Nagar, Bangalore","lat":12.8838109,"lng":77.5829501,"orderId":"ae2e9cd6-cf10-45f2-8b44-1cefbe463475"}},{"id":"eec7a101-6695-48bc-aa36-328aa80eb91f","productId":"SKU_59","name":"Angela Cowman","status":"PENDING","awb":"87207515803","isDynamicPoint":false,"reachTime":0,"deliveryTime":0,"deliveryLat":0,"deliveryLng":0,"clusterId":null,"address":{"id":"5186cbf7-fae3-41cd-ac7a-ba93a7393943","address":"18th Cross road, 5th Phase, JP Nagar, Bangalore","lat":12.9032116,"lng":77.5877971,"orderId":"eec7a101-6695-48bc-aa36-328aa80eb91f"}},{"id":"f259a94e-a47b-49ae-83fe-ce737a5178ac","productId":"SKU_103","name":"Martha Braun","status":"PENDING","awb":"60270106051","isDynamicPoint":false,"reachTime":0,"deliveryTime":0,"deliveryLat":0,"deliveryLng":0,"clusterId":null,"address":{"id":"6f0f1ec4-b542-49f1-ad0b-a962570bfd34","address":"296, Ground Floor, 5th Phase, 100 ft Outer Ring Road, JP Nagar, Bangalore","lat":12.906285,"lng":77.5874455,"orderId":"f259a94e-a47b-49ae-83fe-ce737a5178ac"}},{"id":"1bc06821-4c9c-41a4-ac54-b567c1b23ed3","productId":"SKU_92","name":"Daniel Moore","status":"PENDING","awb":"81028594970","isDynamicPoint":false,"reachTime":0,"deliveryTime":0,"deliveryLat":0,"deliveryLng":0,"clusterId":null,"address":{"id":"ebd3b41e-ba8c-40db-ab7d-9e72cfcb8de8","address":"57, 15th Cross Road, Outer Ring Road, Phase 6, JP Nagar, Bangalore","lat":12.9070991,"lng":77.5996462,"orderId":"1bc06821-4c9c-41a4-ac54-b567c1b23ed3"}},{"id":"5a086a80-9805-4c54-a0e8-313c38a4f3dd","productId":"SKU_82","name":"Kenneth Baker","status":"PENDING","awb":"42498449819","isDynamicPoint":false,"reachTime":0,"deliveryTime":0,"deliveryLat":0,"deliveryLng":0,"clusterId":null,"address":{"id":"1c852ea5-2178-4906-bd57-cadea122bd3f","address":"2318, 27th Main Road, 1st Sector, HSR, Bangalore","lat":12.9121594,"lng":77.6516733,"orderId":"5a086a80-9805-4c54-a0e8-313c38a4f3dd"}},{"id":"9c1822bb-9898-4e9c-8e40-eb8f7ea1a12a","productId":"SKU_29","name":"Mabel Covell","status":"PENDING","awb":"86868052143","isDynamicPoint":false,"reachTime":0,"deliveryTime":0,"deliveryLat":0,"deliveryLng":0,"clusterId":null,"address":{"id":"92268cc3-6092-4a83-9176-9c19e60f2825","address":"10/3, Shamanna Garden, 22nd Main Rd, Phase 5, JP Nagar, Bangalore","lat":12.9037401,"lng":77.5870418,"orderId":"9c1822bb-9898-4e9c-8e40-eb8f7ea1a12a"}},{"id":"44ea297b-5abd-410b-8a18-7a6ecd4cea5c","productId":"SKU_7","name":"Antonio Oliver","status":"PENDING","awb":"52273090335","isDynamicPoint":false,"reachTime":0,"deliveryTime":0,"deliveryLat":0,"deliveryLng":0,"clusterId":null,"address":{"id":"cf43a92a-7efc-4b5e-aee0-6bb09a68c817","address":"305, Anand NR Onyx, 15th Cross, 100 Feet Ring Road, 5th Phase Extension, JP Nagar, Bangalore","lat":12.906285,"lng":77.5874455,"orderId":"44ea297b-5abd-410b-8a18-7a6ecd4cea5c"}},{"id":"185fbbde-e952-4eed-b7b8-564c622de4a8","productId":"SKU_51","name":"Elijah Reno","status":"PENDING","awb":"69289578038","isDynamicPoint":false,"reachTime":0,"deliveryTime":0,"deliveryLat":0,"deliveryLng":0,"clusterId":null,"address":{"id":"2db2ec16-517a-47dd-89d5-0680ff5ac6d7","address":"Brigade Millenium Inside Indian Music Experience Museum, JP Nagar, Bangalore, Bengaluru","lat":12.8917987,"lng":77.58368610000001,"orderId":"185fbbde-e952-4eed-b7b8-564c622de4a8"}},{"id":"42d2d05a-4dce-475e-a958-7ee20e08c182","productId":"SKU_59","name":"Teresa Ford","status":"PENDING","awb":"65307617155","isDynamicPoint":false,"reachTime":0,"deliveryTime":0,"deliveryLat":0,"deliveryLng":0,"clusterId":null,"address":{"id":"c4f20bb1-46c8-414c-adaf-642de3f210cc","address":"47/1, 9th Main,1st Cross, Miniforest, Phase 3, JP Nagar, Bangalore","lat":12.916563,"lng":77.583568,"orderId":"42d2d05a-4dce-475e-a958-7ee20e08c182"}},{"id":"79070d00-aad0-4200-a452-9424f1a2ff5a","productId":"SKU_18","name":"Thomas Lyons","status":"PENDING","awb":"92874070081","isDynamicPoint":false,"reachTime":0,"deliveryTime":0,"deliveryLat":0,"deliveryLng":0,"clusterId":null,"address":{"id":"29593cd4-eb4c-4d05-8293-cafc86d717d8","address":"311, 15th Cross, 5th Phase, JP Nagar, Bangalore","lat":12.9061386,"lng":77.5929986,"orderId":"79070d00-aad0-4200-a452-9424f1a2ff5a"}},{"id":"3a00d9c5-df4d-47ad-a972-e7afd18266d2","productId":"SKU_141","name":"Jesse Chan","status":"PENDING","awb":"27632908686","isDynamicPoint":false,"reachTime":0,"deliveryTime":0,"deliveryLat":0,"deliveryLng":0,"clusterId":null,"address":{"id":"4206d40c-550e-48c5-8ac2-4339af7bf4fb","address":"21, 24th Main Road, 6th Phase, JP Nagar, Bangalore","lat":12.9029512,"lng":77.58562049999999,"orderId":"3a00d9c5-df4d-47ad-a972-e7afd18266d2"}},{"id":"07c4f582-fe78-4139-b797-11ee01dad442","productId":"SKU_56","name":"Rebecca Vanos","status":"PENDING","awb":"18834198685","isDynamicPoint":false,"reachTime":0,"deliveryTime":0,"deliveryLat":0,"deliveryLng":0,"clusterId":null,"address":{"id":"d500ef87-adc2-455a-bca4-be005621f061","address":"204, 4th Cross, KSRTC Layout, 2nd Phase, JP Nagar, Bangalore","lat":12.9127245,"lng":77.5958453,"orderId":"07c4f582-fe78-4139-b797-11ee01dad442"}},{"id":"2fac6292-cacf-4719-ac56-17646e40aaf4","productId":"SKU_147","name":"Richard Book","status":"PENDING","awb":"60730226124","isDynamicPoint":false,"reachTime":0,"deliveryTime":0,"deliveryLat":0,"deliveryLng":0,"clusterId":null,"address":{"id":"7fd81bbf-714c-46e1-b774-865c441610d3","address":"104/1, 21st Main Road, 6th Cross Road, R K Colony, JP Nagar 2nd Phase, Bangalore","lat":12.9123174,"lng":77.58784109999999,"orderId":"2fac6292-cacf-4719-ac56-17646e40aaf4"}},{"id":"0ed7ed03-6e02-4a4c-ab71-14b050c081e6","productId":"SKU_98","name":"Mildred Richards","status":"PENDING","awb":"73908465584","isDynamicPoint":false,"reachTime":0,"deliveryTime":0,"deliveryLat":0,"deliveryLng":0,"clusterId":null,"address":{"id":"33d6a4a9-4902-4db5-a630-e2b2e97d7193","address":"44-45, Terrace Floor, 24th Main Road, 7th phase, JP Nagar, Bangalore","lat":12.8982804,"lng":77.5858544,"orderId":"0ed7ed03-6e02-4a4c-ab71-14b050c081e6"}},{"id":"52185aba-b141-4775-b7ab-204a0343f238","productId":"SKU_70","name":"Terresa Breau","status":"PENDING","awb":"41474085570","isDynamicPoint":false,"reachTime":0,"deliveryTime":0,"deliveryLat":0,"deliveryLng":0,"clusterId":null,"address":{"id":"4dde9c7a-5e4d-4b99-8e16-791b1b177925","address":"2331, 17th Cross, 24th Main, HSR, Bangalore","lat":12.9120766,"lng":77.6494981,"orderId":"52185aba-b141-4775-b7ab-204a0343f238"}},{"id":"66ed7fe5-ce79-4a09-b3f7-8ef9621314ef","productId":"SKU_136","name":"Jenna Reed","status":"PENDING","awb":"30262250302","isDynamicPoint":false,"reachTime":0,"deliveryTime":0,"deliveryLat":0,"deliveryLng":0,"clusterId":null,"address":{"id":"badb06dd-4742-4146-b8ac-91716504a209","address":"119/19, Ground Floor, 10th Cross, Venkateshwara Layout, SG Palya, HSR, Bangalore","lat":12.9481544,"lng":77.5971734,"orderId":"66ed7fe5-ce79-4a09-b3f7-8ef9621314ef"}},{"id":"57ae97da-f7b3-4a57-909d-d9ee935d0c95","productId":"SKU_93","name":"Carol Pettway","status":"PENDING","awb":"74962568491","isDynamicPoint":false,"reachTime":0,"deliveryTime":0,"deliveryLat":0,"deliveryLng":0,"clusterId":null,"address":{"id":"38088184-4e78-44bd-8a9d-407169715e56","address":"Shop 5, LNR Building, Harlur Road, HSR, Bangalore","lat":12.9069779,"lng":77.6634925,"orderId":"57ae97da-f7b3-4a57-909d-d9ee935d0c95"}},{"id":"84d8b04e-4244-42b9-877f-da76ba24fe48","productId":"SKU_137","name":"Karen Yuen","status":"PENDING","awb":"38777880457","isDynamicPoint":false,"reachTime":0,"deliveryTime":0,"deliveryLat":0,"deliveryLng":0,"clusterId":null,"address":{"id":"97b5a05b-eedc-433d-a562-99f4344b8400","address":"1260 SY 35/4 SJR Tower's, 24th Main Puttanhalli, 7th Phase, JP Nagar Bangalore","lat":12.9003937,"lng":77.5858415,"orderId":"84d8b04e-4244-42b9-877f-da76ba24fe48"}},{"id":"87a9079c-3ca2-44eb-9c46-f964cf093c95","productId":"SKU_28","name":"Leticia Coleman","status":"PENDING","awb":"13385067871","isDynamicPoint":false,"reachTime":0,"deliveryTime":0,"deliveryLat":0,"deliveryLng":0,"clusterId":null,"address":{"id":"8d015322-f458-466d-afbf-db123fd8938e","address":"5th A Cross, Lakshmi Complex, Manjunatha Colony, Near RV Dental College, 2nd phase, JP Nagar, Bangalore","lat":12.9113897,"lng":77.584992,"orderId":"87a9079c-3ca2-44eb-9c46-f964cf093c95"}},{"id":"76f499d3-7239-4cf6-93e3-3598a65222b0","productId":"SKU_45","name":"Brian Glass","status":"PENDING","awb":"98072567575","isDynamicPoint":false,"reachTime":0,"deliveryTime":0,"deliveryLat":0,"deliveryLng":0,"clusterId":null,"address":{"id":"f21fd836-be9a-40ef-8b1a-9cb86b991e50","address":"5th Cross Road, Dollar Layout, 3rd Phase, JP Nagar, Bangalore","lat":12.9066907,"lng":77.602318,"orderId":"76f499d3-7239-4cf6-93e3-3598a65222b0"}},{"id":"813836ce-ff12-4556-afea-3e9f3b071343","productId":"SKU_123","name":"Edward Leon","status":"PENDING","awb":"62376246282","isDynamicPoint":false,"reachTime":0,"deliveryTime":0,"deliveryLat":0,"deliveryLng":0,"clusterId":null,"address":{"id":"fabb6954-d964-4fda-ad66-e9a99afc12b0","address":"1260, SY 35/4, SJR Tower's, 7th Phase, 24th Main Puttanhalli, JP Nagar, Bangalore","lat":12.9156577,"lng":77.5994159,"orderId":"813836ce-ff12-4556-afea-3e9f3b071343"}},{"id":"4705671f-4b56-4b1a-8e9f-357b1abe4965","productId":"SKU_142","name":"Marshall Quinton","status":"PENDING","awb":"98967476662","isDynamicPoint":false,"reachTime":0,"deliveryTime":0,"deliveryLat":0,"deliveryLng":0,"clusterId":null,"address":{"id":"dd58cabd-197b-4af0-8129-f47e0b713fe8","address":"2733, 16th Cross, 27th Main, Opposite NIFT, Sector 1, HSR Layout, Bangalore, HSR, Bangalore","lat":12.912702,"lng":77.652479,"orderId":"4705671f-4b56-4b1a-8e9f-357b1abe4965"}},{"id":"cd465d76-7470-4bb4-a8a2-37b2528e13c2","productId":"SKU_109","name":"Virginia Sauer","status":"PENDING","awb":"81926175607","isDynamicPoint":false,"reachTime":0,"deliveryTime":0,"deliveryLat":0,"deliveryLng":0,"clusterId":null,"address":{"id":"3ad411c0-83aa-404a-aaae-b5e44fb9dc8a","address":"Cross Roads Inn, 827, Near RV Dental College Compound, 24th Main, 12th Cross, JP Nagar, Bangalore","lat":12.9085621,"lng":77.5859526,"orderId":"cd465d76-7470-4bb4-a8a2-37b2528e13c2"}},{"id":"00de2238-362b-4123-b090-04bb86f180ea","productId":"SKU_123","name":"Lucille Keirstead","status":"PENDING","awb":"14699928469","isDynamicPoint":false,"reachTime":0,"deliveryTime":0,"deliveryLat":0,"deliveryLng":0,"clusterId":null,"address":{"id":"b2cca95c-f9f1-43a8-9b57-a67192d4917f","address":"569/4, Sector 1, HSR, Bangalore","lat":12.9257303,"lng":77.6651649,"orderId":"00de2238-362b-4123-b090-04bb86f180ea"}},{"id":"930bf795-c8c1-4d1e-8752-2393188cc3c7","productId":"SKU_91","name":"Daniel Tremper","status":"PENDING","awb":"95782788535","isDynamicPoint":false,"reachTime":0,"deliveryTime":0,"deliveryLat":0,"deliveryLng":0,"clusterId":null,"address":{"id":"19d26e61-17b6-4004-869a-d2cf265456be","address":"Shop 1, 129, 24th Main, 5th Phase, JP Nagar, Bangalore","lat":12.9038753,"lng":77.58590679999999,"orderId":"930bf795-c8c1-4d1e-8752-2393188cc3c7"}},{"id":"7ae30fb1-9d13-4ec1-ba17-b4767dfd7f01","productId":"SKU_130","name":"Antoine Robertson","status":"PENDING","awb":"28090773455","isDynamicPoint":false,"reachTime":0,"deliveryTime":0,"deliveryLat":0,"deliveryLng":0,"clusterId":null,"address":{"id":"47fd43b5-b318-4d12-90a2-e2fd7be7690d","address":"Big Bazzar Building, JP Nagar, Bangalore","lat":12.8872242,"lng":77.58182599999999,"orderId":"7ae30fb1-9d13-4ec1-ba17-b4767dfd7f01"}},{"id":"b2ffe2b9-fff0-4c5e-8c66-b74e62205e32","productId":"SKU_22","name":"James Riley","status":"PENDING","awb":"61686659900","isDynamicPoint":false,"reachTime":0,"deliveryTime":0,"deliveryLat":0,"deliveryLng":0,"clusterId":null,"address":{"id":"fc9505b8-4898-4606-a862-c45971c3b1f0","address":"46/A, 1st Main, 3rd Phase, JP Nagar, Bangalore","lat":12.9112119,"lng":77.599166,"orderId":"b2ffe2b9-fff0-4c5e-8c66-b74e62205e32"}},{"id":"c1305081-78b6-491e-8d9a-605bdea17c10","productId":"SKU_76","name":"Kathleen Cantrell","status":"PENDING","awb":"21104565365","isDynamicPoint":false,"reachTime":0,"deliveryTime":0,"deliveryLat":0,"deliveryLng":0,"clusterId":null,"address":{"id":"9f5f8540-4090-4b51-9aba-ddae3c4a73ce","address":"13th Cross, 24th Main, Opposite Assetz Apartment, 1st Sector, HSR, Bangalore","lat":12.91615,"lng":77.6488823,"orderId":"c1305081-78b6-491e-8d9a-605bdea17c10"}},{"id":"bd3b3818-6b22-4bf2-a5dc-6d0e6d021a79","productId":"SKU_83","name":"Sam Vest","status":"PENDING","awb":"96594637899","isDynamicPoint":false,"reachTime":0,"deliveryTime":0,"deliveryLat":0,"deliveryLng":0,"clusterId":null,"address":{"id":"e9c933b0-1415-45d4-8f51-0e4108e8e64a","address":"1260 SY 35/4 SJR Tower's, JP Nagar 7th Phase, 24th Main Puttanhalli, JP Nagar, Bangalore","lat":12.9003937,"lng":77.5858415,"orderId":"bd3b3818-6b22-4bf2-a5dc-6d0e6d021a79"}},{"id":"1cfd1b08-699f-4d99-b536-83187d198d23","productId":"SKU_74","name":"Daren Devit","status":"PENDING","awb":"82980897770","isDynamicPoint":false,"reachTime":0,"deliveryTime":0,"deliveryLat":0,"deliveryLng":0,"clusterId":null,"address":{"id":"7273e0ee-4b0e-42e2-b7cd-16a6e4511899","address":"Amoolya, 1st Floor, 24th Main, 6th Phase, JP Nagar, Bangalore","lat":12.9088826,"lng":77.5857567,"orderId":"1cfd1b08-699f-4d99-b536-83187d198d23"}},{"id":"8f85325b-cb75-4f27-9246-118ca71b88b4","productId":"SKU_42","name":"David Webber","status":"PENDING","awb":"89394948450","isDynamicPoint":false,"reachTime":0,"deliveryTime":0,"deliveryLat":0,"deliveryLng":0,"clusterId":null,"address":{"id":"adbf2f23-480b-403b-9f93-50465608d8be","address":"2724, 31st Main, 17th Cross, HSR, Bangalore","lat":12.9126877,"lng":77.6532769,"orderId":"8f85325b-cb75-4f27-9246-118ca71b88b4"}},{"id":"db18e091-865a-4ed1-a565-af22c404f46f","productId":"SKU_15","name":"Louise Lynch","status":"PENDING","awb":"15743308603","isDynamicPoint":false,"reachTime":0,"deliveryTime":0,"deliveryLat":0,"deliveryLng":0,"clusterId":null,"address":{"id":"11179c99-ade2-4c6f-84ec-474f857c2539","address":"1260, SY 35/4, SJR Towers, 24th Main Puttanhalli, 7th Phase, JP Nagar, Bangalore","lat":12.9156577,"lng":77.5994159,"orderId":"db18e091-865a-4ed1-a565-af22c404f46f"}},{"id":"d1797a23-0b4c-4b1d-bc67-97ae5947ea14","productId":"SKU_38","name":"Anna Kelly","status":"PENDING","awb":"76031744666","isDynamicPoint":false,"reachTime":0,"deliveryTime":0,"deliveryLat":0,"deliveryLng":0,"clusterId":null,"address":{"id":"f0ccd851-d54e-4033-ae57-20df41e67bd2","address":"281, 2nd Floor, 15th Cross, 5th Phase, JP Nagar, Bangalore","lat":12.9063958,"lng":77.5886106,"orderId":"d1797a23-0b4c-4b1d-bc67-97ae5947ea14"}},{"id":"de2cfd85-4597-4099-b9a6-aabb785fbd49","productId":"SKU_40","name":"Freda Beauchamp","status":"PENDING","awb":"24549099395","isDynamicPoint":false,"reachTime":0,"deliveryTime":0,"deliveryLat":0,"deliveryLng":0,"clusterId":null,"address":{"id":"ea259cc0-faa7-4087-834a-a9f4c88a6a36","address":"JP Nagar, Phase 7, Bangalore","lat":12.8890015,"lng":77.573385,"orderId":"de2cfd85-4597-4099-b9a6-aabb785fbd49"}},{"id":"8552e0f5-1cd3-434c-8a13-3e53a1dab7e6","productId":"SKU_9","name":"William Wilson","status":"PENDING","awb":"95752660397","isDynamicPoint":false,"reachTime":0,"deliveryTime":0,"deliveryLat":0,"deliveryLng":0,"clusterId":null,"address":{"id":"fa487ddf-6368-41df-b5ca-1be638feba8c","address":"1554, Ground Floor, 19th Main, Sector 1, HSR, Bangalore","lat":12.9136257,"lng":77.6446549,"orderId":"8552e0f5-1cd3-434c-8a13-3e53a1dab7e6"}},{"id":"96c62d4a-13f0-4e20-b57e-83894b629f48","productId":"SKU_44","name":"Miguel Evanoff","status":"PENDING","awb":"32162999926","isDynamicPoint":false,"reachTime":0,"deliveryTime":0,"deliveryLat":0,"deliveryLng":0,"clusterId":null,"address":{"id":"d4260e3f-12fd-4b0a-bcfd-34b65496386b","address":"The HHI Select Bengaluru Hotel, 686, 15th Cross, Ring Road, 2nd Phase, JP Nagar, Bangalore","lat":12.9065794,"lng":77.5929269,"orderId":"96c62d4a-13f0-4e20-b57e-83894b629f48"}},{"id":"26d3a654-ba8a-4f7e-9515-d20355c7c83f","productId":"SKU_9","name":"Ronnie Cameron","status":"PENDING","awb":"49180403091","isDynamicPoint":false,"reachTime":0,"deliveryTime":0,"deliveryLat":0,"deliveryLng":0,"clusterId":null,"address":{"id":"19f89d39-5099-47c8-bcb0-386c839e4be2","address":"Amoolya, 1st Floor, 24th Main, 6th Phase, JP Nagar, Bangalore","lat":12.9088826,"lng":77.5857567,"orderId":"26d3a654-ba8a-4f7e-9515-d20355c7c83f"}},{"id":"50255855-e329-48cb-b9cd-e9a976fc5975","productId":"SKU_103","name":"Brenda Berry","status":"PENDING","awb":"67841310375","isDynamicPoint":false,"reachTime":0,"deliveryTime":0,"deliveryLat":0,"deliveryLng":0,"clusterId":null,"address":{"id":"77bbabff-b926-4dc9-96e6-72fd14f6ad82","address":"Quality Inn - Shravanthi, 60, 13th Cross, 2nd Main, 3rd Phase, JP Nagar, Bangalore","lat":12.907355,"lng":77.5985151,"orderId":"50255855-e329-48cb-b9cd-e9a976fc5975"}},{"id":"60986887-8bf2-4b36-a34a-43b7fb9123de","productId":"SKU_141","name":"Michael Parenteau","status":"PENDING","awb":"34763837898","isDynamicPoint":false,"reachTime":0,"deliveryTime":0,"deliveryLat":0,"deliveryLng":0,"clusterId":null,"address":{"id":"0a88b493-028f-45d2-9e99-2e0f71a178a7","address":"1260 SY 35/4 SJR Tower's, JP Nagar 7th Phase, 24th Main Puttanhalli, JP Nagar, Bangalore","lat":12.9003937,"lng":77.5858415,"orderId":"60986887-8bf2-4b36-a34a-43b7fb9123de"}},{"id":"f9649a74-b34e-449f-91d6-489a1fe36fb7","productId":"SKU_8","name":"Katrina Hilderbrandt","status":"PENDING","awb":"52917061849","isDynamicPoint":false,"reachTime":0,"deliveryTime":0,"deliveryLat":0,"deliveryLng":0,"clusterId":null,"address":{"id":"b418d13c-22f8-4289-bfce-c414c753a427","address":"27th Main road, Sriven Teesta, Near Raymond?s Showroom HSR, Bangalore","lat":12.9121181,"lng":77.6445548,"orderId":"f9649a74-b34e-449f-91d6-489a1fe36fb7"}},{"id":"68151793-3d51-4eb9-96df-82bbb8dff4d1","productId":"SKU_143","name":"Doris Floyd","status":"PENDING","awb":"75423501902","isDynamicPoint":false,"reachTime":0,"deliveryTime":0,"deliveryLat":0,"deliveryLng":0,"clusterId":null,"address":{"id":"c8747c84-924f-487f-810c-8a8160e3a22b","address":"1260, SY 35/4, SJR Towers, 24th Main Puttanhalli, 7th Phase, JP Nagar, Bangalore","lat":12.9156577,"lng":77.5994159,"orderId":"68151793-3d51-4eb9-96df-82bbb8dff4d1"}},{"id":"0f6f48f7-f195-4576-b8e6-9bfe7581fe24","productId":"SKU_31","name":"Jon Hall","status":"PENDING","awb":"73350066683","isDynamicPoint":false,"reachTime":0,"deliveryTime":0,"deliveryLat":0,"deliveryLng":0,"clusterId":null,"address":{"id":"53ef3ec0-3454-490e-85b7-8d9cedf56de0","address":"1, 24th Main Rd, 1st Phase, Girinagar, KR Layout, Muneshwara T-Block, JP Nagar, Bangalore","lat":12.904529,"lng":77.5855601,"orderId":"0f6f48f7-f195-4576-b8e6-9bfe7581fe24"}},{"id":"6c11af8c-ccc0-4227-b58a-0d7db2fabf00","productId":"SKU_144","name":"George Rivas","status":"PENDING","awb":"33178947349","isDynamicPoint":false,"reachTime":0,"deliveryTime":0,"deliveryLat":0,"deliveryLng":0,"clusterId":null,"address":{"id":"40c105e0-c16b-4650-a86c-9b0a9e954ed7","address":"67, 15th Cross, 6th B Main, JP Nagar, Bangalore","lat":12.906383,"lng":77.596713,"orderId":"6c11af8c-ccc0-4227-b58a-0d7db2fabf00"}},{"id":"2f06a081-f2ae-43a3-835e-20af50877efc","productId":"SKU_91","name":"Bonnie Heath","status":"PENDING","awb":"30449400919","isDynamicPoint":false,"reachTime":0,"deliveryTime":0,"deliveryLat":0,"deliveryLng":0,"clusterId":null,"address":{"id":"c679b586-2d06-4858-b1a1-6940b1441712","address":"7th Cross, Sector 1, HSR, Bangalore","lat":12.9194511,"lng":77.6487443,"orderId":"2f06a081-f2ae-43a3-835e-20af50877efc"}},{"id":"111b5d02-fe34-4dac-8c18-6599a3c3f2c5","productId":"SKU_47","name":"Tara Allen","status":"PENDING","awb":"54163870135","isDynamicPoint":false,"reachTime":0,"deliveryTime":0,"deliveryLat":0,"deliveryLng":0,"clusterId":null,"address":{"id":"f4564937-3b57-4e50-aa75-cd7385140a79","address":"1554, Ground Floor, 19th Main, Sector - 1, HSR, Bangalore","lat":12.9136257,"lng":77.6446549,"orderId":"111b5d02-fe34-4dac-8c18-6599a3c3f2c5"}},{"id":"3e3e9716-d4e6-4573-91e4-3c5b2985d038","productId":"SKU_65","name":"Nathan Merkel","status":"PENDING","awb":"65216540873","isDynamicPoint":false,"reachTime":0,"deliveryTime":0,"deliveryLat":0,"deliveryLng":0,"clusterId":null,"address":{"id":"46a38f3d-a787-441c-972f-c3cb0491fe52","address":"15, 7th Cross, Near Mother Teresa School, ITI Layout, Hosapalya Main Road, HSR, Bangalore","lat":12.8921504,"lng":77.6282442,"orderId":"3e3e9716-d4e6-4573-91e4-3c5b2985d038"}},{"id":"91036172-7dc9-4f4d-9801-ae152ff532ba","productId":"SKU_125","name":"Tim Sokol","status":"PENDING","awb":"50581824353","isDynamicPoint":false,"reachTime":0,"deliveryTime":0,"deliveryLat":0,"deliveryLng":0,"clusterId":null,"address":{"id":"d7776b67-f014-4fa2-aa51-20c015c2ed13","address":"724, 3rd Floor, RBI Layout, Rini Pearl, Opposite E.K. Retail, 7th Phase, JP Nagar, Bangalore","lat":12.8917914,"lng":77.577754,"orderId":"91036172-7dc9-4f4d-9801-ae152ff532ba"}},{"id":"119134f5-9cdc-4569-bec6-f333938ec030","productId":"SKU_23","name":"Cora Massart","status":"PENDING","awb":"49726345575","isDynamicPoint":false,"reachTime":0,"deliveryTime":0,"deliveryLat":0,"deliveryLng":0,"clusterId":null,"address":{"id":"3eb91ed5-08f1-48bd-92bf-9cbd4cb6584c","address":"1, 24th Main Rd, 1st Phase, Girinagar, KR Layout, Muneshwara T-Block, JP Nagar, Bangalore","lat":12.904529,"lng":77.5855601,"orderId":"119134f5-9cdc-4569-bec6-f333938ec030"}}]}