{"noOfOrders":164,"noOfRiders":20,"warehouseLocation":{"lat":12.971599,"lng":77.638725},"consignments":[{"id":"00f71f0d-423e-4ef3-85c2-fb1adee313e0","productId":"SKU_10","name":"Charles Albrecht","status":"PENDING","awb":"18924249557","isDynamicPoint":false,"reachTime":0,"deliveryTime":0,"deliveryLat":0,"deliveryLng":0,"clusterId":null,"address":{"id":"7fde27d4-9a4a-4efc-93bd-2ac2be2a4423","address":"1st Floor, NTR Royal Plaza, Outer Ring Road, Marathahalli, Bangalore","lat":12.949365,"lng":77.6990172,"orderId":"00f71f0d-423e-4ef3-85c2-fb1adee313e0"}},{"id":"d8e86602-97e0-4973-9e64-df0de4ffca58","productId":"SKU_28","name":"Marissa Coram","status":"PENDING","awb":"91311238475","isDynamicPoint":false,"reachTime":0,"deliveryTime":0,"deliveryLat":0,"deliveryLng":0,"clusterId":null,"address":{"id":"02726c43-addf-47bd-a576-fb751ebdf72c","address":"2738, 27th Main, Sector 1, HSR, Bangalore","lat":12.912786,"lng":77.6520296,"orderId":"d8e86602-97e0-4973-9e64-df0de4ffca58"}},{"id":"f2646eec-26b2-420b-ac96-6592fc3de3da","productId":"SKU_83","name":"Sam Vest","status":"PENDING","awb":"96594637899","isDynamicPoint":false,"reachTime":0,"deliveryTime":0,"deliveryLat":0,"deliveryLng":0,"clusterId":null,"address":{"id":"292c96d0-7e50-43f8-a2c8-d079d4b45bed","address":"1260 SY 35/4 SJR Tower's, JP Nagar 7th Phase, 24th Main Puttanhalli, JP Nagar, Bangalore","lat":12.9003937,"lng":77.5858415,"orderId":"f2646eec-26b2-420b-ac96-6592fc3de3da"}},{"id":"78f0fc2a-9e86-4c4c-bc5a-01b96f2d0217","productId":"SKU_123","name":"Trudy Moore","status":"PENDING","awb":"38434272738","isDynamicPoint":false,"reachTime":0,"deliveryTime":0,"deliveryLat":0,"deliveryLng":0,"clusterId":null,"address":{"id":"bfa9ef0b-361d-412f-ac36-bf6384136115","address":"1088, 12th Main, HAL 2nd Stage, Off 100 Feet Road, Indiranagar, Bangalore","lat":12.9699142,"lng":77.6379417,"orderId":"78f0fc2a-9e86-4c4c-bc5a-01b96f2d0217"}},{"id":"986a9a19-f6e5-45e7-b42a-167214b24b08","productId":"SKU_116","name":"Peggy Heisler","status":"PENDING","awb":"84014569034","isDynamicPoint":false,"reachTime":0,"deliveryTime":0,"deliveryLat":0,"deliveryLng":0,"clusterId":null,"address":{"id":"0256cd55-ee56-44cf-890a-fbbfead00749","address":"Shop 2, Kodigahalli Main Road, KR Puram","lat":13.0077274,"lng":77.7342053,"orderId":"986a9a19-f6e5-45e7-b42a-167214b24b08"}},{"id":"a1e6b27f-d34a-4d8e-bb4c-c67218f251f7","productId":"SKU_8","name":"Katrina Hilderbrandt","status":"PENDING","awb":"52917061849","isDynamicPoint":false,"reachTime":0,"deliveryTime":0,"deliveryLat":0,"deliveryLng":0,"clusterId":null,"address":{"id":"875bb1be-4bbf-4c5c-b4e5-274d52f39a28","address":"27th Main road, Sriven Teesta, Near Raymond?s Showroom HSR, Bangalore","lat":12.9121181,"lng":77.6445548,"orderId":"a1e6b27f-d34a-4d8e-bb4c-c67218f251f7"}},{"id":"394fe485-ca0b-414d-be10-22517b341354","productId":"SKU_123","name":"Shana Davis","status":"PENDING","awb":"28764133976","isDynamicPoint":false,"reachTime":0,"deliveryTime":0,"deliveryLat":0,"deliveryLng":0,"clusterId":null,"address":{"id":"227ffbce-f2ef-40c8-9978-e683faff73c8","address":"1548, 3rd Floor,19th Main Road, Sector 1, Agara Village, HSR, Bangalore","lat":12.9189625,"lng":77.6449137,"orderId":"394fe485-ca0b-414d-be10-22517b341354"}},{"id":"e1da3f50-28ee-4670-8ba8-c6633550ed6b","productId":"SKU_43","name":"Deanna Castille","status":"PENDING","awb":"63269771781","isDynamicPoint":false,"reachTime":0,"deliveryTime":0,"deliveryLat":0,"deliveryLng":0,"clusterId":null,"address":{"id":"7a18b4bc-f7ef-474e-b590-7453b8b5d0ed","address":"39, Aiyaapanagar Main Road, Near Krishna Community Hall, KR Puram, Bangalore","lat":13.0031532,"lng":77.7126242,"orderId":"e1da3f50-28ee-4670-8ba8-c6633550ed6b"}},{"id":"8b1983a4-3e63-4f60-a335-1666260b13ba","productId":"SKU_34","name":"Angela Hindman","status":"PENDING","awb":"19365687734","isDynamicPoint":false,"reachTime":0,"deliveryTime":0,"deliveryLat":0,"deliveryLng":0,"clusterId":null,"address":{"id":"1004d79b-e520-4f18-919c-2f645576d4c2","address":"1554, Ground Floor, 19th Main, Sector - 1, HSR, Bangalore","lat":12.9136257,"lng":77.6446549,"orderId":"8b1983a4-3e63-4f60-a335-1666260b13ba"}},{"id":"e4f93e4c-652b-4c98-ada7-1abb48a8e37b","productId":"SKU_114","name":"Lelia Wooten","status":"PENDING","awb":"59997033261","isDynamicPoint":false,"reachTime":0,"deliveryTime":0,"deliveryLat":0,"deliveryLng":0,"clusterId":null,"address":{"id":"a2c7dfa5-aa1d-4ca1-9257-f9ec62064d3b","address":"1A, Church Street, Bangalore","lat":12.9740428,"lng":77.6071375,"orderId":"e4f93e4c-652b-4c98-ada7-1abb48a8e37b"}},{"id":"95d572af-4e2f-4cc7-a50c-ae23728f565b","productId":"SKU_113","name":"Daniel Marrin","status":"PENDING","awb":"94667742985","isDynamicPoint":false,"reachTime":0,"deliveryTime":0,"deliveryLat":0,"deliveryLng":0,"clusterId":null,"address":{"id":"8dec842f-9199-45d6-be7c-0e9923638fc7","address":"970, 12th Main, 5th Cross, Indiranagar, Bangalore","lat":12.969924,"lng":77.6388704,"orderId":"95d572af-4e2f-4cc7-a50c-ae23728f565b"}},{"id":"9e837b14-2f7c-4529-9a7e-f9ba71c4f493","productId":"SKU_112","name":"Anita Valdez","status":"PENDING","awb":"47015403024","isDynamicPoint":false,"reachTime":0,"deliveryTime":0,"deliveryLat":0,"deliveryLng":0,"clusterId":null,"address":{"id":"3d8f8b51-5a93-4ffe-948d-68ee945c976d","address":"Panathur Main Road, Kadubeesanahalli, Marathahalli, Bangalore","lat":12.9371558,"lng":77.7023374,"orderId":"9e837b14-2f7c-4529-9a7e-f9ba71c4f493"}},{"id":"b982edec-3f51-468e-a4dd-e18c74ed28c6","productId":"SKU_67","name":"Anthony Torres","status":"PENDING","awb":"19783328541","isDynamicPoint":false,"reachTime":0,"deliveryTime":0,"deliveryLat":0,"deliveryLng":0,"clusterId":null,"address":{"id":"0deef5b5-2431-4892-b0ff-42a780469c8c","address":"20/5, 1st Floor, Panathur Junction, Outer Ring Road, Marathahalli, Bangalore","lat":12.9399931,"lng":77.6962218,"orderId":"b982edec-3f51-468e-a4dd-e18c74ed28c6"}},{"id":"412c718e-4e0b-4225-9f58-2ee45cb79d73","productId":"SKU_110","name":"Kathleen Thompson","status":"PENDING","awb":"53198547414","isDynamicPoint":false,"reachTime":0,"deliveryTime":0,"deliveryLat":0,"deliveryLng":0,"clusterId":null,"address":{"id":"4ec18b60-8a43-4be8-805a-7c4b03c1f1d0","address":"181, 3rd Floor, Amar Jyothi Layout, Inner Ring Road, Domlur, Bangalore","lat":12.9539498,"lng":77.641089,"orderId":"412c718e-4e0b-4225-9f58-2ee45cb79d73"}},{"id":"8f3ab83f-5e98-4b92-8785-e4a0a0a22a69","productId":"SKU_144","name":"John Dutton","status":"PENDING","awb":"85830764356","isDynamicPoint":false,"reachTime":0,"deliveryTime":0,"deliveryLat":0,"deliveryLng":0,"clusterId":null,"address":{"id":"1e936813-3916-4ea0-8df5-1be4236d4b8e","address":"77/1, 24th Main, 2nd Phase, JP Nagar, Bangalore","lat":12.9158698,"lng":77.5860082,"orderId":"8f3ab83f-5e98-4b92-8785-e4a0a0a22a69"}},{"id":"2c75a2f8-6890-4ff3-a595-d16807e61349","productId":"SKU_9","name":"William Wilson","status":"PENDING","awb":"95752660397","isDynamicPoint":false,"reachTime":0,"deliveryTime":0,"deliveryLat":0,"deliveryLng":0,"clusterId":null,"address":{"id":"7f826593-10cb-414a-a659-054b9c0be3ca","address":"1554, Ground Floor, 19th Main, Sector 1, HSR, Bangalore","lat":12.9136257,"lng":77.6446549,"orderId":"2c75a2f8-6890-4ff3-a595-d16807e61349"}},{"id":"01343c9a-8e2c-40c5-ace7-839b04baeeaf","productId":"SKU_102","name":"James Allen","status":"PENDING","awb":"54016008457","isDynamicPoint":false,"reachTime":0,"deliveryTime":0,"deliveryLat":0,"deliveryLng":0,"clusterId":null,"address":{"id":"3edc1d98-30db-42ea-9f0d-60bbe6e944ec","address":"Ikon Building, Next to Sony Centre, Outer Ring Road, Marathahalli","lat":13.0274976,"lng":77.63458159999999,"orderId":"01343c9a-8e2c-40c5-ace7-839b04baeeaf"}},{"id":"1895e647-e93a-4b54-8191-85937a7820a9","productId":"SKU_113","name":"Linda Kurland","status":"PENDING","awb":"60104333056","isDynamicPoint":false,"reachTime":0,"deliveryTime":0,"deliveryLat":0,"deliveryLng":0,"clusterId":null,"address":{"id":"19c0e4e1-771f-4eb2-981c-7bb3c16acd0c","address":"954, 2nd Floor, 24th Main, 2nd Phase, Opposite LIC Building, JP Nagar, Bangalore","lat":12.9115788,"lng":77.5857133,"orderId":"1895e647-e93a-4b54-8191-85937a7820a9"}},{"id":"8174d5d7-8127-4f44-aff9-19554bfd61e6","productId":"SKU_1","name":"Twyla Nichols","status":"PENDING","awb":"98170732794","isDynamicPoint":false,"reachTime":0,"deliveryTime":0,"deliveryLat":0,"deliveryLng":0,"clusterId":null,"address":{"id":"798784f9-b6cd-4388-9ada-bd42d1702d10","address":"22, Amoeba Complex, Church Street, Bangalore","lat":12.9746781,"lng":77.60490279999999,"orderId":"8174d5d7-8127-4f44-aff9-19554bfd61e6"}},{"id":"f2d8e920-ea1b-4c86-994e-c56edc17e06b","productId":"SKU_65","name":"Nathan Merkel","status":"PENDING","awb":"65216540873","isDynamicPoint":false,"reachTime":0,"deliveryTime":0,"deliveryLat":0,"deliveryLng":0,"clusterId":null,"address":{"id":"1b1d66f4-709e-46de-8a25-1ff7c5d289bd","address":"15, 7th Cross, Near Mother Teresa School, ITI Layout, Hosapalya Main Road, HSR, Bangalore","lat":12.8921504,"lng":77.6282442,"orderId":"f2d8e920-ea1b-4c86-994e-c56edc17e06b"}},{"id":"b138137f-b318-4a95-af7a-65ecf013fe5c","productId":"SKU_134","name":"Johnny Runyan","status":"PENDING","awb":"66314622688","isDynamicPoint":false,"reachTime":0,"deliveryTime":0,"deliveryLat":0,"deliveryLng":0,"clusterId":null,"address":{"id":"c9f8a916-bd14-4fd5-b1bb-d08c039703cf","address":"99/4, Nataraja Layout, 7th Phase, JP Nagar, Bangalore","lat":12.8897963,"lng":77.58558289999999,"orderId":"b138137f-b318-4a95-af7a-65ecf013fe5c"}},{"id":"271cabc5-e0cc-49f0-89db-49786186765e","productId":"SKU_23","name":"Shawn Reeves","status":"PENDING","awb":"40661403008","isDynamicPoint":false,"reachTime":0,"deliveryTime":0,"deliveryLat":0,"deliveryLng":0,"clusterId":null,"address":{"id":"3f806476-f675-4077-b66e-795be90df758","address":"9/3, Prestige Pearl House, Museum Road, Church Street, Bangalore","lat":12.9735121,"lng":77.60334499999999,"orderId":"271cabc5-e0cc-49f0-89db-49786186765e"}},{"id":"3fab6c6f-8993-443d-aca2-7250ade0a59d","productId":"SKU_74","name":"Daren Devit","status":"PENDING","awb":"82980897770","isDynamicPoint":false,"reachTime":0,"deliveryTime":0,"deliveryLat":0,"deliveryLng":0,"clusterId":null,"address":{"id":"32f44123-f3d2-49cd-9b99-975a8255e4fa","address":"Amoolya, 1st Floor, 24th Main, 6th Phase, JP Nagar, Bangalore","lat":12.9088826,"lng":77.5857567,"orderId":"3fab6c6f-8993-443d-aca2-7250ade0a59d"}},{"id":"b90c5721-b3db-4bae-acfb-bb1f8c6e70a0","productId":"SKU_77","name":"Milton Wilson","status":"PENDING","awb":"50915970151","isDynamicPoint":false,"reachTime":0,"deliveryTime":0,"deliveryLat":0,"deliveryLng":0,"clusterId":null,"address":{"id":"69baba8f-3652-4bec-91ce-205fc0c4861f","address":"2628, 27th Main Road, 1st Sector, HSR Layout, Bangalore, HSR, Bangalore","lat":12.915173,"lng":77.65158799999999,"orderId":"b90c5721-b3db-4bae-acfb-bb1f8c6e70a0"}},{"id":"20c415e5-6c7b-40b2-a2c5-2cfbe36c5396","productId":"SKU_41","name":"Carma Haynie","status":"PENDING","awb":"29805721561","isDynamicPoint":false,"reachTime":0,"deliveryTime":0,"deliveryLat":0,"deliveryLng":0,"clusterId":null,"address":{"id":"7439375d-8089-4232-8c75-852acfca09f6","address":"1548, 19th Main, Outer Ring Road, Opposite BMTC Bus Depot, HSR, Bangalore","lat":12.9202927,"lng":77.6451278,"orderId":"20c415e5-6c7b-40b2-a2c5-2cfbe36c5396"}},{"id":"caa65d76-01e3-435c-96a6-5124aa181af2","productId":"SKU_3","name":"Bobbie Scarborough","status":"PENDING","awb":"60841023934","isDynamicPoint":false,"reachTime":0,"deliveryTime":0,"deliveryLat":0,"deliveryLng":0,"clusterId":null,"address":{"id":"3b7768d7-1ada-46a9-9057-fa1b65d20c13","address":"Srinivasa Nilayam, Site 3, Vidya Vikas School Road, Panathur New Extension, Kaverappa Layout, Marathahalli, Bangalore","lat":12.9351663,"lng":77.7008211,"orderId":"caa65d76-01e3-435c-96a6-5124aa181af2"}},{"id":"18c99fbd-7b1a-49e5-95ca-5ffa40ae7ae6","productId":"SKU_106","name":"Jesus Rodriguez","status":"PENDING","awb":"66471762239","isDynamicPoint":false,"reachTime":0,"deliveryTime":0,"deliveryLat":0,"deliveryLng":0,"clusterId":null,"address":{"id":"aa051728-faab-4957-a968-c7a8f133e197","address":"Shop 339, 27th Main Road, HSR Layout Sector 2, Bangalore","lat":12.9078089,"lng":77.651859,"orderId":"18c99fbd-7b1a-49e5-95ca-5ffa40ae7ae6"}},{"id":"9d3a8a84-bafc-425e-bcc8-6dfa37583819","productId":"SKU_103","name":"Brenda Berry","status":"PENDING","awb":"67841310375","isDynamicPoint":false,"reachTime":0,"deliveryTime":0,"deliveryLat":0,"deliveryLng":0,"clusterId":null,"address":{"id":"bb402c58-b43b-4a21-bcfc-5569d0e6b84f","address":"Quality Inn - Shravanthi, 60, 13th Cross, 2nd Main, 3rd Phase, JP Nagar, Bangalore","lat":12.907355,"lng":77.5985151,"orderId":"9d3a8a84-bafc-425e-bcc8-6dfa37583819"}},{"id":"05b7c4e3-0ace-442a-8278-9f40dbbd466f","productId":"SKU_149","name":"Delores Dupont","status":"PENDING","awb":"22660986194","isDynamicPoint":false,"reachTime":0,"deliveryTime":0,"deliveryLat":0,"deliveryLng":0,"clusterId":null,"address":{"id":"72841ab6-04b4-4d16-9cd7-6855e6fd503c","address":"20\\5, Panathur Junction, Outer Ring Road, Kadubeessanahalli, Marathahalli, Bangalore","lat":12.9399931,"lng":77.6962218,"orderId":"05b7c4e3-0ace-442a-8278-9f40dbbd466f"}},{"id":"a596cf99-9fc3-4140-8355-89b0fc52fc55","productId":"SKU_125","name":"Tim Sokol","status":"PENDING","awb":"50581824353","isDynamicPoint":false,"reachTime":0,"deliveryTime":0,"deliveryLat":0,"deliveryLng":0,"clusterId":null,"address":{"id":"0c797ab2-e78c-4296-8f3f-93cf86c2cb6d","address":"724, 3rd Floor, RBI Layout, Rini Pearl, Opposite E.K. Retail, 7th Phase, JP Nagar, Bangalore","lat":12.8917914,"lng":77.577754,"orderId":"a596cf99-9fc3-4140-8355-89b0fc52fc55"}},{"id":"7a0d4512-70f6-4432-b811-109c7b906e8a","productId":"SKU_103","name":"Benjamin Smith","status":"PENDING","awb":"46205581478","isDynamicPoint":false,"reachTime":0,"deliveryTime":0,"deliveryLat":0,"deliveryLng":0,"clusterId":null,"address":{"id":"a201835f-99c9-46b2-af32-f7fb79af3bf7","address":"2802, 27th Main Road, Sector 1, HSR, Bangalore","lat":12.9232993,"lng":77.6514254,"orderId":"7a0d4512-70f6-4432-b811-109c7b906e8a"}},{"id":"144834dd-6dbd-4df0-a5fc-363ff01c93e2","productId":"SKU_129","name":"Marie Harris","status":"PENDING","awb":"24526739732","isDynamicPoint":false,"reachTime":0,"deliveryTime":0,"deliveryLat":0,"deliveryLng":0,"clusterId":null,"address":{"id":"11e41730-558e-467a-9a42-3ce47f4f7356","address":"First Floor, Raja Ikon, Opposite Hotel Radisson Blu, Near Marathahali Bridge, Marathahalli, Bangalore","lat":12.9493355,"lng":77.6998041,"orderId":"144834dd-6dbd-4df0-a5fc-363ff01c93e2"}},{"id":"6f07decc-95e4-4a0a-a5cd-a59f0f728e82","productId":"SKU_130","name":"Antoine Robertson","status":"PENDING","awb":"28090773455","isDynamicPoint":false,"reachTime":0,"deliveryTime":0,"deliveryLat":0,"deliveryLng":0,"clusterId":null,"address":{"id":"74a97ca9-7c7d-4f9e-a899-46b9cc0ccd01","address":"Big Bazzar Building, JP Nagar, Bangalore","lat":12.8872242,"lng":77.58182599999999,"orderId":"6f07decc-95e4-4a0a-a5cd-a59f0f728e82"}},{"id":"7da3aa9d-4112-4232-8e02-e0d6545f9409","productId":"SKU_121","name":"Gary Simmons","status":"PENDING","awb":"70899793952","isDynamicPoint":false,"reachTime":0,"deliveryTime":0,"deliveryLat":0,"deliveryLng":0,"clusterId":null,"address":{"id":"c1cc48aa-3507-4581-afb6-ecb35726d497","address":"197/A, Double Road, 2nd Stage, Opposite HDFC Bank, Indiranagar, Bangalore","lat":12.9613059,"lng":77.6366221,"orderId":"7da3aa9d-4112-4232-8e02-e0d6545f9409"}},{"id":"b7529401-f0e3-4120-ba29-bca897938107","productId":"SKU_56","name":"Rebecca Vanos","status":"PENDING","awb":"18834198685","isDynamicPoint":false,"reachTime":0,"deliveryTime":0,"deliveryLat":0,"deliveryLng":0,"clusterId":null,"address":{"id":"d5b6f7ed-f5c8-42fc-8daf-3647118a81c9","address":"204, 4th Cross, KSRTC Layout, 2nd Phase, JP Nagar, Bangalore","lat":12.9127245,"lng":77.5958453,"orderId":"b7529401-f0e3-4120-ba29-bca897938107"}},{"id":"b273ba09-3eee-4082-8493-7b478ee32f01","productId":"SKU_150","name":"Terry Sanabria","status":"PENDING","awb":"98486281871","isDynamicPoint":false,"reachTime":0,"deliveryTime":0,"deliveryLat":0,"deliveryLng":0,"clusterId":null,"address":{"id":"aa8c3c72-4f31-4ea9-ade7-2c69ffe035be","address":"89/1, Tulasi Theater Road, Near SBR Palace, Marathahalli, Bangalore","lat":12.9499232,"lng":77.6976686,"orderId":"b273ba09-3eee-4082-8493-7b478ee32f01"}},{"id":"02754aef-ab58-4d2a-98e7-9f8b7be80f42","productId":"SKU_77","name":"Carrie Lumpkin","status":"PENDING","awb":"45180804640","isDynamicPoint":false,"reachTime":0,"deliveryTime":0,"deliveryLat":0,"deliveryLng":0,"clusterId":null,"address":{"id":"3f7f766d-248e-4d68-8b30-4025d5970d74","address":"127, Kadubisannhalli, Panathur Main Road, Marathahalli, Bangalore","lat":12.9324386,"lng":77.7081077,"orderId":"02754aef-ab58-4d2a-98e7-9f8b7be80f42"}},{"id":"9ce324e5-e8c4-4f25-adc4-72644e9b21cb","productId":"SKU_20","name":"Patricia Johnston","status":"PENDING","awb":"77604849495","isDynamicPoint":false,"reachTime":0,"deliveryTime":0,"deliveryLat":0,"deliveryLng":0,"clusterId":null,"address":{"id":"414ee09d-931b-45b2-85d1-50ec9da54939","address":"949, Ground Floor, HAL 2nd Stage, 12th Main, 100 feet Road, Indiranagar, Bangalore","lat":12.970274,"lng":77.641387,"orderId":"9ce324e5-e8c4-4f25-adc4-72644e9b21cb"}},{"id":"09b73b97-26f2-418d-b65f-7955bf6d2bf1","productId":"SKU_81","name":"Brian Isom","status":"PENDING","awb":"87898682349","isDynamicPoint":false,"reachTime":0,"deliveryTime":0,"deliveryLat":0,"deliveryLng":0,"clusterId":null,"address":{"id":"bda7d3dc-a783-49f2-bbfd-8112f028dcf2","address":"1543, 7th Cross, 19th Main, 1st Sector, HSR, Bangalore","lat":12.9196402,"lng":77.64447919999999,"orderId":"09b73b97-26f2-418d-b65f-7955bf6d2bf1"}},{"id":"a4a00ccd-1f28-41d4-b9d6-855317a581c5","productId":"SKU_78","name":"Catherine Wilson","status":"PENDING","awb":"41891691354","isDynamicPoint":false,"reachTime":0,"deliveryTime":0,"deliveryLat":0,"deliveryLng":0,"clusterId":null,"address":{"id":"0a896abd-8746-4aa2-8932-a330e0d4eadd","address":"18, Prakruthi Enclave, Panathur Road, Kadubeesanahalli, Marathahalli, Bangalore","lat":12.9367813,"lng":77.71045889999999,"orderId":"a4a00ccd-1f28-41d4-b9d6-855317a581c5"}},{"id":"d7eb69c5-8841-4236-a117-4dec60e949cf","productId":"SKU_119","name":"Daniel Miller","status":"PENDING","awb":"84618864102","isDynamicPoint":false,"reachTime":0,"deliveryTime":0,"deliveryLat":0,"deliveryLng":0,"clusterId":null,"address":{"id":"5576b221-8d3f-4edb-a491-591d0d05f40a","address":"2733, 16th Cross, 27th Main Road, Oppsite, NIFT College, 1st Sector, HSR Layout, Bangalore","lat":12.912702,"lng":77.652479,"orderId":"d7eb69c5-8841-4236-a117-4dec60e949cf"}},{"id":"b6a1a174-d3a8-4c5c-8070-705e75c42015","productId":"SKU_83","name":"Robert Olsen","status":"PENDING","awb":"44759282449","isDynamicPoint":false,"reachTime":0,"deliveryTime":0,"deliveryLat":0,"deliveryLng":0,"clusterId":null,"address":{"id":"afc12533-c437-437b-8fe8-bd5e1db90442","address":"36, Off MG Road, Church Street, Bangalore","lat":12.9739924,"lng":77.6124456,"orderId":"b6a1a174-d3a8-4c5c-8070-705e75c42015"}},{"id":"be24d7bf-1cc8-4f44-9419-9a7ef3090e58","productId":"SKU_52","name":"Thomas Lindquist","status":"PENDING","awb":"91477551055","isDynamicPoint":false,"reachTime":0,"deliveryTime":0,"deliveryLat":0,"deliveryLng":0,"clusterId":null,"address":{"id":"c120246e-a8a1-45e9-a741-239924aadf1e","address":"2nd Stage, Indiranagar, Bangalore","lat":12.9620069,"lng":77.63437669999999,"orderId":"be24d7bf-1cc8-4f44-9419-9a7ef3090e58"}},{"id":"68c4054b-7a3b-409b-8bd0-a37acf0fa3c9","productId":"SKU_113","name":"Normand Ashford","status":"PENDING","awb":"99015056791","isDynamicPoint":false,"reachTime":0,"deliveryTime":0,"deliveryLat":0,"deliveryLng":0,"clusterId":null,"address":{"id":"5348f9e3-701c-4edb-9961-d07a4f5d257c","address":"First Floor, 14, Church Street, Bangalore","lat":12.9752302,"lng":77.60346220000001,"orderId":"68c4054b-7a3b-409b-8bd0-a37acf0fa3c9"}},{"id":"463cd53f-5a8a-4f81-9be6-be0758f79318","productId":"SKU_76","name":"Kathleen Cantrell","status":"PENDING","awb":"21104565365","isDynamicPoint":false,"reachTime":0,"deliveryTime":0,"deliveryLat":0,"deliveryLng":0,"clusterId":null,"address":{"id":"cb89a73e-b441-4318-bf3b-3b7e38a43629","address":"13th Cross, 24th Main, Opposite Assetz Apartment, 1st Sector, HSR, Bangalore","lat":12.91615,"lng":77.6488823,"orderId":"463cd53f-5a8a-4f81-9be6-be0758f79318"}},{"id":"c9cfdd1e-048f-4db0-afad-2338d03258a5","productId":"SKU_144","name":"George Rivas","status":"PENDING","awb":"33178947349","isDynamicPoint":false,"reachTime":0,"deliveryTime":0,"deliveryLat":0,"deliveryLng":0,"clusterId":null,"address":{"id":"7aef6d22-0f24-4933-bfc0-c6bece9d2447","address":"67, 15th Cross, 6th B Main, JP Nagar, Bangalore","lat":12.906383,"lng":77.596713,"orderId":"c9cfdd1e-048f-4db0-afad-2338d03258a5"}},{"id":"9079c5d2-5278-492c-b640-8bf8529c5f3a","productId":"SKU_10","name":"George Garrett","status":"PENDING","awb":"76893410434","isDynamicPoint":false,"reachTime":0,"deliveryTime":0,"deliveryLat":0,"deliveryLng":0,"clusterId":null,"address":{"id":"3824925d-c049-4b55-8e69-4edaf305da39","address":"33, High Gates Hotel, Church Street, Bangalore","lat":12.975079,"lng":77.603155,"orderId":"9079c5d2-5278-492c-b640-8bf8529c5f3a"}},{"id":"636e2abf-0279-42e1-963d-f4cf7a60f61e","productId":"SKU_44","name":"Miguel Evanoff","status":"PENDING","awb":"32162999926","isDynamicPoint":false,"reachTime":0,"deliveryTime":0,"deliveryLat":0,"deliveryLng":0,"clusterId":null,"address":{"id":"4a48e764-2b24-48e2-b316-44de334a1db0","address":"The HHI Select Bengaluru Hotel, 686, 15th Cross, Ring Road, 2nd Phase, JP Nagar, Bangalore","lat":12.9065794,"lng":77.5929269,"orderId":"636e2abf-0279-42e1-963d-f4cf7a60f61e"}},{"id":"94ad724d-aa25-4280-b636-bcbb6c33db73","productId":"SKU_93","name":"Carol Pettway","status":"PENDING","awb":"74962568491","isDynamicPoint":false,"reachTime":0,"deliveryTime":0,"deliveryLat":0,"deliveryLng":0,"clusterId":null,"address":{"id":"98bd5e6a-a072-4f98-bb0e-76967bc39ca1","address":"Shop 5, LNR Building, Harlur Road, HSR, Bangalore","lat":12.9069779,"lng":77.6634925,"orderId":"94ad724d-aa25-4280-b636-bcbb6c33db73"}},{"id":"540915a4-f2c0-4c19-ad74-a8477aaf6ec8","productId":"SKU_113","name":"Emma Saulsberry","status":"PENDING","awb":"34889886477","isDynamicPoint":false,"reachTime":0,"deliveryTime":0,"deliveryLat":0,"deliveryLng":0,"clusterId":null,"address":{"id":"c23c7af2-fa09-4199-b31b-992959c6d031","address":"88, 3rd Floor, KBR Mall, Above More Mega Store, Outer Ring Road, Marathahalli, Bangalore","lat":12.9577656,"lng":77.7011709,"orderId":"540915a4-f2c0-4c19-ad74-a8477aaf6ec8"}},{"id":"348f884e-e062-4683-a4dc-ef62c9db8fbd","productId":"SKU_142","name":"Joseph Jones","status":"PENDING","awb":"55217454663","isDynamicPoint":false,"reachTime":0,"deliveryTime":0,"deliveryLat":0,"deliveryLng":0,"clusterId":null,"address":{"id":"ffa75ffe-6f81-424e-b298-e990f12dba56","address":"Srinivasan Towers, ESI Hospital Road, Off Double Road, Indiranagar, Bangalore","lat":12.9711854,"lng":77.63690989999999,"orderId":"348f884e-e062-4683-a4dc-ef62c9db8fbd"}},{"id":"c62684e6-e4b9-4d1e-8496-4ee075c2b2b5","productId":"SKU_29","name":"Mabel Covell","status":"PENDING","awb":"86868052143","isDynamicPoint":false,"reachTime":0,"deliveryTime":0,"deliveryLat":0,"deliveryLng":0,"clusterId":null,"address":{"id":"04c67aab-a145-4480-80f0-bd20ba132a0c","address":"10/3, Shamanna Garden, 22nd Main Rd, Phase 5, JP Nagar, Bangalore","lat":12.9037401,"lng":77.5870418,"orderId":"c62684e6-e4b9-4d1e-8496-4ee075c2b2b5"}},{"id":"91d9f31c-0ce5-42a3-a710-ab81e2c9714d","productId":"SKU_129","name":"Joseph Boyd","status":"PENDING","awb":"92941598133","isDynamicPoint":false,"reachTime":0,"deliveryTime":0,"deliveryLat":0,"deliveryLng":0,"clusterId":null,"address":{"id":"5d4ca13b-abab-4e1b-8de9-436b42e7b779","address":"Ground Floor, Sri Shiva Sai Complex, 13th Cross, 7th Main, 2nd Stage, HAL, Off Double Road, Indiranagar, Bangalore","lat":12.9786738,"lng":77.6362003,"orderId":"91d9f31c-0ce5-42a3-a710-ab81e2c9714d"}},{"id":"0464c7c0-123f-48ce-b80e-b05f0f2eb860","productId":"SKU_70","name":"Terresa Breau","status":"PENDING","awb":"41474085570","isDynamicPoint":false,"reachTime":0,"deliveryTime":0,"deliveryLat":0,"deliveryLng":0,"clusterId":null,"address":{"id":"20f5e235-159a-43c6-b3e7-7e8b3d156774","address":"2331, 17th Cross, 24th Main, HSR, Bangalore","lat":12.9120766,"lng":77.6494981,"orderId":"0464c7c0-123f-48ce-b80e-b05f0f2eb860"}},{"id":"c8e9ba1e-786c-4c6b-906e-1f7b474eac84","productId":"SKU_138","name":"Sarah Kardashian","status":"PENDING","awb":"72031214940","isDynamicPoint":false,"reachTime":0,"deliveryTime":0,"deliveryLat":0,"deliveryLng":0,"clusterId":null,"address":{"id":"9f9a54b0-b7ee-4bf2-bf68-6afb28deae7e","address":"8, 15th Main, 5th Phase, JP Nagar, Bangalore","lat":12.9033045,"lng":77.59173849999999,"orderId":"c8e9ba1e-786c-4c6b-906e-1f7b474eac84"}},{"id":"3cc8d3a0-95b2-4270-a70b-8ca37a34a19b","productId":"SKU_20","name":"Iva Bell","status":"PENDING","awb":"89040589151","isDynamicPoint":false,"reachTime":0,"deliveryTime":0,"deliveryLat":0,"deliveryLng":0,"clusterId":null,"address":{"id":"1665d91b-180e-48e9-aac0-504782539c70","address":"646, 12th Cross, 27th Main, Sector 1, HSR, Bangalore","lat":12.9163356,"lng":77.6521815,"orderId":"3cc8d3a0-95b2-4270-a70b-8ca37a34a19b"}},{"id":"4bd3be55-6f38-413f-a584-64902d117c9b","productId":"SKU_132","name":"Verna White","status":"PENDING","awb":"17432534499","isDynamicPoint":false,"reachTime":0,"deliveryTime":0,"deliveryLat":0,"deliveryLng":0,"clusterId":null,"address":{"id":"c3bcc6c3-9b4d-4472-a5f5-892be70b4c1d","address":"21/28, Radhakrishna Nilaya, Opp SEA Institutions, Ayappa Nagar, KR Puram, Bangalore","lat":12.9998189,"lng":77.7151616,"orderId":"4bd3be55-6f38-413f-a584-64902d117c9b"}},{"id":"ff582f9a-4b6a-422c-b9ad-05401533b65e","productId":"SKU_127","name":"Adam Shelquist","status":"PENDING","awb":"16213830807","isDynamicPoint":false,"reachTime":0,"deliveryTime":0,"deliveryLat":0,"deliveryLng":0,"clusterId":null,"address":{"id":"1b1595dd-4ffd-4282-8e60-e84cc3ce62bc","address":"Near Madurai Idly, SGR Dental College Road, CKB Layout, Chandra Layout, Marathahalli, Bengalore","lat":12.9499411,"lng":77.7006733,"orderId":"ff582f9a-4b6a-422c-b9ad-05401533b65e"}},{"id":"b68a99d0-f84b-4d75-9bbc-15f33bc8a895","productId":"SKU_9","name":"Joanna Evetts","status":"PENDING","awb":"21225161006","isDynamicPoint":false,"reachTime":0,"deliveryTime":0,"deliveryLat":0,"deliveryLng":0,"clusterId":null,"address":{"id":"b200a468-1404-4ad5-b686-734eb4798164","address":"712, 6th Cross, 5th Main, Off 80 Feet Road, Indiranagar, Bangalore","lat":12.9758079,"lng":77.6467327,"orderId":"b68a99d0-f84b-4d75-9bbc-15f33bc8a895"}},{"id":"65e80c0d-bf8a-4578-9d4d-3d6830fd3978","productId":"SKU_79","name":"Jon Villanueva","status":"PENDING","awb":"25842170396","isDynamicPoint":false,"reachTime":0,"deliveryTime":0,"deliveryLat":0,"deliveryLng":0,"clusterId":null,"address":{"id":"04a85772-d0a8-4213-b9ce-d28d5a39cdb6","address":"595, Ground Floor, Kundalahalli, Varthur Hobli Mahadevpura, Marathahalli, Bangalore","lat":12.955812,"lng":77.713686,"orderId":"65e80c0d-bf8a-4578-9d4d-3d6830fd3978"}},{"id":"67cbbc54-a0dd-4843-a359-9303a2166b8a","productId":"SKU_136","name":"Jenna Reed","status":"PENDING","awb":"30262250302","isDynamicPoint":false,"reachTime":0,"deliveryTime":0,"deliveryLat":0,"deliveryLng":0,"clusterId":null,"address":{"id":"d67a088a-7584-422f-a665-abf085171310","address":"119/19, Ground Floor, 10th Cross, Venkateshwara Layout, SG Palya, HSR, Bangalore","lat":12.9481544,"lng":77.5971734,"orderId":"67cbbc54-a0dd-4843-a359-9303a2166b8a"}},{"id":"52df902d-e561-4612-8162-d8498d418ddf","productId":"SKU_115","name":"Jose Williams","status":"PENDING","awb":"81655937477","isDynamicPoint":false,"reachTime":0,"deliveryTime":0,"deliveryLat":0,"deliveryLng":0,"clusterId":null,"address":{"id":"4b05c2c8-dc8b-4d8f-b1cb-8726e4711695","address":"1324, Double Road, 2nd Stage, Opposite Cauvery School, Indiranagar, Bangalore","lat":12.9750224,"lng":77.64493019999999,"orderId":"52df902d-e561-4612-8162-d8498d418ddf"}},{"id":"82843621-4f3f-484e-b9aa-9d568aca113e","productId":"SKU_2","name":"Charles Trembley","status":"PENDING","awb":"22921695090","isDynamicPoint":false,"reachTime":0,"deliveryTime":0,"deliveryLat":0,"deliveryLng":0,"clusterId":null,"address":{"id":"e170867f-448a-4e2e-86b9-929de1da5dc4","address":"1562, Sector 1, HSR, Bangalore","lat":12.9175337,"lng":77.65045719999999,"orderId":"82843621-4f3f-484e-b9aa-9d568aca113e"}},{"id":"82487554-d95b-4920-80db-5088588e395e","productId":"SKU_18","name":"Roger Bouldin","status":"PENDING","awb":"26105795180","isDynamicPoint":false,"reachTime":0,"deliveryTime":0,"deliveryLat":0,"deliveryLng":0,"clusterId":null,"address":{"id":"61efe231-29de-40b8-ba3a-bc8ac25cc3ef","address":"Shop 6, First Floor, Binnamangala First Stage, Indiranagar, Bangalore","lat":12.9809038,"lng":77.6398129,"orderId":"82487554-d95b-4920-80db-5088588e395e"}},{"id":"eae95204-d4f6-454d-a17e-f76414ac450a","productId":"SKU_147","name":"Richard Book","status":"PENDING","awb":"60730226124","isDynamicPoint":false,"reachTime":0,"deliveryTime":0,"deliveryLat":0,"deliveryLng":0,"clusterId":null,"address":{"id":"a8dc2073-9523-450c-9eac-746300dd803a","address":"104/1, 21st Main Road, 6th Cross Road, R K Colony, JP Nagar 2nd Phase, Bangalore","lat":12.9123174,"lng":77.58784109999999,"orderId":"eae95204-d4f6-454d-a17e-f76414ac450a"}},{"id":"5b96086e-6540-48d2-a901-e2a5b8e89aa4","productId":"SKU_23","name":"Cora Massart","status":"PENDING","awb":"49726345575","isDynamicPoint":false,"reachTime":0,"deliveryTime":0,"deliveryLat":0,"deliveryLng":0,"clusterId":null,"address":{"id":"9e62457e-b431-4660-9b24-965dd60acafa","address":"1, 24th Main Rd, 1st Phase, Girinagar, KR Layout, Muneshwara T-Block, JP Nagar, Bangalore","lat":12.904529,"lng":77.5855601,"orderId":"5b96086e-6540-48d2-a901-e2a5b8e89aa4"}},{"id":"4d4b8f78-ceed-41ff-bafe-d6b7feeb11d3","productId":"SKU_141","name":"Jesse Chan","status":"PENDING","awb":"27632908686","isDynamicPoint":false,"reachTime":0,"deliveryTime":0,"deliveryLat":0,"deliveryLng":0,"clusterId":null,"address":{"id":"ab5268aa-46f0-42d1-88bf-18380b9e6556","address":"21, 24th Main Road, 6th Phase, JP Nagar, Bangalore","lat":12.9029512,"lng":77.58562049999999,"orderId":"4d4b8f78-ceed-41ff-bafe-d6b7feeb11d3"}},{"id":"23572fe1-7c21-4a57-8699-3dccd7584938","productId":"SKU_77","name":"William Rivera","status":"PENDING","awb":"60615787248","isDynamicPoint":false,"reachTime":0,"deliveryTime":0,"deliveryLat":0,"deliveryLng":0,"clusterId":null,"address":{"id":"1f29f6d4-9e6f-4cc2-b362-ba0fdaa4af39","address":"99/2A, Kothnoor Main Road, Opposite RBI Layout Bus Stop, 7th Phase, JP Nagar, Bangalore","lat":12.8902416,"lng":77.58212879999999,"orderId":"23572fe1-7c21-4a57-8699-3dccd7584938"}},{"id":"8d03ebab-32b6-4d4c-beee-bde228200bf0","productId":"SKU_89","name":"Dana Farley","status":"PENDING","awb":"58089927559","isDynamicPoint":false,"reachTime":0,"deliveryTime":0,"deliveryLat":0,"deliveryLng":0,"clusterId":null,"address":{"id":"e6255b0b-0ce4-459d-b214-0209b67c3f08","address":"Basement 2064, Siri Iris Building, 24th Main, N.R.T.A Enclave, HSR, Bangalore","lat":12.9154599,"lng":77.6491032,"orderId":"8d03ebab-32b6-4d4c-beee-bde228200bf0"}},{"id":"c34fe1a7-125e-4d8a-8999-cd18ce742714","productId":"SKU_106","name":"Christopher Porter","status":"PENDING","awb":"50745703670","isDynamicPoint":false,"reachTime":0,"deliveryTime":0,"deliveryLat":0,"deliveryLng":0,"clusterId":null,"address":{"id":"34551695-6465-4b16-85f2-5919266ed5c3","address":"2610, 27th Main, Near NIFT, HSR Layout, HSR, Bangalore","lat":12.9129272,"lng":77.6516473,"orderId":"c34fe1a7-125e-4d8a-8999-cd18ce742714"}},{"id":"b7a594da-f996-4c41-9a70-63cd2f17e501","productId":"SKU_76","name":"Margie Galvan","status":"PENDING","awb":"40837739535","isDynamicPoint":false,"reachTime":0,"deliveryTime":0,"deliveryLat":0,"deliveryLng":0,"clusterId":null,"address":{"id":"6c89e7b2-166e-4c59-bab3-838e161d3b5f","address":"27th Main, Near NIFT, Sector-1, HSR, Bangalore","lat":12.9119893,"lng":77.651832,"orderId":"b7a594da-f996-4c41-9a70-63cd2f17e501"}},{"id":"a4911049-4dbf-4379-b2c6-06f540c00a63","productId":"SKU_72","name":"Stanley Davis","status":"PENDING","awb":"85725180680","isDynamicPoint":false,"reachTime":0,"deliveryTime":0,"deliveryLat":0,"deliveryLng":0,"clusterId":null,"address":{"id":"4745f145-0d2b-4eb0-a228-da4ec6c2124d","address":"598, 1st floor, 1st Cross, 1st A Main Road, Domlur Layout, 1st Stage, Domlur, Bangalore","lat":12.9600892,"lng":77.6357111,"orderId":"a4911049-4dbf-4379-b2c6-06f540c00a63"}},{"id":"1e2c45c3-37bd-4914-89ea-04c387338b4b","productId":"SKU_81","name":"Terry Mitchell","status":"PENDING","awb":"29925333677","isDynamicPoint":false,"reachTime":0,"deliveryTime":0,"deliveryLat":0,"deliveryLng":0,"clusterId":null,"address":{"id":"55449b56-50bc-4fd7-9a08-e41b9babfd47","address":"8/ 9, 17th F Cross, 2nd Stage, Indiranagar, Bengaluru","lat":12.9771437,"lng":77.63256419999999,"orderId":"1e2c45c3-37bd-4914-89ea-04c387338b4b"}},{"id":"d855315c-9b5f-4903-9c20-442fb48f6bf9","productId":"SKU_55","name":"Patrick Gilliam","status":"PENDING","awb":"51656603551","isDynamicPoint":false,"reachTime":0,"deliveryTime":0,"deliveryLat":0,"deliveryLng":0,"clusterId":null,"address":{"id":"78e10ad5-779f-42bc-9f7a-fd0cd1f04cc9","address":"90/4, Above Sony Centre, Opposite Park Plaza, Outer Ring Road, Marathahalli, Bangalore","lat":12.9502139,"lng":77.6989321,"orderId":"d855315c-9b5f-4903-9c20-442fb48f6bf9"}},{"id":"3722e5cf-bb69-4fb8-8c55-68752dc86482","productId":"SKU_143","name":"Carl Luskey","status":"PENDING","awb":"81037487822","isDynamicPoint":false,"reachTime":0,"deliveryTime":0,"deliveryLat":0,"deliveryLng":0,"clusterId":null,"address":{"id":"d348eb70-d250-46ea-8439-0432f6ecd3a7","address":"7, Anurhh Arcade, Hoodi Road, Kodigehalli Road, KR Puram, Bangalore","lat":13.0044944,"lng":77.7125871,"orderId":"3722e5cf-bb69-4fb8-8c55-68752dc86482"}},{"id":"a5f469c1-9756-4ad1-b967-5e851a7b5a24","productId":"SKU_100","name":"Willie Matson","status":"PENDING","awb":"77357637627","isDynamicPoint":false,"reachTime":0,"deliveryTime":0,"deliveryLat":0,"deliveryLng":0,"clusterId":null,"address":{"id":"9324e4e0-b3bb-480e-bdab-f2b5cf4d16b1","address":"18, K.R Layout, Dollar Colony, 4th Phase, JP Nagar","lat":12.9052573,"lng":77.5841502,"orderId":"a5f469c1-9756-4ad1-b967-5e851a7b5a24"}},{"id":"8aa946f3-f48e-4329-a349-74f0b0189440","productId":"SKU_91","name":"Bonnie Heath","status":"PENDING","awb":"30449400919","isDynamicPoint":false,"reachTime":0,"deliveryTime":0,"deliveryLat":0,"deliveryLng":0,"clusterId":null,"address":{"id":"3f511539-ff2e-46d2-8a10-ad77dfbaee99","address":"7th Cross, Sector 1, HSR, Bangalore","lat":12.9194511,"lng":77.6487443,"orderId":"8aa946f3-f48e-4329-a349-74f0b0189440"}},{"id":"120fbacd-e6f8-4b49-aeea-4dc4c599e1f8","productId":"SKU_47","name":"Tara Allen","status":"PENDING","awb":"54163870135","isDynamicPoint":false,"reachTime":0,"deliveryTime":0,"deliveryLat":0,"deliveryLng":0,"clusterId":null,"address":{"id":"42b1b2b5-6ea8-4d05-b220-91e241fd73e9","address":"1554, Ground Floor, 19th Main, Sector - 1, HSR, Bangalore","lat":12.9136257,"lng":77.6446549,"orderId":"120fbacd-e6f8-4b49-aeea-4dc4c599e1f8"}},{"id":"2105f94c-2434-4304-abc8-24cfb7215ed0","productId":"SKU_109","name":"Virginia Sauer","status":"PENDING","awb":"81926175607","isDynamicPoint":false,"reachTime":0,"deliveryTime":0,"deliveryLat":0,"deliveryLng":0,"clusterId":null,"address":{"id":"e887cbe1-7d79-4acf-8b58-4ce9d4e80de4","address":"Cross Roads Inn, 827, Near RV Dental College Compound, 24th Main, 12th Cross, JP Nagar, Bangalore","lat":12.9085621,"lng":77.5859526,"orderId":"2105f94c-2434-4304-abc8-24cfb7215ed0"}},{"id":"4f113a98-3669-42cc-9d04-e5b4b344587c","productId":"SKU_67","name":"Jacob Mccroy","status":"PENDING","awb":"62724763094","isDynamicPoint":false,"reachTime":0,"deliveryTime":0,"deliveryLat":0,"deliveryLng":0,"clusterId":null,"address":{"id":"5d9830a8-e737-4bda-9627-b0c2163cefb2","address":"92, Ground Floor, Muninanjappa Gardens, Kodigehalli Main Road, KR Puram, Bangalore","lat":13.003555,"lng":77.7245487,"orderId":"4f113a98-3669-42cc-9d04-e5b4b344587c"}},{"id":"4d45d8e7-e75b-4a97-aa15-b70535804c0a","productId":"SKU_40","name":"Freda Beauchamp","status":"PENDING","awb":"24549099395","isDynamicPoint":false,"reachTime":0,"deliveryTime":0,"deliveryLat":0,"deliveryLng":0,"clusterId":null,"address":{"id":"0ebcd6f0-e1d3-408a-98a7-c7761e33e2ef","address":"JP Nagar, Phase 7, Bangalore","lat":12.8890015,"lng":77.573385,"orderId":"4d45d8e7-e75b-4a97-aa15-b70535804c0a"}},{"id":"215cfee3-81b0-4824-a70f-8e845c27eabb","productId":"SKU_69","name":"Jeffrey Mekee","status":"PENDING","awb":"81065467193","isDynamicPoint":false,"reachTime":0,"deliveryTime":0,"deliveryLat":0,"deliveryLng":0,"clusterId":null,"address":{"id":"2d60abbf-8da4-4781-9809-1c42e595377c","address":"46/1, Cobalt Building, Church Street, Bangalore","lat":12.9748809,"lng":77.6056454,"orderId":"215cfee3-81b0-4824-a70f-8e845c27eabb"}},{"id":"66a669b7-9042-49d8-bdaf-30abbb66bc70","productId":"SKU_48","name":"Larry Herndon","status":"PENDING","awb":"89111417547","isDynamicPoint":false,"reachTime":0,"deliveryTime":0,"deliveryLat":0,"deliveryLng":0,"clusterId":null,"address":{"id":"99bbb9b3-fc58-471e-af9d-4976ad60fc3a","address":"1, 328, 27th Main, 21st Cross, Sector 2, HSR, Bangalore","lat":12.9042116,"lng":77.6507228,"orderId":"66a669b7-9042-49d8-bdaf-30abbb66bc70"}},{"id":"0ca9d906-7d23-4e24-8b25-8921155495cf","productId":"SKU_70","name":"Tiffany Coker","status":"PENDING","awb":"15145909184","isDynamicPoint":false,"reachTime":0,"deliveryTime":0,"deliveryLat":0,"deliveryLng":0,"clusterId":null,"address":{"id":"9983ae90-0453-4c39-a88e-dea2b5da9a11","address":"7, Anurhh Arcade, Hoodi Road, Kodigehalli Road, KR Puram, Bangalore","lat":13.0044944,"lng":77.7125871,"orderId":"0ca9d906-7d23-4e24-8b25-8921155495cf"}},{"id":"d47366b3-212a-48d1-947e-4894b4f3c1c1","productId":"SKU_18","name":"Thomas Lyons","status":"PENDING","awb":"92874070081","isDynamicPoint":false,"reachTime":0,"deliveryTime":0,"deliveryLat":0,"deliveryLng":0,"clusterId":null,"address":{"id":"d44ac766-a6cb-4d22-92a3-54041a2889bb","address":"311, 15th Cross, 5th Phase, JP Nagar, Bangalore","lat":12.9061386,"lng":77.5929986,"orderId":"d47366b3-212a-48d1-947e-4894b4f3c1c1"}},{"id":"92de4f88-8992-4a2d-88d8-6c836b61b30f","productId":"SKU_90","name":"Mary Duffy","status":"PENDING","awb":"62758300340","isDynamicPoint":false,"reachTime":0,"deliveryTime":0,"deliveryLat":0,"deliveryLng":0,"clusterId":null,"address":{"id":"c19c7e6b-fdb8-4218-8cf2-ac8a5365abef","address":"88, 1st Floor, VIMS Hospital Building, Outer Ring Road, Marathahalli, Bangalore","lat":12.9483018,"lng":77.69946519999999,"orderId":"92de4f88-8992-4a2d-88d8-6c836b61b30f"}},{"id":"758563d7-81c1-47ba-bb59-65a8168f4336","productId":"SKU_45","name":"Brian Glass","status":"PENDING","awb":"98072567575","isDynamicPoint":false,"reachTime":0,"deliveryTime":0,"deliveryLat":0,"deliveryLng":0,"clusterId":null,"address":{"id":"ea97d121-403e-417b-86a6-fc963dad237e","address":"5th Cross Road, Dollar Layout, 3rd Phase, JP Nagar, Bangalore","lat":12.9066907,"lng":77.602318,"orderId":"758563d7-81c1-47ba-bb59-65a8168f4336"}},{"id":"81b2c9a3-912d-4bf2-a9a2-9de07c1cca06","productId":"SKU_8","name":"John Kessler","status":"PENDING","awb":"84961010116","isDynamicPoint":false,"reachTime":0,"deliveryTime":0,"deliveryLat":0,"deliveryLng":0,"clusterId":null,"address":{"id":"12d55f20-83ff-42b4-8901-605fafe5cb83","address":"20\\5, Panathur Junction, Outer Ring Road, Kadubeessanahalli, Marathahalli, Bangalore","lat":12.9399931,"lng":77.6962218,"orderId":"81b2c9a3-912d-4bf2-a9a2-9de07c1cca06"}},{"id":"ccc0d1bd-b0cd-469f-94d9-626b4cb77c4c","productId":"SKU_68","name":"Ricky Aschenbrenner","status":"PENDING","awb":"43727711975","isDynamicPoint":false,"reachTime":0,"deliveryTime":0,"deliveryLat":0,"deliveryLng":0,"clusterId":null,"address":{"id":"1d63b15e-a37c-46de-b295-0c0079b9e459","address":"3, Srinivasa Nilayam, Vidya Vikas School Road, Panathur New Extension, Kaverappa Layout, Marathahalli, Bangalore","lat":12.9348385,"lng":77.7011844,"orderId":"ccc0d1bd-b0cd-469f-94d9-626b4cb77c4c"}},{"id":"8b448acd-c243-42be-a504-465d3bb3baf5","productId":"SKU_7","name":"Antonio Oliver","status":"PENDING","awb":"52273090335","isDynamicPoint":false,"reachTime":0,"deliveryTime":0,"deliveryLat":0,"deliveryLng":0,"clusterId":null,"address":{"id":"7de22725-38b9-446b-b881-c9de6ca7b467","address":"305, Anand NR Onyx, 15th Cross, 100 Feet Ring Road, 5th Phase Extension, JP Nagar, Bangalore","lat":12.906285,"lng":77.5874455,"orderId":"8b448acd-c243-42be-a504-465d3bb3baf5"}},{"id":"4f565fc2-e3f3-40ad-85b9-0b80564b4a3f","productId":"SKU_27","name":"Virginia Cole","status":"PENDING","awb":"15239382796","isDynamicPoint":false,"reachTime":0,"deliveryTime":0,"deliveryLat":0,"deliveryLng":0,"clusterId":null,"address":{"id":"06fc9006-72c9-4522-bb10-a5425794bff3","address":"14, 2nd Floor, Church Street, Bangalore","lat":12.9743127,"lng":77.6077163,"orderId":"4f565fc2-e3f3-40ad-85b9-0b80564b4a3f"}},{"id":"2cf45750-cb90-49af-bdea-ca1284dbfdeb","productId":"SKU_80","name":"Shelia West","status":"PENDING","awb":"84612864961","isDynamicPoint":false,"reachTime":0,"deliveryTime":0,"deliveryLat":0,"deliveryLng":0,"clusterId":null,"address":{"id":"48b09804-367e-4aca-a79a-6c3e69e5b8f5","address":"12th Main, HAL 2nd Stage, ESI To Domlur, Service Road, Indiranagar, Bangalore","lat":12.9614154,"lng":77.6349097,"orderId":"2cf45750-cb90-49af-bdea-ca1284dbfdeb"}},{"id":"1da7d995-279b-479f-ba5f-b6380496c4db","productId":"SKU_116","name":"Phyllis Ehlers","status":"PENDING","awb":"84366653069","isDynamicPoint":false,"reachTime":0,"deliveryTime":0,"deliveryLat":0,"deliveryLng":0,"clusterId":null,"address":{"id":"aafd4bb7-10a4-4c31-b7fa-5394817ed87c","address":"2, Church Street, Bangalore","lat":12.9746635,"lng":77.60765219999999,"orderId":"1da7d995-279b-479f-ba5f-b6380496c4db"}},{"id":"35d31a6c-f1a3-46f8-b67f-24065692fc62","productId":"SKU_42","name":"David Webber","status":"PENDING","awb":"89394948450","isDynamicPoint":false,"reachTime":0,"deliveryTime":0,"deliveryLat":0,"deliveryLng":0,"clusterId":null,"address":{"id":"2106a17a-dfe2-46ba-82a6-d3d71bad01e8","address":"2724, 31st Main, 17th Cross, HSR, Bangalore","lat":12.9126877,"lng":77.6532769,"orderId":"35d31a6c-f1a3-46f8-b67f-24065692fc62"}},{"id":"0c14d4f9-cee2-4b8f-96c8-5b2704cc44e6","productId":"SKU_139","name":"Donald Allen","status":"PENDING","awb":"78472305957","isDynamicPoint":false,"reachTime":0,"deliveryTime":0,"deliveryLat":0,"deliveryLng":0,"clusterId":null,"address":{"id":"4006d799-5c8f-46fc-a8d8-38191155ab69","address":"7th Cross Road, Agara Village, 1st Sector, HSR, Bangalore","lat":12.9194418,"lng":77.647291,"orderId":"0c14d4f9-cee2-4b8f-96c8-5b2704cc44e6"}},{"id":"f407abe0-f437-46f4-97d1-c1dd246f7c1f","productId":"SKU_86","name":"Beverly Coleman","status":"PENDING","awb":"80856836359","isDynamicPoint":false,"reachTime":0,"deliveryTime":0,"deliveryLat":0,"deliveryLng":0,"clusterId":null,"address":{"id":"6a6b20b6-1d0f-476e-a77b-18949a357864","address":"2/1 Unit 6, Hoodi Kodigehalli Road, Opposite Crystal Apartment, KR Puram, Bangalore","lat":13.0017902,"lng":77.7231486,"orderId":"f407abe0-f437-46f4-97d1-c1dd246f7c1f"}},{"id":"c82f3291-f255-438d-88da-67ae7449e017","productId":"SKU_110","name":"Frances Chai","status":"PENDING","awb":"96874607527","isDynamicPoint":false,"reachTime":0,"deliveryTime":0,"deliveryLat":0,"deliveryLng":0,"clusterId":null,"address":{"id":"2515ce7b-fde9-4d10-8d7d-ce6bfd526724","address":"647, Ground Floor, 27th Main Road, Sector 1, HSR, Bangalore","lat":12.9119893,"lng":77.651832,"orderId":"c82f3291-f255-438d-88da-67ae7449e017"}},{"id":"ff0dca6d-c397-4a9d-986c-31662f43f8d6","productId":"SKU_17","name":"Scott Peabody","status":"PENDING","awb":"81721151401","isDynamicPoint":false,"reachTime":0,"deliveryTime":0,"deliveryLat":0,"deliveryLng":0,"clusterId":null,"address":{"id":"a4e15e1e-a50e-4839-8ef3-9cfa89984620","address":"765, 1st Floor, 1st Main, Domlur Layout, Domlur, Bangalore","lat":12.9599925,"lng":77.6407538,"orderId":"ff0dca6d-c397-4a9d-986c-31662f43f8d6"}},{"id":"39d51551-7fa7-4bd0-a513-34f49987c3ba","productId":"SKU_7","name":"Gary Nelson","status":"PENDING","awb":"48712626536","isDynamicPoint":false,"reachTime":0,"deliveryTime":0,"deliveryLat":0,"deliveryLng":0,"clusterId":null,"address":{"id":"55b77eb3-66d3-4b5b-bdad-e857cb6938d6","address":"Shop 37, 3rd Cross, Outer Ring Road, Kadubisnahalli, Marathahalli, Bangalore","lat":12.9063438,"lng":77.5711549,"orderId":"39d51551-7fa7-4bd0-a513-34f49987c3ba"}},{"id":"9a8db966-e45c-4ae3-b78d-ebc81df781b0","productId":"SKU_31","name":"Jon Hall","status":"PENDING","awb":"73350066683","isDynamicPoint":false,"reachTime":0,"deliveryTime":0,"deliveryLat":0,"deliveryLng":0,"clusterId":null,"address":{"id":"770d52e8-61d4-4794-a5c3-ed62a324143f","address":"1, 24th Main Rd, 1st Phase, Girinagar, KR Layout, Muneshwara T-Block, JP Nagar, Bangalore","lat":12.904529,"lng":77.5855601,"orderId":"9a8db966-e45c-4ae3-b78d-ebc81df781b0"}},{"id":"b5bf3d09-ac44-4f13-a751-f67ed5db3a23","productId":"SKU_123","name":"Edward Leon","status":"PENDING","awb":"62376246282","isDynamicPoint":false,"reachTime":0,"deliveryTime":0,"deliveryLat":0,"deliveryLng":0,"clusterId":null,"address":{"id":"39637be9-61ce-40f2-8cc2-be4da563ad21","address":"1260, SY 35/4, SJR Tower's, 7th Phase, 24th Main Puttanhalli, JP Nagar, Bangalore","lat":12.9156577,"lng":77.5994159,"orderId":"b5bf3d09-ac44-4f13-a751-f67ed5db3a23"}},{"id":"9ee9db20-c016-4943-8a91-ef065ccd2301","productId":"SKU_17","name":"George Douglas","status":"PENDING","awb":"86841663173","isDynamicPoint":false,"reachTime":0,"deliveryTime":0,"deliveryLat":0,"deliveryLng":0,"clusterId":null,"address":{"id":"19fd696b-3a70-4fdb-af22-b94aa6489c75","address":"Domlur, Bangalore","lat":12.9609857,"lng":77.6387316,"orderId":"9ee9db20-c016-4943-8a91-ef065ccd2301"}},{"id":"b8045652-23d9-4835-9c1d-315b8b406e32","productId":"SKU_141","name":"Michael Parenteau","status":"PENDING","awb":"34763837898","isDynamicPoint":false,"reachTime":0,"deliveryTime":0,"deliveryLat":0,"deliveryLng":0,"clusterId":null,"address":{"id":"73943dc7-8755-40f7-bcf0-9263e3ac725a","address":"1260 SY 35/4 SJR Tower's, JP Nagar 7th Phase, 24th Main Puttanhalli, JP Nagar, Bangalore","lat":12.9003937,"lng":77.5858415,"orderId":"b8045652-23d9-4835-9c1d-315b8b406e32"}},{"id":"5e6896ac-162a-44a1-a2b9-6c589575cad6","productId":"SKU_12","name":"Bryan Warthen","status":"PENDING","awb":"28529174781","isDynamicPoint":false,"reachTime":0,"deliveryTime":0,"deliveryLat":0,"deliveryLng":0,"clusterId":null,"address":{"id":"ae84507f-c579-44e3-97c0-de9e7d0906fd","address":"Devasandra Main Road, Ayyappa Nagar, KR Puram, Bangalore","lat":13.0043122,"lng":77.7103151,"orderId":"5e6896ac-162a-44a1-a2b9-6c589575cad6"}},{"id":"3446db2c-ca5b-46bb-8955-aa0acae19ff7","productId":"SKU_13","name":"James Rego","status":"PENDING","awb":"72346908029","isDynamicPoint":false,"reachTime":0,"deliveryTime":0,"deliveryLat":0,"deliveryLng":0,"clusterId":null,"address":{"id":"12eea410-d4de-4b13-bcf1-fbed98714fa4","address":"97, Wilson Garden Housing Society, 7th Phase, JP Nagar, Bangalore","lat":12.8978624,"lng":77.58450839999999,"orderId":"3446db2c-ca5b-46bb-8955-aa0acae19ff7"}},{"id":"a13b755b-0f03-4b12-83c3-7b9cce66b10f","productId":"SKU_69","name":"Sherry Cole","status":"PENDING","awb":"62644046092","isDynamicPoint":false,"reachTime":0,"deliveryTime":0,"deliveryLat":0,"deliveryLng":0,"clusterId":null,"address":{"id":"f4574025-6917-433d-bccc-4734d37675cf","address":"Coconut Garden Layout, Kodigehalli Main Road, KR Puram, Bangalore","lat":13.0034826,"lng":77.7175524,"orderId":"a13b755b-0f03-4b12-83c3-7b9cce66b10f"}},{"id":"4542776a-49dc-4abc-b5fe-f956dac95e6a","productId":"SKU_148","name":"Samuel Sampley","status":"PENDING","awb":"38653109135","isDynamicPoint":false,"reachTime":0,"deliveryTime":0,"deliveryLat":0,"deliveryLng":0,"clusterId":null,"address":{"id":"7f5cc151-abf9-40ed-8063-140da8d3e6a3","address":"Number 4 St Mary's Building, 39/1, 2nd Stage, Indiranagar, Bangalore","lat":12.9783692,"lng":77.6408356,"orderId":"4542776a-49dc-4abc-b5fe-f956dac95e6a"}},{"id":"060ae682-bcd5-4d88-9239-82edd22d8f8c","productId":"SKU_68","name":"Richard Wheeless","status":"PENDING","awb":"60147650973","isDynamicPoint":false,"reachTime":0,"deliveryTime":0,"deliveryLat":0,"deliveryLng":0,"clusterId":null,"address":{"id":"78fd3fb3-526b-4252-8d71-4ef08c94ee7b","address":"20/7, Swamy Legato, Outer Ring Road, Kadubeesanahalli, Marathahalli, Bangalore","lat":12.9389269,"lng":77.6946805,"orderId":"060ae682-bcd5-4d88-9239-82edd22d8f8c"}},{"id":"179aefa0-f991-4c00-b725-d9ae73919e05","productId":"SKU_89","name":"Nanette Mcbride","status":"PENDING","awb":"11910424508","isDynamicPoint":false,"reachTime":0,"deliveryTime":0,"deliveryLat":0,"deliveryLng":0,"clusterId":null,"address":{"id":"d3fc2512-1953-45d2-b993-cb2be8230108","address":"680-669, 13th Cross Rd, 1st Sector, HSR Layout, Bengaluru, Karnataka","lat":12.9159261,"lng":77.6497332,"orderId":"179aefa0-f991-4c00-b725-d9ae73919e05"}},{"id":"284e0a3c-c2bd-47eb-b2c1-898d96500aab","productId":"SKU_42","name":"Barbara Capehart","status":"PENDING","awb":"48552195740","isDynamicPoint":false,"reachTime":0,"deliveryTime":0,"deliveryLat":0,"deliveryLng":0,"clusterId":null,"address":{"id":"87db5dcb-b28e-451c-80c3-da279a203bde","address":"20/5, Narayanswamy Building, Kadubeesanahalli Bridge, Outer Ring Road, Kadubeesanahalli, Marathahalli, Bangalore","lat":12.9394098,"lng":77.69515729999999,"orderId":"284e0a3c-c2bd-47eb-b2c1-898d96500aab"}},{"id":"d939147c-3e20-41c2-9d3b-a1f014fef5d0","productId":"SKU_85","name":"Howard Roman","status":"PENDING","awb":"94402524628","isDynamicPoint":false,"reachTime":0,"deliveryTime":0,"deliveryLat":0,"deliveryLng":0,"clusterId":null,"address":{"id":"52274ee4-6a4d-43df-9696-e83ea998d8bb","address":"2606, Ground Floor, The Ambience Building, 16th Cross, 27th Main, Sector 1, HSR, Bangalore","lat":12.9125829,"lng":77.6514055,"orderId":"d939147c-3e20-41c2-9d3b-a1f014fef5d0"}},{"id":"772c1943-715b-48f3-a694-0450e0d8f7ae","productId":"SKU_127","name":"Willie Kirkwood","status":"PENDING","awb":"79263517463","isDynamicPoint":false,"reachTime":0,"deliveryTime":0,"deliveryLat":0,"deliveryLng":0,"clusterId":null,"address":{"id":"3fe11a61-9fd5-45c6-8a1a-df3ffe8bf7e4","address":"2nd Floor, All Season Super Market Building, Panathur Road, Kadubeesanahalli, Panathur, Marathahalli, Bangalore","lat":12.9371973,"lng":77.7024654,"orderId":"772c1943-715b-48f3-a694-0450e0d8f7ae"}},{"id":"1b2d2efb-f2e9-4f2f-b01f-832ede7a260a","productId":"SKU_38","name":"Theodore Bunch","status":"PENDING","awb":"85469796479","isDynamicPoint":false,"reachTime":0,"deliveryTime":0,"deliveryLat":0,"deliveryLng":0,"clusterId":null,"address":{"id":"cc1111c4-4bf3-4b0a-ae21-2f41a2f031be","address":"Opposite NIFT College, 2733, 16th Cross, 27th Main Road, PWD Quarters, 1st Sector, HSR Layout, HSR, Bangalore","lat":12.912702,"lng":77.652479,"orderId":"1b2d2efb-f2e9-4f2f-b01f-832ede7a260a"}},{"id":"b78e0185-59f2-4942-b2f6-939d004df4f1","productId":"SKU_98","name":"Jesse Suarez","status":"PENDING","awb":"73796529420","isDynamicPoint":false,"reachTime":0,"deliveryTime":0,"deliveryLat":0,"deliveryLng":0,"clusterId":null,"address":{"id":"d0fbe027-eef3-472c-b58c-e12e4f0b34a0","address":"48, Triumph Towers, Church Street, Bangalore","lat":12.975507,"lng":77.60314799999999,"orderId":"b78e0185-59f2-4942-b2f6-939d004df4f1"}},{"id":"2ea2a691-b5f6-49a5-b742-4a1866c8c6ac","productId":"SKU_36","name":"Virginia Hartzler","status":"PENDING","awb":"47626343441","isDynamicPoint":false,"reachTime":0,"deliveryTime":0,"deliveryLat":0,"deliveryLng":0,"clusterId":null,"address":{"id":"36c65d99-0bd9-414c-956d-b810099326a1","address":"2/1 Unit 6, Hoodi Kodigehalli Road, Opposite Crystal Apartment, KR Puram, Bangalore","lat":13.0017902,"lng":77.7231486,"orderId":"2ea2a691-b5f6-49a5-b742-4a1866c8c6ac"}},{"id":"f562e3ba-679f-450a-8f4c-04acf9959b0d","productId":"SKU_114","name":"Doria Ferguson","status":"PENDING","awb":"20550226542","isDynamicPoint":false,"reachTime":0,"deliveryTime":0,"deliveryLat":0,"deliveryLng":0,"clusterId":null,"address":{"id":"03fa9295-9ea7-49cc-99ef-8aeebd2fa3c0","address":"1083, 12th main, 5th Cross, Indiranagar, Bangalore","lat":12.9699539,"lng":77.638717,"orderId":"f562e3ba-679f-450a-8f4c-04acf9959b0d"}},{"id":"2efab0ec-1c46-4faa-bc4a-2d3989df478c","productId":"SKU_58","name":"Lidia Wickham","status":"PENDING","awb":"71217404672","isDynamicPoint":false,"reachTime":0,"deliveryTime":0,"deliveryLat":0,"deliveryLng":0,"clusterId":null,"address":{"id":"c90081da-9dcb-4310-9f89-a57f61dbac73","address":"81, 7th Main, 5th Cross, Bank of Baroda Colony, 7th Phase, JP Nagar, Bangalore","lat":12.9059478,"lng":77.6058923,"orderId":"2efab0ec-1c46-4faa-bc4a-2d3989df478c"}},{"id":"d57d68f2-36c7-4111-ad0f-c7060d9c6a2f","productId":"SKU_29","name":"Ryan Orlando","status":"PENDING","awb":"13346207178","isDynamicPoint":false,"reachTime":0,"deliveryTime":0,"deliveryLat":0,"deliveryLng":0,"clusterId":null,"address":{"id":"ec857a98-9a73-4e7b-8675-9d74fa249511","address":"114, Kothanur Main Road, Santrupthi Nagar, 7th Phase, JP Nagar, Bangalore","lat":12.8919779,"lng":77.5817794,"orderId":"d57d68f2-36c7-4111-ad0f-c7060d9c6a2f"}},{"id":"9efe3a6c-74e4-43e6-a88d-eba3785d66df","productId":"SKU_51","name":"Elijah Reno","status":"PENDING","awb":"69289578038","isDynamicPoint":false,"reachTime":0,"deliveryTime":0,"deliveryLat":0,"deliveryLng":0,"clusterId":null,"address":{"id":"ae7fe1d8-7626-4972-9dcc-b42725189541","address":"Brigade Millenium Inside Indian Music Experience Museum, JP Nagar, Bangalore, Bengaluru","lat":12.8917987,"lng":77.58368610000001,"orderId":"9efe3a6c-74e4-43e6-a88d-eba3785d66df"}},{"id":"0305219d-5928-4057-8049-0dfed1383a1d","productId":"SKU_69","name":"Clarence Fuller","status":"PENDING","awb":"17354068059","isDynamicPoint":false,"reachTime":0,"deliveryTime":0,"deliveryLat":0,"deliveryLng":0,"clusterId":null,"address":{"id":"4e80afe4-8a78-402a-b3c1-28658b6df1e6","address":"191, First Floor, 27th Main, Sector 2, HSR, Bangalore","lat":12.9079765,"lng":77.6517237,"orderId":"0305219d-5928-4057-8049-0dfed1383a1d"}},{"id":"73e0d2bb-e621-48fb-a6f1-06abca348d80","productId":"SKU_95","name":"Jason Taylor","status":"PENDING","awb":"50570222462","isDynamicPoint":false,"reachTime":0,"deliveryTime":0,"deliveryLat":0,"deliveryLng":0,"clusterId":null,"address":{"id":"8c0869d1-54e1-43a0-b561-a4bd7ae9ce92","address":"Someshwara Bhavan, RBI Layout, 7th Phase, Kothnur Main Road, JP Nagar, Bangalore","lat":12.8838109,"lng":77.5829501,"orderId":"73e0d2bb-e621-48fb-a6f1-06abca348d80"}},{"id":"7027cb3a-adbb-49c7-bf81-9eb1d23fc7a5","productId":"SKU_10","name":"Shirlee Tennant","status":"PENDING","awb":"66146763539","isDynamicPoint":false,"reachTime":0,"deliveryTime":0,"deliveryLat":0,"deliveryLng":0,"clusterId":null,"address":{"id":"513ed8d8-59bf-42cc-bd0c-80606cf52338","address":"3217, 13th Cross, Indiranagar, Bangalore","lat":12.9727187,"lng":77.63514049999999,"orderId":"7027cb3a-adbb-49c7-bf81-9eb1d23fc7a5"}},{"id":"0b1cf14f-771f-43e9-9131-988e9bc0af1e","productId":"SKU_138","name":"Harry Heishman","status":"PENDING","awb":"32184021928","isDynamicPoint":false,"reachTime":0,"deliveryTime":0,"deliveryLat":0,"deliveryLng":0,"clusterId":null,"address":{"id":"693a89cc-e838-4737-8efa-197008692fb2","address":"5, KBR Mall Complex, Ground Floor, More Mega Store, Varthur Hobli, Marathahalli, Bangalore","lat":12.9482807,"lng":77.6983956,"orderId":"0b1cf14f-771f-43e9-9131-988e9bc0af1e"}},{"id":"6ca0d958-a1ec-44e1-af2d-d8665bb28336","productId":"SKU_137","name":"Karen Yuen","status":"PENDING","awb":"38777880457","isDynamicPoint":false,"reachTime":0,"deliveryTime":0,"deliveryLat":0,"deliveryLng":0,"clusterId":null,"address":{"id":"7d20cbe7-bc94-4d01-81db-da5efb5a5cf5","address":"1260 SY 35/4 SJR Tower's, 24th Main Puttanhalli, 7th Phase, JP Nagar Bangalore","lat":12.9003937,"lng":77.5858415,"orderId":"6ca0d958-a1ec-44e1-af2d-d8665bb28336"}},{"id":"e2f47586-cf3e-4baf-8cdb-9fdc7917d9f3","productId":"SKU_21","name":"John Fridley","status":"PENDING","awb":"14876577908","isDynamicPoint":false,"reachTime":0,"deliveryTime":0,"deliveryLat":0,"deliveryLng":0,"clusterId":null,"address":{"id":"bea2b509-cc5c-46d2-ac6f-e7e6d7cb5450","address":"1260 SY 35/4 SJR Tower's, 24th Main Puttanhalli, JP Nagar 7th Phase, Bangalore","lat":12.9003937,"lng":77.5858415,"orderId":"e2f47586-cf3e-4baf-8cdb-9fdc7917d9f3"}},{"id":"f1f457dd-ad75-460b-94ef-7c8d32546f2f","productId":"SKU_38","name":"Anna Kelly","status":"PENDING","awb":"76031744666","isDynamicPoint":false,"reachTime":0,"deliveryTime":0,"deliveryLat":0,"deliveryLng":0,"clusterId":null,"address":{"id":"a4eec783-b10f-4db7-94ff-5184160fe30a","address":"281, 2nd Floor, 15th Cross, 5th Phase, JP Nagar, Bangalore","lat":12.9063958,"lng":77.5886106,"orderId":"f1f457dd-ad75-460b-94ef-7c8d32546f2f"}},{"id":"1c4c8f8d-1028-4c7f-af5d-315845f9a7ec","productId":"SKU_53","name":"Juanita Pahulu","status":"PENDING","awb":"53402748741","isDynamicPoint":false,"reachTime":0,"deliveryTime":0,"deliveryLat":0,"deliveryLng":0,"clusterId":null,"address":{"id":"bff02490-db72-4d21-9a93-a003bb6a3294","address":"191, Ground Floor, 27th Main Road, Near CPWD Quarters, Beside Lawrance & Mayo, Sector 2, HSR, Bangalore","lat":12.9119893,"lng":77.651832,"orderId":"1c4c8f8d-1028-4c7f-af5d-315845f9a7ec"}},{"id":"ab4493e1-24a5-4133-9f2d-831d14fffa73","productId":"SKU_44","name":"Dorothy Davis","status":"PENDING","awb":"71791751983","isDynamicPoint":false,"reachTime":0,"deliveryTime":0,"deliveryLat":0,"deliveryLng":0,"clusterId":null,"address":{"id":"3889ad61-6f1c-4a75-8482-c678dbc160d7","address":"Plot 302, Shop 1, 2nd Cross, Kadubesanahalli, Panathur Main Road, Marathahalli, Bangalore","lat":12.9399329,"lng":77.6979661,"orderId":"ab4493e1-24a5-4133-9f2d-831d14fffa73"}},{"id":"36c8f41f-58ac-4d6d-a46e-53eb227e9230","productId":"SKU_70","name":"Gertrude Frazier","status":"PENDING","awb":"62280811516","isDynamicPoint":false,"reachTime":0,"deliveryTime":0,"deliveryLat":0,"deliveryLng":0,"clusterId":null,"address":{"id":"d369ba82-ea68-497f-9fd9-9911849a5cfe","address":"4, St Mary's Building, 2nd Stage, Indiranagar, Bangalore","lat":12.9698565,"lng":77.7515638,"orderId":"36c8f41f-58ac-4d6d-a46e-53eb227e9230"}},{"id":"bfe3c10a-6e31-44d9-bfbd-d7550deb3ef1","productId":"SKU_28","name":"Leticia Coleman","status":"PENDING","awb":"13385067871","isDynamicPoint":false,"reachTime":0,"deliveryTime":0,"deliveryLat":0,"deliveryLng":0,"clusterId":null,"address":{"id":"261e5572-ae9c-46ff-98f4-0c2037906dac","address":"5th A Cross, Lakshmi Complex, Manjunatha Colony, Near RV Dental College, 2nd phase, JP Nagar, Bangalore","lat":12.9113897,"lng":77.584992,"orderId":"bfe3c10a-6e31-44d9-bfbd-d7550deb3ef1"}},{"id":"ae5930d9-e88f-450f-8f46-3157c487c78d","productId":"SKU_92","name":"Daniel Moore","status":"PENDING","awb":"81028594970","isDynamicPoint":false,"reachTime":0,"deliveryTime":0,"deliveryLat":0,"deliveryLng":0,"clusterId":null,"address":{"id":"c8ffd107-94ea-4a3d-af12-de1c51567590","address":"57, 15th Cross Road, Outer Ring Road, Phase 6, JP Nagar, Bangalore","lat":12.9070991,"lng":77.5996462,"orderId":"ae5930d9-e88f-450f-8f46-3157c487c78d"}},{"id":"32e995a5-bf9f-42af-a732-e85a78ac57dd","productId":"SKU_117","name":"Gustavo Bailey","status":"PENDING","awb":"94332983235","isDynamicPoint":false,"reachTime":0,"deliveryTime":0,"deliveryLat":0,"deliveryLng":0,"clusterId":null,"address":{"id":"a526135e-defe-4738-9780-1f8f6d9e6bc4","address":"543, 7th Cross, 24th Main, Opposite Nous Info Systems, Sector 1, HSR, Bangalore","lat":12.9196367,"lng":77.64947529999999,"orderId":"32e995a5-bf9f-42af-a732-e85a78ac57dd"}},{"id":"eb94aa3d-6fc9-48e9-8173-f03bad682849","productId":"SKU_87","name":"Tracy Vanhoy","status":"PENDING","awb":"17162566322","isDynamicPoint":false,"reachTime":0,"deliveryTime":0,"deliveryLat":0,"deliveryLng":0,"clusterId":null,"address":{"id":"825f188d-807c-4540-acc2-13db18ac395d","address":"41, Kadubeesanahalli, Marathahalli, Bangalore","lat":12.9394137,"lng":77.6952031,"orderId":"eb94aa3d-6fc9-48e9-8173-f03bad682849"}},{"id":"beb59796-6173-4779-adcf-6e5042fddcdf","productId":"SKU_16","name":"Frank Garcia","status":"PENDING","awb":"36774055970","isDynamicPoint":false,"reachTime":0,"deliveryTime":0,"deliveryLat":0,"deliveryLng":0,"clusterId":null,"address":{"id":"b771d185-667c-4447-9c98-d3b3f94b3e70","address":"Eden Park7, 8 Doresani Palya, Near Kalyani Magnum, Opposite Oracle, 5th Phase, JP Nagar, Bangalore","lat":12.901773,"lng":77.594978,"orderId":"beb59796-6173-4779-adcf-6e5042fddcdf"}},{"id":"a9ded912-7910-4336-a42a-1bb61a2f39f2","productId":"SKU_103","name":"Martha Braun","status":"PENDING","awb":"60270106051","isDynamicPoint":false,"reachTime":0,"deliveryTime":0,"deliveryLat":0,"deliveryLng":0,"clusterId":null,"address":{"id":"391b16f6-5814-4bfa-a40c-a4edcd518b5d","address":"296, Ground Floor, 5th Phase, 100 ft Outer Ring Road, JP Nagar, Bangalore","lat":12.906285,"lng":77.5874455,"orderId":"a9ded912-7910-4336-a42a-1bb61a2f39f2"}},{"id":"f753ee22-d3e7-4acc-80a2-cf7175685f84","productId":"SKU_5","name":"Aaron Davis","status":"PENDING","awb":"62165843566","isDynamicPoint":false,"reachTime":0,"deliveryTime":0,"deliveryLat":0,"deliveryLng":0,"clusterId":null,"address":{"id":"d1c3e1de-085a-4d13-ab60-51e317f0ad81","address":"77 Town, Building No 3, Divya Shree Building, Yamalur Post, Marathahalli, Bangalore","lat":12.9257475,"lng":77.6143829,"orderId":"f753ee22-d3e7-4acc-80a2-cf7175685f84"}},{"id":"17211bb9-c2e4-4a85-b4af-911d396fa518","productId":"SKU_96","name":"Gerard Cardin","status":"PENDING","awb":"66193906105","isDynamicPoint":false,"reachTime":0,"deliveryTime":0,"deliveryLat":0,"deliveryLng":0,"clusterId":null,"address":{"id":"fb8e8d79-4ce6-42ea-90c1-c3ef38ac91b9","address":"Site 15, 15th Cross, 100 Feet Road, 4th Phase, JP Nagar, Bangalore","lat":12.9061345,"lng":77.5968288,"orderId":"17211bb9-c2e4-4a85-b4af-911d396fa518"}},{"id":"ea9ad27c-fce0-4600-b4a4-da1ef7b68c4d","productId":"SKU_88","name":"Ralph Evans","status":"PENDING","awb":"41965274833","isDynamicPoint":false,"reachTime":0,"deliveryTime":0,"deliveryLat":0,"deliveryLng":0,"clusterId":null,"address":{"id":"7a5f2784-c593-4155-b4c9-cdb34d46b286","address":"46, Church Street, Bangalore","lat":12.9757082,"lng":77.6023934,"orderId":"ea9ad27c-fce0-4600-b4a4-da1ef7b68c4d"}},{"id":"c49f6bd1-5cdc-43b0-9dd6-6040a9a5b42c","productId":"SKU_55","name":"Mary Perez","status":"PENDING","awb":"55525210263","isDynamicPoint":false,"reachTime":0,"deliveryTime":0,"deliveryLat":0,"deliveryLng":0,"clusterId":null,"address":{"id":"29bea0f3-ab85-4e8b-bf2d-0ac94151a94e","address":"4, 39/1, St Mary's Building, 2nd Stage, Indiranagar, Bangalore","lat":12.9783692,"lng":77.6408356,"orderId":"c49f6bd1-5cdc-43b0-9dd6-6040a9a5b42c"}},{"id":"4ba875db-85d0-43c0-ab7e-364cd6bf39a5","productId":"SKU_123","name":"Lucille Keirstead","status":"PENDING","awb":"14699928469","isDynamicPoint":false,"reachTime":0,"deliveryTime":0,"deliveryLat":0,"deliveryLng":0,"clusterId":null,"address":{"id":"89eb4543-ca96-4d06-99a0-92e640a85a6f","address":"569/4, Sector 1, HSR, Bangalore","lat":12.9257303,"lng":77.6651649,"orderId":"4ba875db-85d0-43c0-ab7e-364cd6bf39a5"}},{"id":"d56e0f5a-7c7e-4aec-a196-4fe62edf265d","productId":"SKU_97","name":"Matthew Bass","status":"PENDING","awb":"61354798733","isDynamicPoint":false,"reachTime":0,"deliveryTime":0,"deliveryLat":0,"deliveryLng":0,"clusterId":null,"address":{"id":"a4564a0f-20ee-493c-a18e-bb9ccf2d5bd9","address":"76, Shruthi Layout, Basavanapura Main Road, KR Puram, Bangalore","lat":13.0103509,"lng":77.7034883,"orderId":"d56e0f5a-7c7e-4aec-a196-4fe62edf265d"}},{"id":"6fb683b1-4c72-4eaf-8d1e-c435caad2947","productId":"SKU_104","name":"Holly Sallee","status":"PENDING","awb":"70987447117","isDynamicPoint":false,"reachTime":0,"deliveryTime":0,"deliveryLat":0,"deliveryLng":0,"clusterId":null,"address":{"id":"2c9a5006-a0d4-4794-a58a-87c97fcd97c3","address":"Near kaka singh dhaba, RMZ eco world backgate","lat":12.918756,"lng":77.6851939,"orderId":"6fb683b1-4c72-4eaf-8d1e-c435caad2947"}},{"id":"c7b72e21-0540-4045-a7f8-b6c5c3c447b1","productId":"SKU_91","name":"Daniel Tremper","status":"PENDING","awb":"95782788535","isDynamicPoint":false,"reachTime":0,"deliveryTime":0,"deliveryLat":0,"deliveryLng":0,"clusterId":null,"address":{"id":"a99db169-fafd-473a-8fbf-ddb4cb9d862a","address":"Shop 1, 129, 24th Main, 5th Phase, JP Nagar, Bangalore","lat":12.9038753,"lng":77.58590679999999,"orderId":"c7b72e21-0540-4045-a7f8-b6c5c3c447b1"}},{"id":"9b8a075e-1cc8-44f7-8e16-7de1eff719c1","productId":"SKU_143","name":"Doris Floyd","status":"PENDING","awb":"75423501902","isDynamicPoint":false,"reachTime":0,"deliveryTime":0,"deliveryLat":0,"deliveryLng":0,"clusterId":null,"address":{"id":"609b4d8e-45d2-45c7-91b0-0ed06e2a7938","address":"1260, SY 35/4, SJR Towers, 24th Main Puttanhalli, 7th Phase, JP Nagar, Bangalore","lat":12.9156577,"lng":77.5994159,"orderId":"9b8a075e-1cc8-44f7-8e16-7de1eff719c1"}},{"id":"9d4ddaa9-08ed-4a71-8d74-ec9dd961ce1d","productId":"SKU_9","name":"Ronnie Cameron","status":"PENDING","awb":"49180403091","isDynamicPoint":false,"reachTime":0,"deliveryTime":0,"deliveryLat":0,"deliveryLng":0,"clusterId":null,"address":{"id":"bf9065e8-c304-42a6-89ed-2d968ba6f183","address":"Amoolya, 1st Floor, 24th Main, 6th Phase, JP Nagar, Bangalore","lat":12.9088826,"lng":77.5857567,"orderId":"9d4ddaa9-08ed-4a71-8d74-ec9dd961ce1d"}},{"id":"de57b136-0bc8-48a9-8f7d-f363644eab00","productId":"SKU_24","name":"Larry Solomon","status":"PENDING","awb":"47772983315","isDynamicPoint":false,"reachTime":0,"deliveryTime":0,"deliveryLat":0,"deliveryLng":0,"clusterId":null,"address":{"id":"c4d3f5eb-1a14-445f-b06d-ae9106fe3922","address":"Near Bank Of India ATM, Ramka Colony, Bilekahalli, Marathahalli, Bangalore","lat":12.9019819,"lng":77.6042056,"orderId":"de57b136-0bc8-48a9-8f7d-f363644eab00"}},{"id":"ec02c363-bf89-4df9-8c4b-303840c9d4cc","productId":"SKU_55","name":"Amber Johnson","status":"PENDING","awb":"18227945733","isDynamicPoint":false,"reachTime":0,"deliveryTime":0,"deliveryLat":0,"deliveryLng":0,"clusterId":null,"address":{"id":"42afe8ba-43d0-46c1-a755-6aa6dda50957","address":"Next to Grigliato, Sector 1 , HSR Layout, HSR, Bangalore","lat":12.9221548,"lng":77.64537109999999,"orderId":"ec02c363-bf89-4df9-8c4b-303840c9d4cc"}},{"id":"35340c82-9eaa-40b2-b373-2e63e9ffb856","productId":"SKU_139","name":"Carolyn Buchan","status":"PENDING","awb":"55026656606","isDynamicPoint":false,"reachTime":0,"deliveryTime":0,"deliveryLat":0,"deliveryLng":0,"clusterId":null,"address":{"id":"df4ee4ad-e8a5-4367-95e8-99118b494bb0","address":"89/1, Service Road, Marathahalli, Bangalore","lat":12.9503914,"lng":77.69867599999999,"orderId":"35340c82-9eaa-40b2-b373-2e63e9ffb856"}},{"id":"09ab9b6a-791c-4df6-816b-665a748dc40e","productId":"SKU_45","name":"Michael Frasier","status":"PENDING","awb":"38200322788","isDynamicPoint":false,"reachTime":0,"deliveryTime":0,"deliveryLat":0,"deliveryLng":0,"clusterId":null,"address":{"id":"5c432af2-1fa5-46ec-b29e-7137f2f70339","address":"544, First Floor, Near Indiranagar Metro Station, CMH Road, Indiranagar, Bangalore","lat":12.9783143,"lng":77.637585,"orderId":"09ab9b6a-791c-4df6-816b-665a748dc40e"}},{"id":"acba71c0-b5da-4035-b9e2-f0da3d2c7c1f","productId":"SKU_59","name":"Ralph Martin","status":"PENDING","awb":"71466613736","isDynamicPoint":false,"reachTime":0,"deliveryTime":0,"deliveryLat":0,"deliveryLng":0,"clusterId":null,"address":{"id":"ad0fbb98-99bf-4da5-9f65-78e5c93ada13","address":"1214, 17th Cross Road, Parangi Palaya, Sector 2, HSR Layout, Bangalore","lat":12.9121301,"lng":77.650205,"orderId":"acba71c0-b5da-4035-b9e2-f0da3d2c7c1f"}},{"id":"1ea098ed-0fb2-4842-9bb5-6fd209956973","productId":"SKU_22","name":"James Riley","status":"PENDING","awb":"61686659900","isDynamicPoint":false,"reachTime":0,"deliveryTime":0,"deliveryLat":0,"deliveryLng":0,"clusterId":null,"address":{"id":"f0fa600f-2782-47f0-a44e-fb26245eecaf","address":"46/A, 1st Main, 3rd Phase, JP Nagar, Bangalore","lat":12.9112119,"lng":77.599166,"orderId":"1ea098ed-0fb2-4842-9bb5-6fd209956973"}},{"id":"d47d5d83-53bf-44b3-9eef-7f3d1e387ea0","productId":"SKU_148","name":"Jane Jones","status":"PENDING","awb":"73406214406","isDynamicPoint":false,"reachTime":0,"deliveryTime":0,"deliveryLat":0,"deliveryLng":0,"clusterId":null,"address":{"id":"e845663a-2038-4651-a119-e670e796234f","address":"88, KBR Complex, More Mega Store, Marathahalli, Bangalore","lat":12.9482807,"lng":77.6983956,"orderId":"d47d5d83-53bf-44b3-9eef-7f3d1e387ea0"}},{"id":"32d02eb6-932f-4db8-b002-b591a139ce52","productId":"SKU_13","name":"Mary Davis","status":"PENDING","awb":"49002247401","isDynamicPoint":false,"reachTime":0,"deliveryTime":0,"deliveryLat":0,"deliveryLng":0,"clusterId":null,"address":{"id":"ca0f0796-ef38-4993-aad9-e2dbbe8413e8","address":"2633, 27th Main, 13th Cross, 1st Sector, Liss Arcade, HSR, Bangalore","lat":12.9156333,"lng":77.6516664,"orderId":"32d02eb6-932f-4db8-b002-b591a139ce52"}},{"id":"81b42c84-6b07-444f-bcd4-52d07e6964c2","productId":"SKU_147","name":"Amber Smith","status":"PENDING","awb":"85984892588","isDynamicPoint":false,"reachTime":0,"deliveryTime":0,"deliveryLat":0,"deliveryLng":0,"clusterId":null,"address":{"id":"1ee84b18-064d-42d2-8431-ddc198bcc61c","address":"Building 2686, 31 Main, 13 Cross, Sector 1, Behind CPWD Quarters, HSR Layout, HSR, Bangalore","lat":12.9096504,"lng":77.65330279999999,"orderId":"81b42c84-6b07-444f-bcd4-52d07e6964c2"}},{"id":"a222fa61-f34a-47a0-a7d7-f9d600020594","productId":"SKU_144","name":"Vickie Ramos","status":"PENDING","awb":"62201852038","isDynamicPoint":false,"reachTime":0,"deliveryTime":0,"deliveryLat":0,"deliveryLng":0,"clusterId":null,"address":{"id":"7c84ef39-2486-4ca1-9a08-3f0cb379e45a","address":"6, Shakambari Nagar, 1st stage, JP Nagar, Bangalore","lat":12.9120799,"lng":77.5745235,"orderId":"a222fa61-f34a-47a0-a7d7-f9d600020594"}},{"id":"b03e1b48-18df-4aaf-bfd6-c08d82e144b3","productId":"SKU_73","name":"Marvin Buck","status":"PENDING","awb":"76687493477","isDynamicPoint":false,"reachTime":0,"deliveryTime":0,"deliveryLat":0,"deliveryLng":0,"clusterId":null,"address":{"id":"24f98e39-30c7-43b5-966c-8fa1410a22ef","address":"2317, 27th Main, Sector 1, Opposite NIFT College, HSR Layout, HSR, Bangalore","lat":12.9124495,"lng":77.65167629999999,"orderId":"b03e1b48-18df-4aaf-bfd6-c08d82e144b3"}},{"id":"7d296437-4652-4aa8-9188-774ddfa05edc","productId":"SKU_10","name":"Carol Upchurch","status":"PENDING","awb":"20687322207","isDynamicPoint":false,"reachTime":0,"deliveryTime":0,"deliveryLat":0,"deliveryLng":0,"clusterId":null,"address":{"id":"262ff6af-d801-457a-a03f-d257b3781573","address":"780, 12th Cross, 19th Main, HSR, Bangalore","lat":12.9163752,"lng":77.6497418,"orderId":"7d296437-4652-4aa8-9188-774ddfa05edc"}},{"id":"6872b335-75ff-4440-8da7-fa6ad4e788b8","productId":"SKU_50","name":"Sherry Ludlam","status":"PENDING","awb":"85539430303","isDynamicPoint":false,"reachTime":0,"deliveryTime":0,"deliveryLat":0,"deliveryLng":0,"clusterId":null,"address":{"id":"daefbf16-0562-4f1b-b7f2-33229b2a3ce9","address":"809/A, 27th Main, 100 Feet Road, 1st Sector, HSR, Bangalore","lat":12.9104699,"lng":77.6139457,"orderId":"6872b335-75ff-4440-8da7-fa6ad4e788b8"}},{"id":"702eeeae-c40d-46b0-aa92-d32bfac5dc81","productId":"SKU_106","name":"Christopher Watters","status":"PENDING","awb":"83381832974","isDynamicPoint":false,"reachTime":0,"deliveryTime":0,"deliveryLat":0,"deliveryLng":0,"clusterId":null,"address":{"id":"c63d2a85-80a1-4e7f-8f19-397d33072cd8","address":"G-005, City Centre, 28/4, Church Street, Bangalore","lat":12.9756472,"lng":77.60225369999999,"orderId":"702eeeae-c40d-46b0-aa92-d32bfac5dc81"}},{"id":"27982363-aa01-4aa9-aa0c-ffb66227e5a2","productId":"SKU_131","name":"Marshall Parham","status":"PENDING","awb":"47003637195","isDynamicPoint":false,"reachTime":0,"deliveryTime":0,"deliveryLat":0,"deliveryLng":0,"clusterId":null,"address":{"id":"001856dd-9fd0-430f-9f68-cd93e998b43e","address":"212/A, 1st Main Road, Stage 2, Indiranagar, Bangalore","lat":12.9653791,"lng":77.63803399999999,"orderId":"27982363-aa01-4aa9-aa0c-ffb66227e5a2"}},{"id":"501e954c-fa24-40d7-8357-67c6441f1233","productId":"SKU_15","name":"Louise Lynch","status":"PENDING","awb":"15743308603","isDynamicPoint":false,"reachTime":0,"deliveryTime":0,"deliveryLat":0,"deliveryLng":0,"clusterId":null,"address":{"id":"e08d1890-3ba6-4c92-abbc-3f43f0f3c421","address":"1260, SY 35/4, SJR Towers, 24th Main Puttanhalli, 7th Phase, JP Nagar, Bangalore","lat":12.9156577,"lng":77.5994159,"orderId":"501e954c-fa24-40d7-8357-67c6441f1233"}},{"id":"fbb60244-1cea-4635-965e-3e7dd23db88e","productId":"SKU_59","name":"Angela Cowman","status":"PENDING","awb":"87207515803","isDynamicPoint":false,"reachTime":0,"deliveryTime":0,"deliveryLat":0,"deliveryLng":0,"clusterId":null,"address":{"id":"b129e7ce-7213-42c0-bdbf-3e01c959f024","address":"18th Cross road, 5th Phase, JP Nagar, Bangalore","lat":12.9032116,"lng":77.5877971,"orderId":"fbb60244-1cea-4635-965e-3e7dd23db88e"}},{"id":"0084dbad-c589-4d74-9125-a15db74c58bc","productId":"SKU_82","name":"Kenneth Baker","status":"PENDING","awb":"42498449819","isDynamicPoint":false,"reachTime":0,"deliveryTime":0,"deliveryLat":0,"deliveryLng":0,"clusterId":null,"address":{"id":"93b6a2d9-db11-48e8-9d0c-07329331cceb","address":"2318, 27th Main Road, 1st Sector, HSR, Bangalore","lat":12.9121594,"lng":77.6516733,"orderId":"0084dbad-c589-4d74-9125-a15db74c58bc"}},{"id":"4ef2bc94-1e53-4bca-aaf0-2cc360618a19","productId":"SKU_19","name":"Elaine Watson","status":"PENDING","awb":"56766768595","isDynamicPoint":false,"reachTime":0,"deliveryTime":0,"deliveryLat":0,"deliveryLng":0,"clusterId":null,"address":{"id":"11783473-4579-47f1-930a-ed2ef9528d27","address":"49, Agara Circle, Near Hanuman Statue, HSR Layout, HSR, Bangalore","lat":12.9236427,"lng":77.6497211,"orderId":"4ef2bc94-1e53-4bca-aaf0-2cc360618a19"}}]}