{"noOfOrders":46,"noOfRiders":20,"warehouseLocation":{"lat":12.971599,"lng":77.638725},"consignments":[{"id":"79af5494-558a-46b6-8cc8-527a69a9ce50","productId":"SKU_28","name":"Leticia Coleman","status":"PENDING","awb":"13385067871","isDynamicPoint":false,"reachTime":0,"deliveryTime":0,"deliveryLat":0,"deliveryLng":0,"clusterId":null,"address":{"id":"aa62828a-8c46-4a97-897d-e4bf9b1c3172","address":"5th A Cross, Lakshmi Complex, Manjunatha Colony, Near RV Dental College, 2nd phase, JP Nagar, Bangalore","lat":12.9113897,"lng":77.584992,"orderId":"79af5494-558a-46b6-8cc8-527a69a9ce50"}},{"id":"2b65caaa-f5b7-45fa-a156-dc0ae4682178","productId":"SKU_7","name":"Antonio Oliver","status":"PENDING","awb":"52273090335","isDynamicPoint":false,"reachTime":0,"deliveryTime":0,"deliveryLat":0,"deliveryLng":0,"clusterId":null,"address":{"id":"00148683-a2e2-4c53-818a-09af1d83beca","address":"305, Anand NR Onyx, 15th Cross, 100 Feet Ring Road, 5th Phase Extension, JP Nagar, Bangalore","lat":12.906285,"lng":77.5874455,"orderId":"2b65caaa-f5b7-45fa-a156-dc0ae4682178"}},{"id":"65ebc805-f1f8-44a7-b1de-690a76e6bff6","productId":"SKU_56","name":"Rebecca Vanos","status":"PENDING","awb":"18834198685","isDynamicPoint":false,"reachTime":0,"deliveryTime":0,"deliveryLat":0,"deliveryLng":0,"clusterId":null,"address":{"id":"287ef927-a2e8-4f0b-966a-94edd242fb42","address":"204, 4th Cross, KSRTC Layout, 2nd Phase, JP Nagar, Bangalore","lat":12.9127245,"lng":77.5958453,"orderId":"65ebc805-f1f8-44a7-b1de-690a76e6bff6"}},{"id":"f8c93430-90e3-4483-bec8-920519095f5f","productId":"SKU_40","name":"Freda Beauchamp","status":"PENDING","awb":"24549099395","isDynamicPoint":false,"reachTime":0,"deliveryTime":0,"deliveryLat":0,"deliveryLng":0,"clusterId":null,"address":{"id":"109ceb45-1cb0-4acf-a4c7-edd121dfbed8","address":"JP Nagar, Phase 7, Bangalore","lat":12.8890015,"lng":77.573385,"orderId":"f8c93430-90e3-4483-bec8-920519095f5f"}},{"id":"b2a14f72-e7eb-4dd5-b899-ef4ac84bda5c","productId":"SKU_96","name":"Gerard Cardin","status":"PENDING","awb":"66193906105","isDynamicPoint":false,"reachTime":0,"deliveryTime":0,"deliveryLat":0,"deliveryLng":0,"clusterId":null,"address":{"id":"729d1668-097b-473b-9f9c-6780f30061cf","address":"Site 15, 15th Cross, 100 Feet Road, 4th Phase, JP Nagar, Bangalore","lat":12.9061345,"lng":77.5968288,"orderId":"b2a14f72-e7eb-4dd5-b899-ef4ac84bda5c"}},{"id":"0824e64f-91f0-46c6-a483-4f632ba6320f","productId":"SKU_31","name":"Jon Hall","status":"PENDING","awb":"73350066683","isDynamicPoint":false,"reachTime":0,"deliveryTime":0,"deliveryLat":0,"deliveryLng":0,"clusterId":null,"address":{"id":"d58b245c-a6f2-403f-b8cc-3fc349c9f176","address":"1, 24th Main Rd, 1st Phase, Girinagar, KR Layout, Muneshwara T-Block, JP Nagar, Bangalore","lat":12.904529,"lng":77.5855601,"orderId":"0824e64f-91f0-46c6-a483-4f632ba6320f"}},{"id":"5afee7bc-8c30-4b96-b34e-1e5af8a14671","productId":"SKU_137","name":"Karen Yuen","status":"PENDING","awb":"38777880457","isDynamicPoint":false,"reachTime":0,"deliveryTime":0,"deliveryLat":0,"deliveryLng":0,"clusterId":null,"address":{"id":"467c4ce1-b31c-4598-ba88-ea39bda61601","address":"1260 SY 35/4 SJR Tower's, 24th Main Puttanhalli, 7th Phase, JP Nagar Bangalore","lat":12.9003937,"lng":77.5858415,"orderId":"5afee7bc-8c30-4b96-b34e-1e5af8a14671"}},{"id":"4cd9d672-ecd9-4cc0-8b15-1d6a67f4c1be","productId":"SKU_22","name":"James Riley","status":"PENDING","awb":"61686659900","isDynamicPoint":false,"reachTime":0,"deliveryTime":0,"deliveryLat":0,"deliveryLng":0,"clusterId":null,"address":{"id":"db1e5e46-a945-4606-b841-6626906d1749","address":"46/A, 1st Main, 3rd Phase, JP Nagar, Bangalore","lat":12.9112119,"lng":77.599166,"orderId":"4cd9d672-ecd9-4cc0-8b15-1d6a67f4c1be"}},{"id":"de7b4d0a-416e-49e2-a05f-6e027de287e6","productId":"SKU_103","name":"Brenda Berry","status":"PENDING","awb":"67841310375","isDynamicPoint":false,"reachTime":0,"deliveryTime":0,"deliveryLat":0,"deliveryLng":0,"clusterId":null,"address":{"id":"da6a16f0-4895-487e-b663-06123bec034f","address":"Quality Inn - Shravanthi, 60, 13th Cross, 2nd Main, 3rd Phase, JP Nagar, Bangalore","lat":12.907355,"lng":77.5985151,"orderId":"de7b4d0a-416e-49e2-a05f-6e027de287e6"}},{"id":"005d25d0-e26f-48a3-ad71-d7087f025859","productId":"SKU_109","name":"Virginia Sauer","status":"PENDING","awb":"81926175607","isDynamicPoint":false,"reachTime":0,"deliveryTime":0,"deliveryLat":0,"deliveryLng":0,"clusterId":null,"address":{"id":"14c05ea3-84d0-4304-bf1f-d8391bc239c5","address":"Cross Roads Inn, 827, Near RV Dental College Compound, 24th Main, 12th Cross, JP Nagar, Bangalore","lat":12.9085621,"lng":77.5859526,"orderId":"005d25d0-e26f-48a3-ad71-d7087f025859"}},{"id":"72443e7e-d1c8-41e9-ad33-d0f6474d64e1","productId":"SKU_144","name":"George Rivas","status":"PENDING","awb":"33178947349","isDynamicPoint":false,"reachTime":0,"deliveryTime":0,"deliveryLat":0,"deliveryLng":0,"clusterId":null,"address":{"id":"623c18ee-9c5c-4bdc-9adc-e3da53d774a4","address":"67, 15th Cross, 6th B Main, JP Nagar, Bangalore","lat":12.906383,"lng":77.596713,"orderId":"72443e7e-d1c8-41e9-ad33-d0f6474d64e1"}},{"id":"9c75ad82-b3fd-444a-8710-929961a9618c","productId":"SKU_100","name":"Willie Matson","status":"PENDING","awb":"77357637627","isDynamicPoint":false,"reachTime":0,"deliveryTime":0,"deliveryLat":0,"deliveryLng":0,"clusterId":null,"address":{"id":"83b14e48-f341-495c-b287-ac6bf85a07f5","address":"18, K.R Layout, Dollar Colony, 4th Phase, JP Nagar","lat":12.9052573,"lng":77.5841502,"orderId":"9c75ad82-b3fd-444a-8710-929961a9618c"}},{"id":"f98e119d-3130-488c-aa67-c6e0d3c309fd","productId":"SKU_125","name":"Tim Sokol","status":"PENDING","awb":"50581824353","isDynamicPoint":false,"reachTime":0,"deliveryTime":0,"deliveryLat":0,"deliveryLng":0,"clusterId":null,"address":{"id":"2a0deceb-4646-4ddd-9268-7bf19267d858","address":"724, 3rd Floor, RBI Layout, Rini Pearl, Opposite E.K. Retail, 7th Phase, JP Nagar, Bangalore","lat":12.8917914,"lng":77.577754,"orderId":"f98e119d-3130-488c-aa67-c6e0d3c309fd"}},{"id":"ab40908f-3c94-4a30-87ee-442bb6ca1e10","productId":"SKU_138","name":"Sarah Kardashian","status":"PENDING","awb":"72031214940","isDynamicPoint":false,"reachTime":0,"deliveryTime":0,"deliveryLat":0,"deliveryLng":0,"clusterId":null,"address":{"id":"a5a94baf-5166-4bc6-9569-19d35072c8f4","address":"8, 15th Main, 5th Phase, JP Nagar, Bangalore","lat":12.9033045,"lng":77.59173849999999,"orderId":"ab40908f-3c94-4a30-87ee-442bb6ca1e10"}},{"id":"5e32e8ef-a2b4-489d-91db-cf148075b946","productId":"SKU_59","name":"Teresa Ford","status":"PENDING","awb":"65307617155","isDynamicPoint":false,"reachTime":0,"deliveryTime":0,"deliveryLat":0,"deliveryLng":0,"clusterId":null,"address":{"id":"ea789589-d497-4bdc-b0f5-4065f46d3bb8","address":"47/1, 9th Main,1st Cross, Miniforest, Phase 3, JP Nagar, Bangalore","lat":12.916563,"lng":77.583568,"orderId":"5e32e8ef-a2b4-489d-91db-cf148075b946"}},{"id":"35d482f7-2a23-4adf-9fd8-b2add7bd1438","productId":"SKU_29","name":"Ryan Orlando","status":"PENDING","awb":"13346207178","isDynamicPoint":false,"reachTime":0,"deliveryTime":0,"deliveryLat":0,"deliveryLng":0,"clusterId":null,"address":{"id":"0e132242-4b0e-43cb-a0af-ca2f35025176","address":"114, Kothanur Main Road, Santrupthi Nagar, 7th Phase, JP Nagar, Bangalore","lat":12.8919779,"lng":77.5817794,"orderId":"35d482f7-2a23-4adf-9fd8-b2add7bd1438"}},{"id":"a7a44a5e-7858-4d3b-94dd-013060aac787","productId":"SKU_23","name":"Cora Massart","status":"PENDING","awb":"49726345575","isDynamicPoint":false,"reachTime":0,"deliveryTime":0,"deliveryLat":0,"deliveryLng":0,"clusterId":null,"address":{"id":"883b8d47-b241-4f10-bedf-c3a8bf1cfc45","address":"1, 24th Main Rd, 1st Phase, Girinagar, KR Layout, Muneshwara T-Block, JP Nagar, Bangalore","lat":12.904529,"lng":77.5855601,"orderId":"a7a44a5e-7858-4d3b-94dd-013060aac787"}},{"id":"70375aa5-dd5d-4e88-baa4-e76b0e14d9d6","productId":"SKU_21","name":"John Fridley","status":"PENDING","awb":"14876577908","isDynamicPoint":false,"reachTime":0,"deliveryTime":0,"deliveryLat":0,"deliveryLng":0,"clusterId":null,"address":{"id":"491733c5-dd44-4628-909f-b9cf1de4a53e","address":"1260 SY 35/4 SJR Tower's, 24th Main Puttanhalli, JP Nagar 7th Phase, Bangalore","lat":12.9003937,"lng":77.5858415,"orderId":"70375aa5-dd5d-4e88-baa4-e76b0e14d9d6"}},{"id":"e9f98bd0-b6af-43f1-978c-2d0f4ceafb9e","productId":"SKU_29","name":"Mabel Covell","status":"PENDING","awb":"86868052143","isDynamicPoint":false,"reachTime":0,"deliveryTime":0,"deliveryLat":0,"deliveryLng":0,"clusterId":null,"address":{"id":"ada58c52-74bc-47cf-8000-bb2c06f599b4","address":"10/3, Shamanna Garden, 22nd Main Rd, Phase 5, JP Nagar, Bangalore","lat":12.9037401,"lng":77.5870418,"orderId":"e9f98bd0-b6af-43f1-978c-2d0f4ceafb9e"}},{"id":"61f59a33-9bb2-4c6f-bba9-fb44bada5932","productId":"SKU_74","name":"Daren Devit","status":"PENDING","awb":"82980897770","isDynamicPoint":false,"reachTime":0,"deliveryTime":0,"deliveryLat":0,"deliveryLng":0,"clusterId":null,"address":{"id":"0fc3d445-ec1e-46ba-8f47-10949eba0895","address":"Amoolya, 1st Floor, 24th Main, 6th Phase, JP Nagar, Bangalore","lat":12.9088826,"lng":77.5857567,"orderId":"61f59a33-9bb2-4c6f-bba9-fb44bada5932"}},{"id":"b4853bfe-33a0-4315-a33d-b3fa741c0360","productId":"SKU_147","name":"Richard Book","status":"PENDING","awb":"60730226124","isDynamicPoint":false,"reachTime":0,"deliveryTime":0,"deliveryLat":0,"deliveryLng":0,"clusterId":null,"address":{"id":"4a2e51e9-4d4a-4fed-aaea-41491843a0bc","address":"104/1, 21st Main Road, 6th Cross Road, R K Colony, JP Nagar 2nd Phase, Bangalore","lat":12.9123174,"lng":77.58784109999999,"orderId":"b4853bfe-33a0-4315-a33d-b3fa741c0360"}},{"id":"bd059922-83d0-4fe8-94e0-8efe3b0f81e3","productId":"SKU_144","name":"Vickie Ramos","status":"PENDING","awb":"62201852038","isDynamicPoint":false,"reachTime":0,"deliveryTime":0,"deliveryLat":0,"deliveryLng":0,"clusterId":null,"address":{"id":"458a174d-1145-4b3b-a661-6e91cde43cbe","address":"6, Shakambari Nagar, 1st stage, JP Nagar, Bangalore","lat":12.9120799,"lng":77.5745235,"orderId":"bd059922-83d0-4fe8-94e0-8efe3b0f81e3"}},{"id":"19bd70cc-368f-470b-91e8-173555880bce","productId":"SKU_38","name":"Anna Kelly","status":"PENDING","awb":"76031744666","isDynamicPoint":false,"reachTime":0,"deliveryTime":0,"deliveryLat":0,"deliveryLng":0,"clusterId":null,"address":{"id":"c291b666-9a40-42b8-be0f-717172ace305","address":"281, 2nd Floor, 15th Cross, 5th Phase, JP Nagar, Bangalore","lat":12.9063958,"lng":77.5886106,"orderId":"19bd70cc-368f-470b-91e8-173555880bce"}},{"id":"f8dce370-440d-4524-be6b-8f34dfd3c3c0","productId":"SKU_98","name":"Mildred Richards","status":"PENDING","awb":"73908465584","isDynamicPoint":false,"reachTime":0,"deliveryTime":0,"deliveryLat":0,"deliveryLng":0,"clusterId":null,"address":{"id":"3ef7e586-8e8d-4d66-89fb-4d4d717d5ddc","address":"44-45, Terrace Floor, 24th Main Road, 7th phase, JP Nagar, Bangalore","lat":12.8982804,"lng":77.5858544,"orderId":"f8dce370-440d-4524-be6b-8f34dfd3c3c0"}},{"id":"46827a5e-bc28-4925-9607-89fa9b4e4e8c","productId":"SKU_141","name":"Jesse Chan","status":"PENDING","awb":"27632908686","isDynamicPoint":false,"reachTime":0,"deliveryTime":0,"deliveryLat":0,"deliveryLng":0,"clusterId":null,"address":{"id":"5330781b-6f2c-4ba4-8b78-964ac25daebf","address":"21, 24th Main Road, 6th Phase, JP Nagar, Bangalore","lat":12.9029512,"lng":77.58562049999999,"orderId":"46827a5e-bc28-4925-9607-89fa9b4e4e8c"}},{"id":"563cd8ce-2f6b-4428-8d57-c48576ac2e80","productId":"SKU_113","name":"Linda Kurland","status":"PENDING","awb":"60104333056","isDynamicPoint":false,"reachTime":0,"deliveryTime":0,"deliveryLat":0,"deliveryLng":0,"clusterId":null,"address":{"id":"a28a5490-dd29-4bda-901c-9bf19734f38a","address":"954, 2nd Floor, 24th Main, 2nd Phase, Opposite LIC Building, JP Nagar, Bangalore","lat":12.9115788,"lng":77.5857133,"orderId":"563cd8ce-2f6b-4428-8d57-c48576ac2e80"}},{"id":"89b1bcf8-af25-49b9-9f55-9b8d5371e5ba","productId":"SKU_16","name":"Frank Garcia","status":"PENDING","awb":"36774055970","isDynamicPoint":false,"reachTime":0,"deliveryTime":0,"deliveryLat":0,"deliveryLng":0,"clusterId":null,"address":{"id":"423ba51c-6c46-4e44-a3aa-2eda7be0adaf","address":"Eden Park7, 8 Doresani Palya, Near Kalyani Magnum, Opposite Oracle, 5th Phase, JP Nagar, Bangalore","lat":12.901773,"lng":77.594978,"orderId":"89b1bcf8-af25-49b9-9f55-9b8d5371e5ba"}},{"id":"bf014935-6f6a-4afd-b195-c9e8aa218eeb","productId":"SKU_92","name":"Daniel Moore","status":"PENDING","awb":"81028594970","isDynamicPoint":false,"reachTime":0,"deliveryTime":0,"deliveryLat":0,"deliveryLng":0,"clusterId":null,"address":{"id":"10a78404-5e65-40f2-831a-4578f57f538d","address":"57, 15th Cross Road, Outer Ring Road, Phase 6, JP Nagar, Bangalore","lat":12.9070991,"lng":77.5996462,"orderId":"bf014935-6f6a-4afd-b195-c9e8aa218eeb"}},{"id":"66f05c78-13a7-4cda-9aeb-21b32b2b3275","productId":"SKU_59","name":"Angela Cowman","status":"PENDING","awb":"87207515803","isDynamicPoint":false,"reachTime":0,"deliveryTime":0,"deliveryLat":0,"deliveryLng":0,"clusterId":null,"address":{"id":"1a3f2ac5-f923-471a-a2f6-851c10302819","address":"18th Cross road, 5th Phase, JP Nagar, Bangalore","lat":12.9032116,"lng":77.5877971,"orderId":"66f05c78-13a7-4cda-9aeb-21b32b2b3275"}},{"id":"2d67d1b8-23ac-44e6-99fa-a6f8379ea3bd","productId":"SKU_58","name":"Lidia Wickham","status":"PENDING","awb":"71217404672","isDynamicPoint":false,"reachTime":0,"deliveryTime":0,"deliveryLat":0,"deliveryLng":0,"clusterId":null,"address":{"id":"b05682cf-507c-4cf1-b22d-7fefff00a3dd","address":"81, 7th Main, 5th Cross, Bank of Baroda Colony, 7th Phase, JP Nagar, Bangalore","lat":12.9059478,"lng":77.6058923,"orderId":"2d67d1b8-23ac-44e6-99fa-a6f8379ea3bd"}},{"id":"1b7a4c18-f650-4f3d-add9-a0b9ddde16f3","productId":"SKU_103","name":"Martha Braun","status":"PENDING","awb":"60270106051","isDynamicPoint":false,"reachTime":0,"deliveryTime":0,"deliveryLat":0,"deliveryLng":0,"clusterId":null,"address":{"id":"c282bef1-d0e9-4079-855f-91cea0eb7be1","address":"296, Ground Floor, 5th Phase, 100 ft Outer Ring Road, JP Nagar, Bangalore","lat":12.906285,"lng":77.5874455,"orderId":"1b7a4c18-f650-4f3d-add9-a0b9ddde16f3"}},{"id":"40900cc6-571c-40b5-b296-d1e7cd3af98f","productId":"SKU_45","name":"Brian Glass","status":"PENDING","awb":"98072567575","isDynamicPoint":false,"reachTime":0,"deliveryTime":0,"deliveryLat":0,"deliveryLng":0,"clusterId":null,"address":{"id":"31a4ac45-95d4-46f2-acd0-e77e0ab44304","address":"5th Cross Road, Dollar Layout, 3rd Phase, JP Nagar, Bangalore","lat":12.9066907,"lng":77.602318,"orderId":"40900cc6-571c-40b5-b296-d1e7cd3af98f"}},{"id":"cc409fc7-174f-4a42-a60c-818985b7dc32","productId":"SKU_15","name":"Louise Lynch","status":"PENDING","awb":"15743308603","isDynamicPoint":false,"reachTime":0,"deliveryTime":0,"deliveryLat":0,"deliveryLng":0,"clusterId":null,"address":{"id":"0bfe586e-0943-4906-bd4e-81a47b1cbdea","address":"1260, SY 35/4, SJR Towers, 24th Main Puttanhalli, 7th Phase, JP Nagar, Bangalore","lat":12.9156577,"lng":77.5994159,"orderId":"cc409fc7-174f-4a42-a60c-818985b7dc32"}},{"id":"a94a48f2-f94d-48d3-87d6-45dfc3cef3de","productId":"SKU_83","name":"Sam Vest","status":"PENDING","awb":"96594637899","isDynamicPoint":false,"reachTime":0,"deliveryTime":0,"deliveryLat":0,"deliveryLng":0,"clusterId":null,"address":{"id":"e522bfab-9309-4481-aea0-9eeb41f17c1b","address":"1260 SY 35/4 SJR Tower's, JP Nagar 7th Phase, 24th Main Puttanhalli, JP Nagar, Bangalore","lat":12.9003937,"lng":77.5858415,"orderId":"a94a48f2-f94d-48d3-87d6-45dfc3cef3de"}},{"id":"ea459a98-6efb-4a77-b421-93eec6792feb","productId":"SKU_13","name":"James Rego","status":"PENDING","awb":"72346908029","isDynamicPoint":false,"reachTime":0,"deliveryTime":0,"deliveryLat":0,"deliveryLng":0,"clusterId":null,"address":{"id":"eba46a06-1e25-4a7f-9442-c895f6bfcb94","address":"97, Wilson Garden Housing Society, 7th Phase, JP Nagar, Bangalore","lat":12.8978624,"lng":77.58450839999999,"orderId":"ea459a98-6efb-4a77-b421-93eec6792feb"}},{"id":"d201d9ce-94e6-46c1-8c9f-09f361435485","productId":"SKU_91","name":"Daniel Tremper","status":"PENDING","awb":"95782788535","isDynamicPoint":false,"reachTime":0,"deliveryTime":0,"deliveryLat":0,"deliveryLng":0,"clusterId":null,"address":{"id":"37906051-d418-4a54-813f-c9ad1c1b2e94","address":"Shop 1, 129, 24th Main, 5th Phase, JP Nagar, Bangalore","lat":12.9038753,"lng":77.58590679999999,"orderId":"d201d9ce-94e6-46c1-8c9f-09f361435485"}},{"id":"d3731fff-e8ff-44d2-8dc5-3163b6830384","productId":"SKU_95","name":"Jason Taylor","status":"PENDING","awb":"50570222462","isDynamicPoint":false,"reachTime":0,"deliveryTime":0,"deliveryLat":0,"deliveryLng":0,"clusterId":null,"address":{"id":"23dc786c-acc2-4a5d-b5d4-e89fabfb06f7","address":"Someshwara Bhavan, RBI Layout, 7th Phase, Kothnur Main Road, JP Nagar, Bangalore","lat":12.8838109,"lng":77.5829501,"orderId":"d3731fff-e8ff-44d2-8dc5-3163b6830384"}},{"id":"7b133461-5f4c-4df5-83e2-09f8f1c29a0b","productId":"SKU_144","name":"John Dutton","status":"PENDING","awb":"85830764356","isDynamicPoint":false,"reachTime":0,"deliveryTime":0,"deliveryLat":0,"deliveryLng":0,"clusterId":null,"address":{"id":"f3ef756b-5bed-4efb-b8a4-2cf2de9a71c5","address":"77/1, 24th Main, 2nd Phase, JP Nagar, Bangalore","lat":12.9158698,"lng":77.5860082,"orderId":"7b133461-5f4c-4df5-83e2-09f8f1c29a0b"}},{"id":"ba4ae87e-847d-4ec3-91be-1b040a2437a8","productId":"SKU_9","name":"Ronnie Cameron","status":"PENDING","awb":"49180403091","isDynamicPoint":false,"reachTime":0,"deliveryTime":0,"deliveryLat":0,"deliveryLng":0,"clusterId":null,"address":{"id":"86ef152f-a1b4-4f7e-992d-42a164a9565a","address":"Amoolya, 1st Floor, 24th Main, 6th Phase, JP Nagar, Bangalore","lat":12.9088826,"lng":77.5857567,"orderId":"ba4ae87e-847d-4ec3-91be-1b040a2437a8"}},{"id":"beeed08b-d2d7-43eb-959f-dccbab4c8363","productId":"SKU_44","name":"Miguel Evanoff","status":"PENDING","awb":"32162999926","isDynamicPoint":false,"reachTime":0,"deliveryTime":0,"deliveryLat":0,"deliveryLng":0,"clusterId":null,"address":{"id":"d64bb4b0-8850-4414-ab21-e78c59b725f0","address":"The HHI Select Bengaluru Hotel, 686, 15th Cross, Ring Road, 2nd Phase, JP Nagar, Bangalore","lat":12.9065794,"lng":77.5929269,"orderId":"beeed08b-d2d7-43eb-959f-dccbab4c8363"}},{"id":"92ea7e55-7336-44d5-be4b-dc21deabbb34","productId":"SKU_143","name":"Doris Floyd","status":"PENDING","awb":"75423501902","isDynamicPoint":false,"reachTime":0,"deliveryTime":0,"deliveryLat":0,"deliveryLng":0,"clusterId":null,"address":{"id":"b359514f-190b-4f7d-8520-586ac769b468","address":"1260, SY 35/4, SJR Towers, 24th Main Puttanhalli, 7th Phase, JP Nagar, Bangalore","lat":12.9156577,"lng":77.5994159,"orderId":"92ea7e55-7336-44d5-be4b-dc21deabbb34"}},{"id":"512def11-981d-4a9c-98f3-c838b725c884","productId":"SKU_134","name":"Johnny Runyan","status":"PENDING","awb":"66314622688","isDynamicPoint":false,"reachTime":0,"deliveryTime":0,"deliveryLat":0,"deliveryLng":0,"clusterId":null,"address":{"id":"a5dbed8b-e934-4dcb-9502-5bf857f2d3bc","address":"99/4, Nataraja Layout, 7th Phase, JP Nagar, Bangalore","lat":12.8897963,"lng":77.58558289999999,"orderId":"512def11-981d-4a9c-98f3-c838b725c884"}},{"id":"d936b756-ce96-4655-832e-160d9f7f29a5","productId":"SKU_77","name":"William Rivera","status":"PENDING","awb":"60615787248","isDynamicPoint":false,"reachTime":0,"deliveryTime":0,"deliveryLat":0,"deliveryLng":0,"clusterId":null,"address":{"id":"d136755f-6f7c-4173-b543-2a82a5029e68","address":"99/2A, Kothnoor Main Road, Opposite RBI Layout Bus Stop, 7th Phase, JP Nagar, Bangalore","lat":12.8902416,"lng":77.58212879999999,"orderId":"d936b756-ce96-4655-832e-160d9f7f29a5"}},{"id":"f4730e84-3a93-48c3-9c08-847ab05e7fb5","productId":"SKU_123","name":"Edward Leon","status":"PENDING","awb":"62376246282","isDynamicPoint":false,"reachTime":0,"deliveryTime":0,"deliveryLat":0,"deliveryLng":0,"clusterId":null,"address":{"id":"e780ae64-9e97-4340-aaae-d8b6fad27ba3","address":"1260, SY 35/4, SJR Tower's, 7th Phase, 24th Main Puttanhalli, JP Nagar, Bangalore","lat":12.9156577,"lng":77.5994159,"orderId":"f4730e84-3a93-48c3-9c08-847ab05e7fb5"}},{"id":"de680d76-59b5-4096-95ca-a7b5e646fd5b","productId":"SKU_141","name":"Michael Parenteau","status":"PENDING","awb":"34763837898","isDynamicPoint":false,"reachTime":0,"deliveryTime":0,"deliveryLat":0,"deliveryLng":0,"clusterId":null,"address":{"id":"4d030016-f6fb-4598-bd80-21fb1e0dc8be","address":"1260 SY 35/4 SJR Tower's, JP Nagar 7th Phase, 24th Main Puttanhalli, JP Nagar, Bangalore","lat":12.9003937,"lng":77.5858415,"orderId":"de680d76-59b5-4096-95ca-a7b5e646fd5b"}},{"id":"04410069-8290-4d92-93e7-f85bfaa6e908","productId":"SKU_51","name":"Elijah Reno","status":"PENDING","awb":"69289578038","isDynamicPoint":false,"reachTime":0,"deliveryTime":0,"deliveryLat":0,"deliveryLng":0,"clusterId":null,"address":{"id":"9d095596-1210-4f4b-9f22-343f4036a0f9","address":"Brigade Millenium Inside Indian Music Experience Museum, JP Nagar, Bangalore, Bengaluru","lat":12.8917987,"lng":77.58368610000001,"orderId":"04410069-8290-4d92-93e7-f85bfaa6e908"}}]}