{"noOfOrders":886,"noOfRiders":50,"warehouseLocation":{"lat":12.971599,"lng":77.638725},"consignments":[{"id":"f13034a6-3b81-4a6f-8fee-ebdf0fe921d5","productId":"SKU_112","name":"Michael Alexander","status":"PENDING","awb":"69992897378","isDynamicPoint":false,"reachTime":0,"deliveryTime":0,"deliveryLat":0,"deliveryLng":0,"clusterId":null,"address":{"id":"c9da37d0-e79b-4109-8b39-504aaaaf6a8a","address":"100, 8th Cross Rd, Old Madiwala, Chikka Madivala, 1st Stage, BTM 1st Stage, Bengaluru, Karnataka 560068","lat":12.9196888,"lng":77.6138921,"orderId":"f13034a6-3b81-4a6f-8fee-ebdf0fe921d5"}},{"id":"f869874a-f621-4f42-9192-f27576006497","productId":"SKU_122","name":"Karen Jacobson","status":"PENDING","awb":"67450945394","isDynamicPoint":false,"reachTime":0,"deliveryTime":0,"deliveryLat":0,"deliveryLng":0,"clusterId":null,"address":{"id":"5a036f72-72d4-49ac-83a0-5abdc967f197","address":"17th cross(old aishwarya bakery), J P Nagar Phase 5, 5th Block,, 8, 15th Main Rd, Nanjundeswara Layout, J. P. Nagar, Bengaluru, Karnataka 560078","lat":12.9033045,"lng":77.59173849999999,"orderId":"f869874a-f621-4f42-9192-f27576006497"}},{"id":"4db67465-b8e7-40c5-a1de-7e8e267266bd","productId":"SKU_135","name":"Betty Barnes","status":"PENDING","awb":"73460160559","isDynamicPoint":false,"reachTime":0,"deliveryTime":0,"deliveryLat":0,"deliveryLng":0,"clusterId":null,"address":{"id":"6aa03169-fae5-46e8-a37b-7a5af984dcf3","address":"33, 1st Main Rd, Bharathi Layout, Ramappa layout, 1st Stage, S.G. Palya, Bengaluru, Karnataka 560029","lat":12.9309967,"lng":77.60686199999999,"orderId":"4db67465-b8e7-40c5-a1de-7e8e267266bd"}},{"id":"3f3354a3-936f-414e-93e0-5e4a32f34e11","productId":"SKU_125","name":"Albert Cook","status":"PENDING","awb":"39034518848","isDynamicPoint":false,"reachTime":0,"deliveryTime":0,"deliveryLat":0,"deliveryLng":0,"clusterId":null,"address":{"id":"4d21a6b1-69e3-4236-af3b-e01aac8bd96a","address":"76, 4th Cross Rd, Tavarekere, Balaji Nagar, S.G. Palya, Bengaluru, Karnataka 560029","lat":12.9266212,"lng":77.60619679999999,"orderId":"3f3354a3-936f-414e-93e0-5e4a32f34e11"}},{"id":"a7e40fc4-4d6f-47b1-bfff-d5a5378e8687","productId":"SKU_103","name":"Ida Gantner","status":"PENDING","awb":"48226538523","isDynamicPoint":false,"reachTime":0,"deliveryTime":0,"deliveryLat":0,"deliveryLng":0,"clusterId":null,"address":{"id":"dfd781b8-e5e5-4580-acc2-caecd71edbec","address":"Opposite Brigade Palm Springs, 1231/35/2, Brigade Millenium Rd, JP Nagar 7th Phase, Bengaluru, Karnataka 560076","lat":12.8939904,"lng":77.5865678,"orderId":"a7e40fc4-4d6f-47b1-bfff-d5a5378e8687"}},{"id":"d71e6bf2-8da1-4bc6-9ff5-92bf2e06382f","productId":"SKU_93","name":"Kathleen Vaughn","status":"PENDING","awb":"40172216054","isDynamicPoint":false,"reachTime":0,"deliveryTime":0,"deliveryLat":0,"deliveryLng":0,"clusterId":null,"address":{"id":"2b1027c7-83b0-4daa-b47e-e763921074df","address":"27, 2nd Main Rd, Sadduguntepalya, Maruti Nagar, 1st Stage, BTM Layout, Bengaluru, Karnataka 560029","lat":12.9252902,"lng":77.61175639999999,"orderId":"d71e6bf2-8da1-4bc6-9ff5-92bf2e06382f"}},{"id":"26b6c479-a2ce-4857-a84f-30b5e7ea3ac4","productId":"SKU_43","name":"Mary Mckeon","status":"PENDING","awb":"24245575468","isDynamicPoint":false,"reachTime":0,"deliveryTime":0,"deliveryLat":0,"deliveryLng":0,"clusterId":null,"address":{"id":"fa65112d-8a1a-4024-b2ca-ef65bea837d0","address":"WHGP+W5F, 10th B Main Rd, 4th T Block East, 4th Block, Jayanagar, Bengaluru, Karnataka 560011","lat":12.9274341,"lng":77.5858028,"orderId":"26b6c479-a2ce-4857-a84f-30b5e7ea3ac4"}},{"id":"2ab4980d-9ac8-4e2b-af81-092aa5355b2c","productId":"SKU_150","name":"Harold Gaffigan","status":"PENDING","awb":"33019603213","isDynamicPoint":false,"reachTime":0,"deliveryTime":0,"deliveryLat":0,"deliveryLng":0,"clusterId":null,"address":{"id":"c7344391-f227-4878-b13b-2480ba532150","address":"296, 24th Main Rd, 6th Phase, KR Layout, JP Nagar Phase 6, J. P. Nagar, Bengaluru, Karnataka 560078","lat":12.9037794,"lng":77.5856534,"orderId":"2ab4980d-9ac8-4e2b-af81-092aa5355b2c"}},{"id":"9657f926-9fc2-421f-8226-6c39b6fca107","productId":"SKU_25","name":"Nancy Sellner","status":"PENDING","awb":"67346045114","isDynamicPoint":false,"reachTime":0,"deliveryTime":0,"deliveryLat":0,"deliveryLng":0,"clusterId":null,"address":{"id":"71d8a904-11e8-4114-bda5-c9f0694d6255","address":"3, Hosur Rd, Chikku Lakshmaiah Layout, Adugodi, Bengaluru, Karnataka 560029","lat":12.9436141,"lng":77.6078744,"orderId":"9657f926-9fc2-421f-8226-6c39b6fca107"}},{"id":"35b32ca6-5ee5-4875-bb51-d42d1521fcd4","productId":"SKU_2","name":"Betty Roberts","status":"PENDING","awb":"29973262231","isDynamicPoint":false,"reachTime":0,"deliveryTime":0,"deliveryLat":0,"deliveryLng":0,"clusterId":null,"address":{"id":"f26aeb0e-cbbd-4b03-bf6f-bc948f153bca","address":"16, 22nd Cross Rd, EWS Colony, BTM 2nd Stage, BTM Layout, Bengaluru, Karnataka 560076","lat":12.9057456,"lng":77.61171619999999,"orderId":"35b32ca6-5ee5-4875-bb51-d42d1521fcd4"}},{"id":"be8dde54-0758-405c-b555-6f7ec9854647","productId":"SKU_130","name":"Dennis Aberle","status":"PENDING","awb":"40541849026","isDynamicPoint":false,"reachTime":0,"deliveryTime":0,"deliveryLat":0,"deliveryLng":0,"clusterId":null,"address":{"id":"512b3152-d2da-432b-a0a9-22b9b1b59bbb","address":"288, Ground Floor, 15th Cross, 18th Main, 5th Phase, Opposite Hindustan Petroleum Corporation Limited, J. P. Nagar, Bengaluru, Karnataka 560078","lat":12.906279,"lng":77.5759521,"orderId":"be8dde54-0758-405c-b555-6f7ec9854647"}},{"id":"829cbc7b-2c86-43b4-8f36-040a27ad36c1","productId":"SKU_92","name":"Phyllis Roper","status":"PENDING","awb":"55852819962","isDynamicPoint":false,"reachTime":0,"deliveryTime":0,"deliveryLat":0,"deliveryLng":0,"clusterId":null,"address":{"id":"66ab2f0c-dfd6-4237-9987-b73586801454","address":"Sai Plaza, 7th Cross Rd, Above Pizza Hut, BTM 2nd Stage, BTM Layout, Bengaluru, Karnataka 560076","lat":12.9140298,"lng":77.6089332,"orderId":"829cbc7b-2c86-43b4-8f36-040a27ad36c1"}},{"id":"76f7cdf1-1bf1-47cd-beff-d2a48d1c95c6","productId":"SKU_146","name":"Gail Segraves","status":"PENDING","awb":"88909159201","isDynamicPoint":false,"reachTime":0,"deliveryTime":0,"deliveryLat":0,"deliveryLng":0,"clusterId":null,"address":{"id":"f59546f8-bb03-4c84-91b4-d2e78e058b2f","address":"17, K.R.Colony, Krishna Reddy Layout, Domlur, Bengaluru, Karnataka 560071","lat":12.9560195,"lng":77.6368664,"orderId":"76f7cdf1-1bf1-47cd-beff-d2a48d1c95c6"}},{"id":"7b581307-16d5-4283-ab82-43335ed6aeed","productId":"SKU_77","name":"Alexis Frasier","status":"PENDING","awb":"58254350974","isDynamicPoint":false,"reachTime":0,"deliveryTime":0,"deliveryLat":0,"deliveryLng":0,"clusterId":null,"address":{"id":"adad7cbd-b677-4be4-b81d-92da8bfeacc6","address":"1009 Vijaya Bank layout, BTM 4th Stage, Bengaluru, Karnataka 560076","lat":12.8851954,"lng":77.615875,"orderId":"7b581307-16d5-4283-ab82-43335ed6aeed"}},{"id":"bc253088-83d9-4eed-8bdf-4dd111afd0b0","productId":"SKU_54","name":"Laura Covington","status":"PENDING","awb":"24592086894","isDynamicPoint":false,"reachTime":0,"deliveryTime":0,"deliveryLat":0,"deliveryLng":0,"clusterId":null,"address":{"id":"6527d32a-336c-4c9f-b8c7-fcac9ca355cf","address":"949, 16th Main Rd, BTM 2nd Stage, Kuvempu Nagar, BTM 2nd Stage, BTM Layout, Bengaluru, Karnataka 560076","lat":12.9138089,"lng":77.6102415,"orderId":"bc253088-83d9-4eed-8bdf-4dd111afd0b0"}},{"id":"1e5d7479-4623-48ec-a1fc-ab979f332209","productId":"SKU_148","name":"Jacob Godbee","status":"PENDING","awb":"74281553359","isDynamicPoint":false,"reachTime":0,"deliveryTime":0,"deliveryLat":0,"deliveryLng":0,"clusterId":null,"address":{"id":"8be4549f-4e57-418d-872c-e892f1c8044c","address":"450, Outer Ring Rd, J P Nagar Phase 5, J. P. Nagar, Bengaluru, Karnataka 560078","lat":12.9061205,"lng":77.5903211,"orderId":"1e5d7479-4623-48ec-a1fc-ab979f332209"}},{"id":"80e83971-bcb1-4bd2-a574-2e5af5730927","productId":"SKU_134","name":"Gordon Majure","status":"PENDING","awb":"41673276066","isDynamicPoint":false,"reachTime":0,"deliveryTime":0,"deliveryLat":0,"deliveryLng":0,"clusterId":null,"address":{"id":"a1cf9bfc-0de7-4584-8d65-b58b8fe4bb96","address":"WJ45+WFV, Mahadeshwara Nagar, Stage 2, BTM Layout, Bengaluru, Karnataka 560076","lat":12.9101193,"lng":77.6074367,"orderId":"80e83971-bcb1-4bd2-a574-2e5af5730927"}},{"id":"29730ee7-9fda-45a9-a8e3-6d14ba0ff3c6","productId":"SKU_67","name":"Terry Le","status":"PENDING","awb":"73455765016","isDynamicPoint":false,"reachTime":0,"deliveryTime":0,"deliveryLat":0,"deliveryLng":0,"clusterId":null,"address":{"id":"28d854ac-5d7b-44dc-b7d1-f9a1b4061383","address":"3B/358,25th main, 22nd Cross Rd, Sector 2, HSR Layout, Bengaluru, Karnataka 560102","lat":12.9087076,"lng":77.6509179,"orderId":"29730ee7-9fda-45a9-a8e3-6d14ba0ff3c6"}},{"id":"42661432-2c6e-4ca4-ac62-e14bc5292288","productId":"SKU_29","name":"Betty Martin","status":"PENDING","awb":"23338698410","isDynamicPoint":false,"reachTime":0,"deliveryTime":0,"deliveryLat":0,"deliveryLng":0,"clusterId":null,"address":{"id":"c951d72b-42d1-4166-8a8f-e56e9f9a26d0","address":"15/A, 4th Main Rd, 2nd Byrappa Block, Thyagaraja Nagar, Jayanagar, Bengaluru, Karnataka 560070","lat":12.9307678,"lng":77.5696048,"orderId":"42661432-2c6e-4ca4-ac62-e14bc5292288"}},{"id":"d4a3b30e-e655-4b54-9254-1b8574cf4262","productId":"SKU_91","name":"Joseph Nava","status":"PENDING","awb":"19838288621","isDynamicPoint":false,"reachTime":0,"deliveryTime":0,"deliveryLat":0,"deliveryLng":0,"clusterId":null,"address":{"id":"3c17b105-2f4b-4887-8bc5-2c84df2b7bad","address":"No 1, KDP Building, Kira layout, Hosur Rd, near Christ Lane, S.G. Palya, Bengaluru, Karnataka 560029","lat":12.9345768,"lng":77.6095445,"orderId":"d4a3b30e-e655-4b54-9254-1b8574cf4262"}},{"id":"84b0880c-54f9-4f66-84d0-a82d2d9b83f9","productId":"SKU_32","name":"Bradley Garcia","status":"PENDING","awb":"21413865998","isDynamicPoint":false,"reachTime":0,"deliveryTime":0,"deliveryLat":0,"deliveryLng":0,"clusterId":null,"address":{"id":"105b5f2c-9e9f-4694-ba66-2d5821148032","address":"1/1, First Floor, 100 Feet Ring Road, Near Water Tank, BTM 1st Stage, Bengaluru, Karnataka 560029","lat":12.9164208,"lng":77.6119082,"orderId":"84b0880c-54f9-4f66-84d0-a82d2d9b83f9"}},{"id":"413488ad-74a9-463b-9f1d-88f7e0cd963e","productId":"SKU_55","name":"Andy Mays","status":"PENDING","awb":"52080516405","isDynamicPoint":false,"reachTime":0,"deliveryTime":0,"deliveryLat":0,"deliveryLng":0,"clusterId":null,"address":{"id":"4a10b246-b446-4e23-b084-56015d97f09b","address":"55, 32nd Cross Road, 5, 13th Main Rd, 4th T Block East, Jayanagar, Bengaluru, Karnataka 560011","lat":12.9287937,"lng":77.5868842,"orderId":"413488ad-74a9-463b-9f1d-88f7e0cd963e"}},{"id":"4ddb6875-d8b4-4cb9-bb1c-a655ea6e0cb7","productId":"SKU_92","name":"Ryan Cheung","status":"PENDING","awb":"92828274872","isDynamicPoint":false,"reachTime":0,"deliveryTime":0,"deliveryLat":0,"deliveryLng":0,"clusterId":null,"address":{"id":"7f2aac3d-c0e4-48dd-8670-c20d85ba23f4","address":"WHQ7+WMG, Mount Joy Extension, Hanumanthnagar, Banashankari 1st Stage, Banashankari, Bengaluru, Karnataka 560019","lat":12.9410072,"lng":77.5640913,"orderId":"4ddb6875-d8b4-4cb9-bb1c-a655ea6e0cb7"}},{"id":"530fc562-02a7-4d96-97db-e321587b208e","productId":"SKU_132","name":"Frances King","status":"PENDING","awb":"62424212917","isDynamicPoint":false,"reachTime":0,"deliveryTime":0,"deliveryLat":0,"deliveryLng":0,"clusterId":null,"address":{"id":"478cfcf4-67a3-4831-8a8b-3b4f21b21b2d","address":"WJF7+JW5, Maruthi Nagar Main Rd, Opposite to Super gas station, Old Madiwala, Madiwala, 1st Stage, BTM Layout, Bengaluru, Karnataka 560068","lat":12.9228191,"lng":77.6144003,"orderId":"530fc562-02a7-4d96-97db-e321587b208e"}},{"id":"9cd16f2f-5e3b-4dff-ac6d-ea8fa6532040","productId":"SKU_116","name":"Frederick Franklin","status":"PENDING","awb":"98528010176","isDynamicPoint":false,"reachTime":0,"deliveryTime":0,"deliveryLat":0,"deliveryLng":0,"clusterId":null,"address":{"id":"e9581d5d-e716-4a08-b236-da6817e2d432","address":"707,1B Main road, Kanakapura road, 8th block, Jayanagar Near Banashankari bus stop, Bengaluru, Karnataka 560082","lat":12.9275851,"lng":77.57569149999999,"orderId":"9cd16f2f-5e3b-4dff-ac6d-ea8fa6532040"}},{"id":"2faa524c-fb4f-4188-bfad-2f44f71f56fd","productId":"SKU_114","name":"Charles Davis","status":"PENDING","awb":"89559709300","isDynamicPoint":false,"reachTime":0,"deliveryTime":0,"deliveryLat":0,"deliveryLng":0,"clusterId":null,"address":{"id":"979cec24-7286-4ced-ae9e-53d52eeb31d1","address":"No.8, 2nd Main Rd, Tavarekere, Chikka Adugodi, S.G. Palya, Bengaluru, Karnataka 560029","lat":12.9281293,"lng":77.6104609,"orderId":"2faa524c-fb4f-4188-bfad-2f44f71f56fd"}},{"id":"e1a19581-6054-4c68-836b-f0610be25f15","productId":"SKU_35","name":"Lisa Hickman","status":"PENDING","awb":"24512107791","isDynamicPoint":false,"reachTime":0,"deliveryTime":0,"deliveryLat":0,"deliveryLng":0,"clusterId":null,"address":{"id":"f22c0e87-f3e9-48e8-9f2f-fd18cfb88e47","address":"WJ45+WFV, Mahadeshwara Nagar, Stage 2, BTM Layout, Bengaluru, Karnataka 560076","lat":12.9101193,"lng":77.6074367,"orderId":"e1a19581-6054-4c68-836b-f0610be25f15"}},{"id":"f66f47b4-bc87-4a4f-8520-78d30714d3a1","productId":"SKU_116","name":"Michael Palmer","status":"PENDING","awb":"56839054410","isDynamicPoint":false,"reachTime":0,"deliveryTime":0,"deliveryLat":0,"deliveryLng":0,"clusterId":null,"address":{"id":"37443877-498f-4c84-876f-3a14b9c57dd5","address":"Kottapalya, Jayanagara 9th Block, Jayanagar, Bengaluru, Karnataka 560041","lat":12.9183084,"lng":77.5913132,"orderId":"f66f47b4-bc87-4a4f-8520-78d30714d3a1"}},{"id":"e6cd0295-291f-4208-a432-74a58067e001","productId":"SKU_68","name":"Lorraine Lugones","status":"PENDING","awb":"70872702849","isDynamicPoint":false,"reachTime":0,"deliveryTime":0,"deliveryLat":0,"deliveryLng":0,"clusterId":null,"address":{"id":"ffe336ef-1dc9-4e3a-9c18-30eaf7c40e3b","address":"1/1, First Floor, 100 Feet Ring Road, Near Water Tank, BTM 1st Stage, Bengaluru, Karnataka 560029","lat":12.9164208,"lng":77.6119082,"orderId":"e6cd0295-291f-4208-a432-74a58067e001"}},{"id":"dd6cb0d0-826c-4b16-846c-235c42c1464f","productId":"SKU_49","name":"Katie Law","status":"PENDING","awb":"47492322829","isDynamicPoint":false,"reachTime":0,"deliveryTime":0,"deliveryLat":0,"deliveryLng":0,"clusterId":null,"address":{"id":"9bceafe7-3d41-41d5-a771-27c80763e006","address":"776, 775, 16th Main Rd, BTM 2nd Stage, Kuvempu Nagar, Stage 2, BTM Layout, Bengaluru, Karnataka 560076","lat":12.9142382,"lng":77.60999559999999,"orderId":"dd6cb0d0-826c-4b16-846c-235c42c1464f"}},{"id":"c9e1d5b8-48bf-4cb9-8986-c34fe5935d52","productId":"SKU_92","name":"Mark Walker","status":"PENDING","awb":"90237847420","isDynamicPoint":false,"reachTime":0,"deliveryTime":0,"deliveryLat":0,"deliveryLng":0,"clusterId":null,"address":{"id":"bf947ca5-419c-47cf-895c-923db9b90b28","address":"WJC7+PV9, Old Madiwala, Chikka Madivala, 1st Stage, BTM Layout, Bengaluru, Karnataka 560068","lat":12.920887,"lng":77.6156642,"orderId":"c9e1d5b8-48bf-4cb9-8986-c34fe5935d52"}},{"id":"a8b6b5d5-f5a2-40f6-b3a6-07dc7cba049c","productId":"SKU_135","name":"Laura Newton","status":"PENDING","awb":"43553490178","isDynamicPoint":false,"reachTime":0,"deliveryTime":0,"deliveryLat":0,"deliveryLng":0,"clusterId":null,"address":{"id":"d23db39d-0c3d-45fc-acef-581b060e2d8d","address":"No.11, 24th Main Rd, 5th Phase, Ayodya Nagar, J P Nagar Phase 5, J. P. Nagar, Bengaluru, Karnataka 560078","lat":12.9020554,"lng":77.5857013,"orderId":"a8b6b5d5-f5a2-40f6-b3a6-07dc7cba049c"}},{"id":"4b34ab2b-38e6-4af2-a95a-13610201a43c","productId":"SKU_69","name":"Edwin Ellsworth","status":"PENDING","awb":"58732904917","isDynamicPoint":false,"reachTime":0,"deliveryTime":0,"deliveryLat":0,"deliveryLng":0,"clusterId":null,"address":{"id":"c84735cb-df09-4975-8827-909edc4fbed3","address":"Mahendra Banking Institute, 8th F Main Rd, opposite end of ICICI Bank, Jaya Nagar 1st Block, Jayanagar 3rd Block, Banashankari, Bengaluru, Karnataka 560011","lat":12.9319405,"lng":77.58333499999999,"orderId":"4b34ab2b-38e6-4af2-a95a-13610201a43c"}},{"id":"f1d590e4-f752-495c-af43-27f4ff312e18","productId":"SKU_117","name":"Judy Chou","status":"PENDING","awb":"53229885217","isDynamicPoint":false,"reachTime":0,"deliveryTime":0,"deliveryLat":0,"deliveryLng":0,"clusterId":null,"address":{"id":"421d5807-8413-4734-9007-494ec5d4bd70","address":"1105, Archana Arcade, 24th Main Rd, 1st Phase, J. P. Nagar, Bengaluru, Karnataka 560078","lat":12.9115788,"lng":77.5857133,"orderId":"f1d590e4-f752-495c-af43-27f4ff312e18"}},{"id":"3a98feb5-408b-412f-be61-0636d52dad84","productId":"SKU_67","name":"Evelyn King","status":"PENDING","awb":"27499418818","isDynamicPoint":false,"reachTime":0,"deliveryTime":0,"deliveryLat":0,"deliveryLng":0,"clusterId":null,"address":{"id":"55bbb4af-f457-4c3b-8b85-6f74ba84864c","address":"Poha House, 6th A Cross, 16th Main Rd, Stage 2, Bengaluru, Karnataka 560076","lat":12.9102125,"lng":77.6116246,"orderId":"3a98feb5-408b-412f-be61-0636d52dad84"}},{"id":"300c371f-5e5e-4001-84e5-217bc2c226e5","productId":"SKU_52","name":"Amanda Weber","status":"PENDING","awb":"20395794315","isDynamicPoint":false,"reachTime":0,"deliveryTime":0,"deliveryLat":0,"deliveryLng":0,"clusterId":null,"address":{"id":"66f8847b-2f69-4e2b-b88c-d3b3faf4a95b","address":"Shop No. 123, Royal High School, 24th Main Rd, Vinayaka Nagar, J P Nagar Phase 5, Opposite, Bengaluru, Karnataka 560078","lat":12.9088826,"lng":77.5857567,"orderId":"300c371f-5e5e-4001-84e5-217bc2c226e5"}},{"id":"43604ca8-f0a9-422a-a326-ace5c19d44db","productId":"SKU_10","name":"Carolyn Thorne","status":"PENDING","awb":"92321920643","isDynamicPoint":false,"reachTime":0,"deliveryTime":0,"deliveryLat":0,"deliveryLng":0,"clusterId":null,"address":{"id":"a024555c-fa81-4aaf-9a69-11399ee803ce","address":"No.57, 01, 7th Main Rd, New Extension, NS Palya, Stage 2, BTM Layout, Bengaluru, Karnataka 560076","lat":12.9070852,"lng":77.6062159,"orderId":"43604ca8-f0a9-422a-a326-ace5c19d44db"}},{"id":"312583f0-ef5f-46de-be64-343c6fb8c3a2","productId":"SKU_104","name":"Pat Stradley","status":"PENDING","awb":"30487286083","isDynamicPoint":false,"reachTime":0,"deliveryTime":0,"deliveryLat":0,"deliveryLng":0,"clusterId":null,"address":{"id":"be3958d9-38a2-4751-86b6-2465dfab0b87","address":"Shop No, 1108, 24th Main Rd, TMC Layout, 1st Phase, J. P. Nagar, Bengaluru, Karnataka 560078","lat":12.9157554,"lng":77.58567,"orderId":"312583f0-ef5f-46de-be64-343c6fb8c3a2"}},{"id":"c8a7a53f-ef70-47a7-91cc-62905a7566b5","productId":"SKU_130","name":"Tiffany Hazzard","status":"PENDING","awb":"77395942437","isDynamicPoint":false,"reachTime":0,"deliveryTime":0,"deliveryLat":0,"deliveryLng":0,"clusterId":null,"address":{"id":"8a31ec26-6832-4919-888d-a305fb44d15b","address":"WJ53+H3J, Dollar Layout, Stage 2, BTM Layout, Bengaluru, Karnataka 560076","lat":12.9071232,"lng":77.6024607,"orderId":"c8a7a53f-ef70-47a7-91cc-62905a7566b5"}},{"id":"fdf2d67a-f6bf-4ca1-861f-7cc69f4e907d","productId":"SKU_149","name":"Jorge Walker","status":"PENDING","awb":"62647695099","isDynamicPoint":false,"reachTime":0,"deliveryTime":0,"deliveryLat":0,"deliveryLng":0,"clusterId":null,"address":{"id":"a99a0853-5cc7-449e-88ae-43bba286fc3d","address":"199, Outer Ring Rd, 4th Block, Banashankari 3rd Stage, Banashankari, Bengaluru, Karnataka 560085","lat":12.9286956,"lng":77.5457654,"orderId":"fdf2d67a-f6bf-4ca1-861f-7cc69f4e907d"}},{"id":"01bf7c5e-d698-4814-aef6-c8cd7366276c","productId":"SKU_25","name":"Rick Lopez","status":"PENDING","awb":"71888303813","isDynamicPoint":false,"reachTime":0,"deliveryTime":0,"deliveryLat":0,"deliveryLng":0,"clusterId":null,"address":{"id":"85776f28-7b5f-439e-bb61-6b90cd1dc9fa","address":"No. 60, Chocolate Factory Road, opp. Federal Bank, Bengaluru, Karnataka 560029","lat":12.9242917,"lng":77.6096625,"orderId":"01bf7c5e-d698-4814-aef6-c8cd7366276c"}},{"id":"8317b8c7-1940-401f-b06f-41f18ab42f72","productId":"SKU_93","name":"Robert Merlino","status":"PENDING","awb":"68385927491","isDynamicPoint":false,"reachTime":0,"deliveryTime":0,"deliveryLat":0,"deliveryLng":0,"clusterId":null,"address":{"id":"17e0e6b0-dd2a-4628-985e-ec615b749bb9","address":"1st floor, opposite Mantri Apartment, NS Palya, BTM 2nd Stage, BTM Layout, Bengaluru, Karnataka 560076","lat":12.9096748,"lng":77.60686369999999,"orderId":"8317b8c7-1940-401f-b06f-41f18ab42f72"}},{"id":"9876f96b-c0ce-45a5-91a4-9632bd665686","productId":"SKU_49","name":"Karen Williams","status":"PENDING","awb":"55815327776","isDynamicPoint":false,"reachTime":0,"deliveryTime":0,"deliveryLat":0,"deliveryLng":0,"clusterId":null,"address":{"id":"3c5e1261-96b1-473b-9501-0438e56fa0ed","address":"18, 4th Main Rd, Mahadeshwara Nagar, Stage 2, Maruthi Nagar, Bengaluru, Karnataka 560076","lat":13.0296109,"lng":77.5343825,"orderId":"9876f96b-c0ce-45a5-91a4-9632bd665686"}},{"id":"ce38d023-c3e1-40ff-9b7f-b8ce70abef31","productId":"SKU_27","name":"Robert Kleis","status":"PENDING","awb":"29583224427","isDynamicPoint":false,"reachTime":0,"deliveryTime":0,"deliveryLat":0,"deliveryLng":0,"clusterId":null,"address":{"id":"e21360dc-fa1d-4baa-bf1c-656ff03719e0","address":"5, Munnekollal, 8, 1st Main Rd, Muneshwara Layout, Marathahalli, Bengaluru, Karnataka 560037","lat":13.031024,"lng":77.6052033,"orderId":"ce38d023-c3e1-40ff-9b7f-b8ce70abef31"}},{"id":"6a9321cd-3065-4b8e-8cea-e828bd2dd0f9","productId":"SKU_7","name":"Nam Hess","status":"PENDING","awb":"45102704110","isDynamicPoint":false,"reachTime":0,"deliveryTime":0,"deliveryLat":0,"deliveryLng":0,"clusterId":null,"address":{"id":"47968517-55b2-4161-b771-6e5a7a88a774","address":"Temple, No. 25/1,9th Cross, 19th 'A' Main, JP Nagar 2th Phase,Near Thirumalagiri, Bengaluru, Karnataka 560078","lat":12.9111092,"lng":77.5884844,"orderId":"6a9321cd-3065-4b8e-8cea-e828bd2dd0f9"}},{"id":"4b9780de-fc37-4e77-b66d-420577e60ac2","productId":"SKU_77","name":"Roland Sisk","status":"PENDING","awb":"24532689682","isDynamicPoint":false,"reachTime":0,"deliveryTime":0,"deliveryLat":0,"deliveryLng":0,"clusterId":null,"address":{"id":"da10a78c-eb2c-4f11-bf64-fa889b7e8851","address":"7, 2nd Cross Rd, Tavarekere, Brindavan Nagar, S.G. Palya, Bengaluru, Karnataka 560029","lat":12.9263381,"lng":77.6100895,"orderId":"4b9780de-fc37-4e77-b66d-420577e60ac2"}},{"id":"20a6ae95-9dd3-464c-9ad5-7df258b7a6c4","productId":"SKU_14","name":"Cynthia Larose","status":"PENDING","awb":"41466540819","isDynamicPoint":false,"reachTime":0,"deliveryTime":0,"deliveryLat":0,"deliveryLng":0,"clusterId":null,"address":{"id":"485db8a1-92ff-4ada-9157-a10cb79e418b","address":"1st Floor, Ascendas Park Square Mall Whitefield Main Road, ITPL Main Rd, Bengaluru, Karnataka 560066","lat":12.9869757,"lng":77.73633319999999,"orderId":"20a6ae95-9dd3-464c-9ad5-7df258b7a6c4"}},{"id":"7817d70c-75e4-4eba-b935-d97fa5820fbf","productId":"SKU_71","name":"Todd Sandstrom","status":"PENDING","awb":"41941472985","isDynamicPoint":false,"reachTime":0,"deliveryTime":0,"deliveryLat":0,"deliveryLng":0,"clusterId":null,"address":{"id":"53f166ad-09e4-4eed-9d85-d4ed4acb3217","address":"XM3X+8PX, Marathahalli - Sarjapur Outer Ring Rd, Marathahalli Village, Marathahalli, Bengaluru, Karnataka 560037","lat":12.9520347,"lng":77.699815,"orderId":"7817d70c-75e4-4eba-b935-d97fa5820fbf"}},{"id":"85aca9b5-97b3-441a-bebc-dc4865c445eb","productId":"SKU_145","name":"Reva Mathison","status":"PENDING","awb":"35045284269","isDynamicPoint":false,"reachTime":0,"deliveryTime":0,"deliveryLat":0,"deliveryLng":0,"clusterId":null,"address":{"id":"c9786aaf-3c13-40ab-a5ce-7a5e27fb1fca","address":"13, 32nd Cross Rd, 7th Block, Jayanagar, Bengaluru, Karnataka 560082","lat":12.9274143,"lng":77.5772595,"orderId":"85aca9b5-97b3-441a-bebc-dc4865c445eb"}},{"id":"2b770c6d-852f-48b8-abba-2adbf8e81606","productId":"SKU_150","name":"Jack Wadsworth","status":"PENDING","awb":"58567443412","isDynamicPoint":false,"reachTime":0,"deliveryTime":0,"deliveryLat":0,"deliveryLng":0,"clusterId":null,"address":{"id":"ad1536a9-94df-470c-a6cc-f6ab2b29bbfa","address":"no 9, 20, 100 Feet Ring Rd, JP Nagar 4th Phase, Dollar Layout, 1st Phase, J. P. Nagar, Bengaluru, Karnataka 560078","lat":12.9062806,"lng":77.5973761,"orderId":"2b770c6d-852f-48b8-abba-2adbf8e81606"}},{"id":"38862283-1dc9-466a-985f-f81115b45a56","productId":"SKU_47","name":"Simon Harrold","status":"PENDING","awb":"82948097517","isDynamicPoint":false,"reachTime":0,"deliveryTime":0,"deliveryLat":0,"deliveryLng":0,"clusterId":null,"address":{"id":"8c4e9915-4959-4fc7-9901-672593a58563","address":"No. 21/1-58, Ground Floor, CAR Mansion Opposite Doddanekkundi Cross, Marathahalli Main Rd, Marathahalli, Bengaluru, Karnataka 560037","lat":12.9561918,"lng":77.69158159999999,"orderId":"38862283-1dc9-466a-985f-f81115b45a56"}},{"id":"ca6e664b-e6f1-4547-b009-01ba8ecd30fd","productId":"SKU_72","name":"Jennifer Daugherty","status":"PENDING","awb":"77803118213","isDynamicPoint":false,"reachTime":0,"deliveryTime":0,"deliveryLat":0,"deliveryLng":0,"clusterId":null,"address":{"id":"e307c12a-e3de-4889-9a98-b17fc8e3d757","address":"346, 4th Main Rd, B Block, AECS Layout, Brookefield, Bengaluru, Karnataka 560037","lat":12.9662466,"lng":77.7146465,"orderId":"ca6e664b-e6f1-4547-b009-01ba8ecd30fd"}},{"id":"4e7603ea-e2b2-4821-a4ba-0aadc2949be7","productId":"SKU_69","name":"Laura Curley","status":"PENDING","awb":"22412923414","isDynamicPoint":false,"reachTime":0,"deliveryTime":0,"deliveryLat":0,"deliveryLng":0,"clusterId":null,"address":{"id":"a5f4e162-9619-4b79-abc5-7c1a019c1140","address":"16, 1st Floor, HiQ Suites Service Apartment, 3rd Cross Rd, next to Growfit, 6th Block, Koramangala, Bengaluru, Karnataka 560095","lat":12.9243257,"lng":77.6095993,"orderId":"4e7603ea-e2b2-4821-a4ba-0aadc2949be7"}},{"id":"0229d6e4-eebd-49e5-90a1-a5b8faf92112","productId":"SKU_33","name":"Ester Halbert","status":"PENDING","awb":"43531650575","isDynamicPoint":false,"reachTime":0,"deliveryTime":0,"deliveryLat":0,"deliveryLng":0,"clusterId":null,"address":{"id":"b7219b28-20b3-4c1d-812f-83c35d3306bc","address":"The Estate, Yellappa Garden, Yellappa Chetty Layout, Sivanchetti Gardens, Bengaluru, Karnataka 560001","lat":12.9743628,"lng":77.61440739999999,"orderId":"0229d6e4-eebd-49e5-90a1-a5b8faf92112"}},{"id":"e451139e-f9e6-45c8-b0e9-88a6a8dc0ed9","productId":"SKU_15","name":"Gary Parnell","status":"PENDING","awb":"53542540233","isDynamicPoint":false,"reachTime":0,"deliveryTime":0,"deliveryLat":0,"deliveryLng":0,"clusterId":null,"address":{"id":"234ed966-8bc1-4340-92c8-3fa5ac1cc321","address":"XP52+6V5, Aswath Nagar, Marathahalli, Bengaluru, Karnataka 560037","lat":12.9587847,"lng":77.6999044,"orderId":"e451139e-f9e6-45c8-b0e9-88a6a8dc0ed9"}},{"id":"66f37d32-4291-4733-8641-dc30036e4fd4","productId":"SKU_134","name":"Christina Futrell","status":"PENDING","awb":"75562432193","isDynamicPoint":false,"reachTime":0,"deliveryTime":0,"deliveryLat":0,"deliveryLng":0,"clusterId":null,"address":{"id":"5574c7b0-0b40-4fd8-8056-a5a3b143a93e","address":"20/5 1st floor, above pizza hut, Kadubisanahalli, Service Road, Outer Ring Rd, Kaverappa Layout, Aswath Nagar, Marathahalli, Bengaluru, Karnataka 560103","lat":12.939435,"lng":77.695516,"orderId":"66f37d32-4291-4733-8641-dc30036e4fd4"}},{"id":"ed8d4391-9e81-4835-bc08-de3857b19813","productId":"SKU_94","name":"Christine Emmett","status":"PENDING","awb":"13473865777","isDynamicPoint":false,"reachTime":0,"deliveryTime":0,"deliveryLat":0,"deliveryLng":0,"clusterId":null,"address":{"id":"e36be0e2-797e-41f1-8512-f188f78133aa","address":"Outer Ring Rd, Old Madiwala, Jay Bheema Nagar, 1st Stage, BTM Layout, Bengaluru, Karnataka 560068","lat":12.9164317,"lng":77.6151948,"orderId":"ed8d4391-9e81-4835-bc08-de3857b19813"}},{"id":"e5deb764-e133-4991-b23b-8e1ad2005f82","productId":"SKU_65","name":"William Guzman","status":"PENDING","awb":"23340343072","isDynamicPoint":false,"reachTime":0,"deliveryTime":0,"deliveryLat":0,"deliveryLng":0,"clusterId":null,"address":{"id":"0834392c-4007-4e1d-b723-5010cabb56cf","address":"No.36, vyivavi complex, 4th main, Bannerghatta Main Rd, NS Palya, Stage 2, Bengaluru, 560076","lat":12.9227116,"lng":77.6003001,"orderId":"e5deb764-e133-4991-b23b-8e1ad2005f82"}},{"id":"6de1bed3-6606-4a65-81f7-512fac4d7cff","productId":"SKU_66","name":"Andre Johnson","status":"PENDING","awb":"16279025945","isDynamicPoint":false,"reachTime":0,"deliveryTime":0,"deliveryLat":0,"deliveryLng":0,"clusterId":null,"address":{"id":"46c1d396-6817-48cd-b1f5-4c06606f4005","address":"168, Tavarekere Main Rd, Muniyallapa Layout, Cashier Layout, 1st Stage, BTM Layout, Bengaluru, Karnataka 560029","lat":12.9219594,"lng":77.61063999999999,"orderId":"6de1bed3-6606-4a65-81f7-512fac4d7cff"}},{"id":"4e05e3eb-2d26-430f-89f3-b7a00d6b4144","productId":"SKU_68","name":"Mildred Pierce","status":"PENDING","awb":"51219002743","isDynamicPoint":false,"reachTime":0,"deliveryTime":0,"deliveryLat":0,"deliveryLng":0,"clusterId":null,"address":{"id":"76b3ba65-e829-417a-967d-d6d2af85c148","address":"776/3 hoskerahalli cross, 80, feat road, near mahesh tyres, Bengaluru, Karnataka 560085","lat":12.9327218,"lng":77.54479189999999,"orderId":"4e05e3eb-2d26-430f-89f3-b7a00d6b4144"}},{"id":"4270df3a-ace7-43b8-a72a-b34ad4362429","productId":"SKU_114","name":"Florence Hinson","status":"PENDING","awb":"16714042773","isDynamicPoint":false,"reachTime":0,"deliveryTime":0,"deliveryLat":0,"deliveryLng":0,"clusterId":null,"address":{"id":"53e79db6-03d7-415e-867f-0d7741e4cf0c","address":"329, 10th A Main Rd, Jaya Nagar 1st Block, Jayanagar 3rd Block, Jayanagar, Bengaluru, Karnataka 560041","lat":12.9327566,"lng":77.5850773,"orderId":"4270df3a-ace7-43b8-a72a-b34ad4362429"}},{"id":"7c8de9dc-3ef5-4de5-8257-4686945f7cfc","productId":"SKU_120","name":"Willie Marsh","status":"PENDING","awb":"86100258749","isDynamicPoint":false,"reachTime":0,"deliveryTime":0,"deliveryLat":0,"deliveryLng":0,"clusterId":null,"address":{"id":"1557101d-e9d5-4d16-a817-66a7895a2d5d","address":"607, 15th Cross, Outer Ring Rd, 1st Phase, J. P. Nagar, Bengaluru, Karnataka 560078","lat":12.9064182,"lng":77.576915,"orderId":"7c8de9dc-3ef5-4de5-8257-4686945f7cfc"}},{"id":"9257286d-4e8a-48e2-8220-e963a11683a0","productId":"SKU_119","name":"Donna Abbott","status":"PENDING","awb":"36233063882","isDynamicPoint":false,"reachTime":0,"deliveryTime":0,"deliveryLat":0,"deliveryLng":0,"clusterId":null,"address":{"id":"d07b67cc-571b-4163-ae48-c840100166f7","address":"57, Place Building, 6th Main Rd, Nagendra Block, Banashankari 1st Stage, Bengaluru, Karnataka 560050","lat":12.9410056,"lng":77.55158,"orderId":"9257286d-4e8a-48e2-8220-e963a11683a0"}},{"id":"a28c5909-091b-40e6-ac11-b15f349dd232","productId":"SKU_112","name":"Michael Rump","status":"PENDING","awb":"55022031234","isDynamicPoint":false,"reachTime":0,"deliveryTime":0,"deliveryLat":0,"deliveryLng":0,"clusterId":null,"address":{"id":"52103d4e-8a08-428e-b739-b12b785f295e","address":"WHMJ+6WP, Jaya Nagar 1st Block, Jayanagar 3rd Block, Jayanagar, Bengaluru, Karnataka 560041","lat":12.9329463,"lng":77.5838692,"orderId":"a28c5909-091b-40e6-ac11-b15f349dd232"}},{"id":"9ff4d2c2-9482-4926-aec6-28ed5fff2e8e","productId":"SKU_120","name":"Norman Bowen","status":"PENDING","awb":"68863758814","isDynamicPoint":false,"reachTime":0,"deliveryTime":0,"deliveryLat":0,"deliveryLng":0,"clusterId":null,"address":{"id":"c8747b9e-20e0-426d-9421-8705da6fe7f8","address":"45/2, Marenahalli Rd, KSRTC Layout, 2nd Phase, J. P. Nagar, Bengaluru, Karnataka 560078","lat":12.9164736,"lng":77.5923778,"orderId":"9ff4d2c2-9482-4926-aec6-28ed5fff2e8e"}},{"id":"73da1b0b-80b3-4844-a372-3211d2310d0a","productId":"SKU_15","name":"Sarah Patterson","status":"PENDING","awb":"22619582751","isDynamicPoint":false,"reachTime":0,"deliveryTime":0,"deliveryLat":0,"deliveryLng":0,"clusterId":null,"address":{"id":"e1b4d8a8-c2a1-4e46-9d9c-f3eaed74eeeb","address":"WJ44+RCW, 7th Main Rd, Abbaappa Layout, BTM 2nd Stage, BTM Layout, Bengaluru, Karnataka 560076","lat":12.9083464,"lng":77.6063547,"orderId":"73da1b0b-80b3-4844-a372-3211d2310d0a"}},{"id":"50eaaede-5e08-4666-8ef9-318e0ea00c56","productId":"SKU_126","name":"Mary Monroe","status":"PENDING","awb":"36715206946","isDynamicPoint":false,"reachTime":0,"deliveryTime":0,"deliveryLat":0,"deliveryLng":0,"clusterId":null,"address":{"id":"cfd53902-f10c-40bd-b390-ba6076910b26","address":"WJ84+VR6, 9th A Main Rd, KEB Colony, 1st Stage, BTM 1st Stage, Bengaluru, Karnataka 560029","lat":12.919058,"lng":77.6052348,"orderId":"50eaaede-5e08-4666-8ef9-318e0ea00c56"}},{"id":"efc64380-dd65-4fb6-b66b-60f3a5faad6b","productId":"SKU_85","name":"Ronald Harper","status":"PENDING","awb":"36417418389","isDynamicPoint":false,"reachTime":0,"deliveryTime":0,"deliveryLat":0,"deliveryLng":0,"clusterId":null,"address":{"id":"156bb7a8-9fff-48fc-9548-c1c956738951","address":"43, Christ Ln, near Christ University, Koramangala Industrial Layout, BTM Layout, Bengaluru, Karnataka 560029","lat":12.9353276,"lng":77.6076455,"orderId":"efc64380-dd65-4fb6-b66b-60f3a5faad6b"}},{"id":"0b374fe6-2c09-41e0-a260-a25713e2392b","productId":"SKU_119","name":"Edna Gipe","status":"PENDING","awb":"86979229905","isDynamicPoint":false,"reachTime":0,"deliveryTime":0,"deliveryLat":0,"deliveryLng":0,"clusterId":null,"address":{"id":"f32f453f-cd69-4bcc-8001-d14ba917a52d","address":"No. 56, Shobha Arcade, Begur-Koppa Main Road, Begur Woods Layout, Yelenahalli, Bengaluru, Karnataka 560068","lat":12.8677223,"lng":77.6210428,"orderId":"0b374fe6-2c09-41e0-a260-a25713e2392b"}},{"id":"b9b2d1e0-6e3c-4a6b-9031-594416b9ca7e","productId":"SKU_87","name":"Catherine Rios","status":"PENDING","awb":"35569884384","isDynamicPoint":false,"reachTime":0,"deliveryTime":0,"deliveryLat":0,"deliveryLng":0,"clusterId":null,"address":{"id":"697bd18e-e5cd-462e-82e3-b3ad84e1fe87","address":"VP Rd, Old Madiwala, Madiwala, 1st Stage, BTM Layout, Bengaluru, Karnataka 560029","lat":12.9193316,"lng":77.6179717,"orderId":"b9b2d1e0-6e3c-4a6b-9031-594416b9ca7e"}},{"id":"d34e00eb-0ea5-4d0c-b4c7-115012d73335","productId":"SKU_14","name":"Mark Alexander","status":"PENDING","awb":"41332522541","isDynamicPoint":false,"reachTime":0,"deliveryTime":0,"deliveryLat":0,"deliveryLng":0,"clusterId":null,"address":{"id":"d4a829fd-e9d6-462f-882d-dda0f7c73ac3","address":"21/22, 24th Main, 50 Feet Road, Opp. Vijaya Bank, T-Block, 1st phase Girinagar, Bengaluru, Karnataka 560085","lat":12.9424703,"lng":77.5456152,"orderId":"d34e00eb-0ea5-4d0c-b4c7-115012d73335"}},{"id":"70d3ab81-e239-4e48-a446-d73a85d692dc","productId":"SKU_128","name":"John Franklin","status":"PENDING","awb":"32825920537","isDynamicPoint":false,"reachTime":0,"deliveryTime":0,"deliveryLat":0,"deliveryLng":0,"clusterId":null,"address":{"id":"88d4b44e-0fb4-4a78-b451-6d88960827a8","address":"100 Feet Ring Road, 67, 35th Main Rd, BTM 2nd Stage, Bengaluru, Karnataka 560076","lat":12.9163554,"lng":77.61886969999999,"orderId":"70d3ab81-e239-4e48-a446-d73a85d692dc"}},{"id":"5ba211fa-fc7f-49a1-9c28-90f67205a8ed","productId":"SKU_96","name":"Adam Canup","status":"PENDING","awb":"68798516762","isDynamicPoint":false,"reachTime":0,"deliveryTime":0,"deliveryLat":0,"deliveryLng":0,"clusterId":null,"address":{"id":"00a67bfd-4f82-4a35-ac99-a49d9b3733ee","address":"32nd D Cross Road, 10, 10th B Main Rd, 4th Block, Jayanagar, Bengaluru, Karnataka 560011","lat":12.9272842,"lng":77.58584479999999,"orderId":"5ba211fa-fc7f-49a1-9c28-90f67205a8ed"}},{"id":"068f1810-205f-4af5-9a6d-1047ae4a4992","productId":"SKU_93","name":"Ruth Doyle","status":"PENDING","awb":"76846863491","isDynamicPoint":false,"reachTime":0,"deliveryTime":0,"deliveryLat":0,"deliveryLng":0,"clusterId":null,"address":{"id":"52ec5754-2d6c-4470-b219-8e217af3e09c","address":"690/A, 15 Cross Road, 14th Main Road, Phase II, J P Nagar, Bengaluru, Karnataka 560078","lat":12.926602,"lng":77.56456,"orderId":"068f1810-205f-4af5-9a6d-1047ae4a4992"}},{"id":"3e256970-dc31-4232-b283-576402d23ebc","productId":"SKU_62","name":"Mack Laperle","status":"PENDING","awb":"57124722941","isDynamicPoint":false,"reachTime":0,"deliveryTime":0,"deliveryLat":0,"deliveryLng":0,"clusterId":null,"address":{"id":"be38d33c-58be-4820-ae5f-394fa547ea95","address":"S No 23,Opp. Madivala Police Station, Hosur Rd, Madiwala, Bengaluru, Karnataka 560068","lat":12.9202474,"lng":77.6205428,"orderId":"3e256970-dc31-4232-b283-576402d23ebc"}},{"id":"78a52893-8d6d-46e3-97b9-e1244d307e21","productId":"SKU_4","name":"Maude Prach","status":"PENDING","awb":"75549075674","isDynamicPoint":false,"reachTime":0,"deliveryTime":0,"deliveryLat":0,"deliveryLng":0,"clusterId":null,"address":{"id":"44952158-0a21-49a1-8fbe-a511e05ca4b0","address":"64, 20th B Main Rd, Old Madiwala, Chikka Madivala, 1st Stage, BTM 1st Stage, Bengaluru, Karnataka 560068","lat":12.9229233,"lng":77.6151829,"orderId":"78a52893-8d6d-46e3-97b9-e1244d307e21"}},{"id":"2e924fba-6ee0-4163-87f0-83d9f6feae00","productId":"SKU_65","name":"Kenneth Marcus","status":"PENDING","awb":"63377580946","isDynamicPoint":false,"reachTime":0,"deliveryTime":0,"deliveryLat":0,"deliveryLng":0,"clusterId":null,"address":{"id":"ec944fd6-5b03-4cc1-ba58-b0deffda40c3","address":"2A, 5 2, 16, 22nd Main Rd, Vinayaka Nagar, J P Nagar Phase 5, J. P. Nagar, Bengaluru, Karnataka 560078","lat":12.9045152,"lng":77.5865146,"orderId":"2e924fba-6ee0-4163-87f0-83d9f6feae00"}},{"id":"88df6b5a-dd9f-464d-9ba9-f5219cfb50eb","productId":"SKU_1","name":"James Arias","status":"PENDING","awb":"14183098365","isDynamicPoint":false,"reachTime":0,"deliveryTime":0,"deliveryLat":0,"deliveryLng":0,"clusterId":null,"address":{"id":"18daa7ee-677e-4ea4-8754-36c1162907bb","address":"WJ84+R9C, KEB Colony, 1st Stage, BTM 1st Stage, Bengaluru, Karnataka 560029","lat":12.9183341,"lng":77.60633039999999,"orderId":"88df6b5a-dd9f-464d-9ba9-f5219cfb50eb"}},{"id":"9a5ad54f-46f9-4880-ab46-79b3e0e5627f","productId":"SKU_109","name":"Lloyd Betts","status":"PENDING","awb":"76752908845","isDynamicPoint":false,"reachTime":0,"deliveryTime":0,"deliveryLat":0,"deliveryLng":0,"clusterId":null,"address":{"id":"30607f9d-429c-4470-9b8d-0db74e5bfb4a","address":"156A, 2nd Main Rd, 8th Block, Jayanagar, Bengaluru, Karnataka 560070","lat":12.9183482,"lng":77.57798489999999,"orderId":"9a5ad54f-46f9-4880-ab46-79b3e0e5627f"}},{"id":"23fcef75-8a50-441e-a58b-747223d5f6b1","productId":"SKU_130","name":"Pauline Ashley","status":"PENDING","awb":"16649389980","isDynamicPoint":false,"reachTime":0,"deliveryTime":0,"deliveryLat":0,"deliveryLng":0,"clusterId":null,"address":{"id":"a20069b3-b916-445b-a9c3-7462bb81f7b3","address":"1st Cross Rd, Zuzuvadi, Madiwala, 1st Stage, BTM Layout, Bengaluru, Karnataka 560068","lat":12.927102,"lng":77.6152937,"orderId":"23fcef75-8a50-441e-a58b-747223d5f6b1"}},{"id":"35ce22c9-e0eb-4946-a4cb-1d981e90c08c","productId":"SKU_22","name":"Hanna Davidson","status":"PENDING","awb":"70581061954","isDynamicPoint":false,"reachTime":0,"deliveryTime":0,"deliveryLat":0,"deliveryLng":0,"clusterId":null,"address":{"id":"6866a93a-8121-47a5-ac2b-49e8af194280","address":"Shop No-29, SG Palya Main Rd, 8th Cross, DRC Post, Venkateshwara Layout, S.G. Palya, Bengaluru, Karnataka 560029","lat":12.9316407,"lng":77.60735559999999,"orderId":"35ce22c9-e0eb-4946-a4cb-1d981e90c08c"}},{"id":"0dd31243-0672-4656-9522-707348cd8485","productId":"SKU_40","name":"Patrick Schaefer","status":"PENDING","awb":"57082584096","isDynamicPoint":false,"reachTime":0,"deliveryTime":0,"deliveryLat":0,"deliveryLng":0,"clusterId":null,"address":{"id":"3ae59755-6e26-4f92-a829-4351707ff6a3","address":"no.24,BTM3rd, B cross, 18th Main Rd, BTM 2nd Stage, Bengaluru, Karnataka 560076","lat":12.9100475,"lng":77.6106491,"orderId":"0dd31243-0672-4656-9522-707348cd8485"}},{"id":"7d5ef807-18d9-4067-8702-ee4cae628155","productId":"SKU_74","name":"Sean Stinnett","status":"PENDING","awb":"72348585350","isDynamicPoint":false,"reachTime":0,"deliveryTime":0,"deliveryLat":0,"deliveryLng":0,"clusterId":null,"address":{"id":"f3c18d72-76d6-472d-aac9-c34a47e80376","address":"No.56, 1st Stage, BTM Layout, Bengaluru, Karnataka 560068","lat":12.9199409,"lng":77.61065119999999,"orderId":"7d5ef807-18d9-4067-8702-ee4cae628155"}},{"id":"8e023800-1516-4aea-ae87-0ce7c9dbb93a","productId":"SKU_98","name":"Christopher Trias","status":"PENDING","awb":"93559986115","isDynamicPoint":false,"reachTime":0,"deliveryTime":0,"deliveryLat":0,"deliveryLng":0,"clusterId":null,"address":{"id":"b7a895f7-cf1a-49d0-8ace-17fbb757fc6a","address":"6th Main Rd, Microlayout, Papannareddy Layout, Garvebhavi Palya, Bengaluru, Karnataka 560068","lat":12.8968205,"lng":77.6300754,"orderId":"8e023800-1516-4aea-ae87-0ce7c9dbb93a"}},{"id":"628c16c0-131c-491a-8784-5525ae911f52","productId":"SKU_114","name":"Amy Hockensmith","status":"PENDING","awb":"78109249414","isDynamicPoint":false,"reachTime":0,"deliveryTime":0,"deliveryLat":0,"deliveryLng":0,"clusterId":null,"address":{"id":"d409e92a-a0df-40ee-9543-e24f4fd5b901","address":"156, 4th Cross Rd, Tavarekere, Venkateshwara Layout, S.G. Palya, Bengaluru, Karnataka 560029","lat":12.932854,"lng":77.60951179999999,"orderId":"628c16c0-131c-491a-8784-5525ae911f52"}},{"id":"0c7741f2-6e87-494f-bdab-3a821b5ae439","productId":"SKU_48","name":"Clayton Backus","status":"PENDING","awb":"15821465248","isDynamicPoint":false,"reachTime":0,"deliveryTime":0,"deliveryLat":0,"deliveryLng":0,"clusterId":null,"address":{"id":"1d9c4324-27eb-4e65-a8d7-3955b8ba4414","address":"Ground Floor, Shop No.688/C, 7th Main Rd, Mahadeshwara Nagar, Stage 2, Bengaluru, Karnataka 560076","lat":12.9125406,"lng":77.60638850000001,"orderId":"0c7741f2-6e87-494f-bdab-3a821b5ae439"}},{"id":"16a751f0-a46c-4c59-a65e-b67f011d33dc","productId":"SKU_134","name":"Eva Doughty","status":"PENDING","awb":"50538610741","isDynamicPoint":false,"reachTime":0,"deliveryTime":0,"deliveryLat":0,"deliveryLng":0,"clusterId":null,"address":{"id":"7b0c6a28-a5b3-493c-b260-3573222e570e","address":"2724, 31st Main Rd, PWD Quarters, 1st Sector, HSR Layout, Bengaluru, Karnataka 560102","lat":12.9126877,"lng":77.6532769,"orderId":"16a751f0-a46c-4c59-a65e-b67f011d33dc"}},{"id":"a72feb52-5964-4a90-873b-ffa710750461","productId":"SKU_33","name":"George Medina","status":"PENDING","awb":"49255656759","isDynamicPoint":false,"reachTime":0,"deliveryTime":0,"deliveryLat":0,"deliveryLng":0,"clusterId":null,"address":{"id":"471eeee5-2b18-4785-ba34-b4274200ad5f","address":"3, 1st Floor, Brindavan Complex, 1st E Cross Road, 20th Main Rd, near Gangothri Bar, BTM 1st Stage, Bengaluru, Karnataka 560068","lat":12.9195043,"lng":77.6128299,"orderId":"a72feb52-5964-4a90-873b-ffa710750461"}},{"id":"1be55b6a-c276-48cd-906c-bc460683e0df","productId":"SKU_45","name":"Tameka Bruder","status":"PENDING","awb":"94101224279","isDynamicPoint":false,"reachTime":0,"deliveryTime":0,"deliveryLat":0,"deliveryLng":0,"clusterId":null,"address":{"id":"c05a0553-12ef-41ca-b7c5-9e96ab0d15d6","address":"39, Disha, 15th Cross Road, 4th Phase, JP Nagar, Bengaluru, Karnataka 560078","lat":12.9064074,"lng":77.5978398,"orderId":"1be55b6a-c276-48cd-906c-bc460683e0df"}},{"id":"cdd7d2e5-6e83-4ddc-ad97-79ed530181a6","productId":"SKU_9","name":"Sandra Knight","status":"PENDING","awb":"13681752041","isDynamicPoint":false,"reachTime":0,"deliveryTime":0,"deliveryLat":0,"deliveryLng":0,"clusterId":null,"address":{"id":"b6d8e8e3-bd3a-49c3-b614-287f3d8e2530","address":"27, 20th main, 5th cross, BTM 1st Stage, near Gangothri Circle, Bengaluru, Karnataka 560068","lat":12.9184606,"lng":77.6127319,"orderId":"cdd7d2e5-6e83-4ddc-ad97-79ed530181a6"}},{"id":"320c1f6e-1214-4e8f-9987-4602e37202c3","productId":"SKU_128","name":"Kirk Kendal","status":"PENDING","awb":"45523918931","isDynamicPoint":false,"reachTime":0,"deliveryTime":0,"deliveryLat":0,"deliveryLng":0,"clusterId":null,"address":{"id":"6bd0f8d6-1c36-4c6f-990b-13c84393e11e","address":"1st Cross Rd, Zuzuvadi, Madiwala, 1st Stage, BTM Layout, Bengaluru, Karnataka 560068","lat":12.927102,"lng":77.6152937,"orderId":"320c1f6e-1214-4e8f-9987-4602e37202c3"}},{"id":"78b2e2a3-4cd3-4379-b37e-af9092df886b","productId":"SKU_52","name":"Anne Valles","status":"PENDING","awb":"86414834429","isDynamicPoint":false,"reachTime":0,"deliveryTime":0,"deliveryLat":0,"deliveryLng":0,"clusterId":null,"address":{"id":"c208d692-df8d-461b-aec7-90e2e22a29f5","address":"14-15, 24th Main Rd, 5th Phase, Ramaiah Garden, J P Nagar Phase 5, J. P. Nagar, Bengaluru, Karnataka 560078","lat":12.9011331,"lng":77.5858538,"orderId":"78b2e2a3-4cd3-4379-b37e-af9092df886b"}},{"id":"f1b6613e-e940-4f48-8610-c825f96bb4cd","productId":"SKU_139","name":"Michael Parrish","status":"PENDING","awb":"91826073312","isDynamicPoint":false,"reachTime":0,"deliveryTime":0,"deliveryLat":0,"deliveryLng":0,"clusterId":null,"address":{"id":"aa2af9f6-9e39-495e-bfeb-075fb4ace2ee","address":"2nd Stage BTM, 16th Main Road , 7th Cross, BTM Layout, Near Swadista hotel., Bengaluru, Karnataka 560076","lat":12.9138708,"lng":77.6102354,"orderId":"f1b6613e-e940-4f48-8610-c825f96bb4cd"}},{"id":"a9cda615-a529-4680-9112-eabcf77fe3f9","productId":"SKU_121","name":"Dorothy Bennett","status":"PENDING","awb":"39405473914","isDynamicPoint":false,"reachTime":0,"deliveryTime":0,"deliveryLat":0,"deliveryLng":0,"clusterId":null,"address":{"id":"efc02a4d-522e-4c25-85d6-be3c3b83a741","address":"376, Puttalingiah Rd, Padmanabhanagar, Bengaluru, Karnataka 560070","lat":12.917511,"lng":77.559299,"orderId":"a9cda615-a529-4680-9112-eabcf77fe3f9"}},{"id":"ae4d2e5e-3517-443d-912e-6c1476f1af43","productId":"SKU_27","name":"Arnold Campbell","status":"PENDING","awb":"99674448317","isDynamicPoint":false,"reachTime":0,"deliveryTime":0,"deliveryLat":0,"deliveryLng":0,"clusterId":null,"address":{"id":"ed4513e1-503f-4e9d-bcae-ff3eb316c8be","address":"3/149, Tavarekere Main Rd, Tavarekere, Venkateshwara Layout, S.G. Palya, Bengaluru, Karnataka 560029","lat":12.9314899,"lng":77.6098244,"orderId":"ae4d2e5e-3517-443d-912e-6c1476f1af43"}},{"id":"1091d5e5-a2ab-41d8-aa5a-62393bbc587f","productId":"SKU_49","name":"Gary Nilsen","status":"PENDING","awb":"53553102441","isDynamicPoint":false,"reachTime":0,"deliveryTime":0,"deliveryLat":0,"deliveryLng":0,"clusterId":null,"address":{"id":"c9a6312b-1027-4ef1-8288-eea2ebc685aa","address":"5,, 4th Main, BTM 1st Stage, Abbaappa Layout, Stage 2, BTM Layout, Bengaluru, Karnataka 560076","lat":12.9082597,"lng":77.60389049999999,"orderId":"1091d5e5-a2ab-41d8-aa5a-62393bbc587f"}},{"id":"0298271e-3fe2-4c00-b5a6-0aed99c2267a","productId":"SKU_13","name":"Tina Perez","status":"PENDING","awb":"41603749238","isDynamicPoint":false,"reachTime":0,"deliveryTime":0,"deliveryLat":0,"deliveryLng":0,"clusterId":null,"address":{"id":"87570c36-12aa-42fa-8214-eec512b7c3ba","address":"1717, E End A Main Rd, Tilak Nagar, Jayanagar, Bengaluru, Karnataka 560041","lat":12.9190227,"lng":77.5974686,"orderId":"0298271e-3fe2-4c00-b5a6-0aed99c2267a"}},{"id":"d6130af0-1628-43f3-b314-f9e93a295402","productId":"SKU_64","name":"Terri Best","status":"PENDING","awb":"86022655921","isDynamicPoint":false,"reachTime":0,"deliveryTime":0,"deliveryLat":0,"deliveryLng":0,"clusterId":null,"address":{"id":"8ffb4418-4e59-4426-9def-0bc08693cda0","address":"1193, 1st Cross Rd, Tavarekere, Maruti Nagar, 1st Stage, BTM Layout, Bengaluru, Karnataka 560029","lat":12.9231622,"lng":77.6136099,"orderId":"d6130af0-1628-43f3-b314-f9e93a295402"}},{"id":"9be7a068-0ce2-4f0f-a86a-f828de3b8104","productId":"SKU_111","name":"William Hogan","status":"PENDING","awb":"30781171063","isDynamicPoint":false,"reachTime":0,"deliveryTime":0,"deliveryLat":0,"deliveryLng":0,"clusterId":null,"address":{"id":"39f08514-ac44-44c0-b52f-be4ed9bf782d","address":"26, Amar Nilaya, C,1, 1st cross rd, old madiwala, chikka madivala, Maruti Nagar, 1st Stage, BTM 1st Stage, Bengaluru, Karnataka 560029","lat":12.920887,"lng":77.6156642,"orderId":"9be7a068-0ce2-4f0f-a86a-f828de3b8104"}},{"id":"a620dd6f-460b-4571-b676-59d34f7d4880","productId":"SKU_67","name":"Melody Chambers","status":"PENDING","awb":"58910890653","isDynamicPoint":false,"reachTime":0,"deliveryTime":0,"deliveryLat":0,"deliveryLng":0,"clusterId":null,"address":{"id":"cfceadac-41cc-4a8c-ac59-fdd91ef1db91","address":"387, 71-4, 11th Main Rd, opposite to Max Showroom, Jaya Nagar 1st Block, Jayanagar 3rd Block, Jayanagar, Bengaluru, Karnataka 560011","lat":12.9301742,"lng":77.5859514,"orderId":"a620dd6f-460b-4571-b676-59d34f7d4880"}},{"id":"2c1b0d3f-6789-4f7f-bd7c-23ed059c8688","productId":"SKU_57","name":"Edgar Moore","status":"PENDING","awb":"12860961243","isDynamicPoint":false,"reachTime":0,"deliveryTime":0,"deliveryLat":0,"deliveryLng":0,"clusterId":null,"address":{"id":"c8f0c4fc-8359-4de2-a95e-bf7c8796b627","address":"57, 1st Floor, SLV Arcade 9th main, 40th Cross Rd, 5th Block, Jayanagar, Bengaluru, Karnataka 560011","lat":12.9174219,"lng":77.57598589999999,"orderId":"2c1b0d3f-6789-4f7f-bd7c-23ed059c8688"}},{"id":"17b39185-a1b7-4d2f-85b2-e10980de6c44","productId":"SKU_149","name":"Barbara Fonville","status":"PENDING","awb":"99097243794","isDynamicPoint":false,"reachTime":0,"deliveryTime":0,"deliveryLat":0,"deliveryLng":0,"clusterId":null,"address":{"id":"2b53b02f-848f-42dd-b39c-b5eaf23322d7","address":"115, 30th Main Rd, BTM 2nd Stage, Kuvempu Nagar, Stage 2, BTM Layout, Bengaluru, Karnataka 560068","lat":12.9141117,"lng":77.6154068,"orderId":"17b39185-a1b7-4d2f-85b2-e10980de6c44"}},{"id":"4140f905-c5f9-4b95-98cb-c088ba2e6dea","productId":"SKU_141","name":"Debbie Murray","status":"PENDING","awb":"13765391936","isDynamicPoint":false,"reachTime":0,"deliveryTime":0,"deliveryLat":0,"deliveryLng":0,"clusterId":null,"address":{"id":"abe524e9-6a5b-4aae-b5ec-1a0735b79dfb","address":"Soul Space Paradigm, 2nd Floor,, Outer Ring Rd, Marathahalli Village, Marathahalli, Bengaluru, Karnataka 560037","lat":12.9165769,"lng":77.61968519999999,"orderId":"4140f905-c5f9-4b95-98cb-c088ba2e6dea"}},{"id":"6348210b-3bdc-452e-ba82-ea915efbb7d9","productId":"SKU_29","name":"Edmund Shoulders","status":"PENDING","awb":"13128774585","isDynamicPoint":false,"reachTime":0,"deliveryTime":0,"deliveryLat":0,"deliveryLng":0,"clusterId":null,"address":{"id":"537e5d52-70c4-4b91-851d-705765f29fd3","address":"2nd Floor, 281, 15th Cross Rd, 5th Phase, KR Layout, JP Nagar Phase 6, J. P. Nagar, Bengaluru, Karnataka 560078","lat":12.9060929,"lng":77.5868964,"orderId":"6348210b-3bdc-452e-ba82-ea915efbb7d9"}},{"id":"51d9b12b-282e-4289-8f45-24352e879e2c","productId":"SKU_112","name":"Terry Delisa","status":"PENDING","awb":"56554103507","isDynamicPoint":false,"reachTime":0,"deliveryTime":0,"deliveryLat":0,"deliveryLng":0,"clusterId":null,"address":{"id":"3edaac5b-08ef-4ec2-9d36-178476833f7b","address":"Shop no, 79, 2nd Main Rd, Kalasipalyam New Extension, Kalasipalya, Bengaluru, Karnataka 560002","lat":12.9624229,"lng":77.57167799999999,"orderId":"51d9b12b-282e-4289-8f45-24352e879e2c"}},{"id":"569dd1b5-28f7-415d-b0ba-30e401540ed7","productId":"SKU_132","name":"Cynthia Pensinger","status":"PENDING","awb":"89309976198","isDynamicPoint":false,"reachTime":0,"deliveryTime":0,"deliveryLat":0,"deliveryLng":0,"clusterId":null,"address":{"id":"9a485fb0-c8cf-43ce-babe-1391c06309c3","address":"39th Cross Road, 1069, 27th Main Rd, Near Noorani Masjid, Jayanagara 9th Block, Jayanagar, Bengaluru, Karnataka 560076","lat":12.9205255,"lng":77.5944943,"orderId":"569dd1b5-28f7-415d-b0ba-30e401540ed7"}},{"id":"b53c31e1-76fc-44f3-a6bb-ae69974d7c64","productId":"SKU_15","name":"Dolores Xaimoungkhoun","status":"PENDING","awb":"71513006939","isDynamicPoint":false,"reachTime":0,"deliveryTime":0,"deliveryLat":0,"deliveryLng":0,"clusterId":null,"address":{"id":"ad936e05-75f0-4639-8c1f-b7b63b10bc83","address":"14, 1A Cross Rd, Dollar Scheme Colony, 1st Stage, BTM 1st Stage, Bengaluru, Karnataka 560068","lat":12.9171763,"lng":77.61858459999999,"orderId":"b53c31e1-76fc-44f3-a6bb-ae69974d7c64"}},{"id":"9e536b3e-64a2-4fb0-961d-d68b533e4cbb","productId":"SKU_23","name":"William Montgomery","status":"PENDING","awb":"93067023657","isDynamicPoint":false,"reachTime":0,"deliveryTime":0,"deliveryLat":0,"deliveryLng":0,"clusterId":null,"address":{"id":"ef6120dd-7afb-4652-a71f-5052340aab4c","address":"27, 2nd Main Rd, Sadduguntepalya, Maruti Nagar, 1st Stage, BTM Layout, Bengaluru, Karnataka 560029","lat":12.9252902,"lng":77.61175639999999,"orderId":"9e536b3e-64a2-4fb0-961d-d68b533e4cbb"}},{"id":"300d215e-c70a-4e69-b9a7-c03d77c8891c","productId":"SKU_94","name":"Krystal Baumann","status":"PENDING","awb":"94074229635","isDynamicPoint":false,"reachTime":0,"deliveryTime":0,"deliveryLat":0,"deliveryLng":0,"clusterId":null,"address":{"id":"f9260314-ba10-473a-9347-0dc61aa96d18","address":"108, Outer Ring Rd, near Devegowda Petrol Bunk, Kathreguppe, Banashankari 3rd Stage, Banashankari, Bengaluru, Karnataka 560085","lat":12.9297293,"lng":77.54421769999999,"orderId":"300d215e-c70a-4e69-b9a7-c03d77c8891c"}},{"id":"492a90ab-2a43-4fdc-b0df-a333f864ce7c","productId":"SKU_8","name":"Christina Matthews","status":"PENDING","awb":"35819001745","isDynamicPoint":false,"reachTime":0,"deliveryTime":0,"deliveryLat":0,"deliveryLng":0,"clusterId":null,"address":{"id":"f0c48f3f-ef86-4175-a85b-4cb9dad3a3cc","address":"WH2M+4X7, 18th Cross Rd, 5th Phase, Annaiah Reddy Layout, JP Nagar Phase 6, J. P. Nagar, Bengaluru, Karnataka 560078","lat":12.9049584,"lng":77.5837246,"orderId":"492a90ab-2a43-4fdc-b0df-a333f864ce7c"}},{"id":"15c4d4d4-9ba8-4627-8a13-5af9b5a3b993","productId":"SKU_32","name":"Hannah Thornton","status":"PENDING","awb":"87950779630","isDynamicPoint":false,"reachTime":0,"deliveryTime":0,"deliveryLat":0,"deliveryLng":0,"clusterId":null,"address":{"id":"86642503-bb4b-42b0-ba09-173105f18bcd","address":"400, 8th B Main Rd, 4th Block, Jayanagar, Bengaluru, Karnataka 560011","lat":12.9284806,"lng":77.58259389999999,"orderId":"15c4d4d4-9ba8-4627-8a13-5af9b5a3b993"}},{"id":"6d52b4c5-03ea-452f-9402-5652c4a2f31b","productId":"SKU_148","name":"Betty Ryan","status":"PENDING","awb":"78478626145","isDynamicPoint":false,"reachTime":0,"deliveryTime":0,"deliveryLat":0,"deliveryLng":0,"clusterId":null,"address":{"id":"fbb34651-ec89-4d2d-9bb6-941cbbe5f1af","address":"73/1, Garudachar Palya, Mahadevapura, Bengaluru, Karnataka 560048","lat":12.9885005,"lng":77.6972449,"orderId":"6d52b4c5-03ea-452f-9402-5652c4a2f31b"}},{"id":"327e410b-5abd-4aca-b55c-5378c89a6abc","productId":"SKU_74","name":"Creola Napier","status":"PENDING","awb":"81379372517","isDynamicPoint":false,"reachTime":0,"deliveryTime":0,"deliveryLat":0,"deliveryLng":0,"clusterId":null,"address":{"id":"3c1bd458-b189-434f-af10-398a07b27640","address":"XP88+WFX, Graphite India Main Rd, Phase 2, Brookefield, Bengaluru, Karnataka 560037","lat":12.971939,"lng":77.7119157,"orderId":"327e410b-5abd-4aca-b55c-5378c89a6abc"}},{"id":"d4c3254f-5465-44f2-8f51-5d048b6976b5","productId":"SKU_28","name":"Julieta Allen","status":"PENDING","awb":"91408709244","isDynamicPoint":false,"reachTime":0,"deliveryTime":0,"deliveryLat":0,"deliveryLng":0,"clusterId":null,"address":{"id":"ed26a46f-1121-48bb-abab-af9abe3d1064","address":"No 8, 15th Cross Rd, 5th Phase, J P Nagar Phase 5, J. P. Nagar, Bengaluru, Karnataka 560078","lat":12.9062866,"lng":77.58904679999999,"orderId":"d4c3254f-5465-44f2-8f51-5d048b6976b5"}},{"id":"b2ac1b6a-030d-4e71-90fa-7bd95bcae30e","productId":"SKU_29","name":"Gary Wolfe","status":"PENDING","awb":"64608052813","isDynamicPoint":false,"reachTime":0,"deliveryTime":0,"deliveryLat":0,"deliveryLng":0,"clusterId":null,"address":{"id":"e2f1480e-4c62-4d78-81b4-4088f94706e2","address":"333, 4th Main Rd, B Block, AECS Layout, Marathahalli, Bengaluru, Karnataka 560037","lat":12.9657156,"lng":77.7142894,"orderId":"b2ac1b6a-030d-4e71-90fa-7bd95bcae30e"}},{"id":"59f4c877-b2dc-4ed2-aaac-ef3ad0f28923","productId":"SKU_44","name":"Dale Crabtree","status":"PENDING","awb":"87167476862","isDynamicPoint":false,"reachTime":0,"deliveryTime":0,"deliveryLat":0,"deliveryLng":0,"clusterId":null,"address":{"id":"cdf4c846-15ad-4550-98c1-f3dc89f11d04","address":"Hotel Ambient Turret 35/A 1st Main JP Nagar 3rd phase Mini forest, road, behind gopalan innovation mall, Bengaluru, Karnataka 560078","lat":12.9146897,"lng":77.59893269999999,"orderId":"59f4c877-b2dc-4ed2-aaac-ef3ad0f28923"}},{"id":"b998ad4c-7c56-4cf6-a88b-815bee6b9dbe","productId":"SKU_47","name":"Francisco Alston","status":"PENDING","awb":"32693377945","isDynamicPoint":false,"reachTime":0,"deliveryTime":0,"deliveryLat":0,"deliveryLng":0,"clusterId":null,"address":{"id":"27835dfa-4386-460d-88f5-4f3271834ad6","address":"WGRX+56P, 2B Cross Rd, Nagendra Block, Banashankari 1st Stage, Banashankari, Bengaluru, Karnataka 560085","lat":12.9402106,"lng":77.5495873,"orderId":"b998ad4c-7c56-4cf6-a88b-815bee6b9dbe"}},{"id":"ee7bd09c-f02a-4fdd-bee0-bae99133d92e","productId":"SKU_135","name":"Sheila Clark","status":"PENDING","awb":"19324230187","isDynamicPoint":false,"reachTime":0,"deliveryTime":0,"deliveryLat":0,"deliveryLng":0,"clusterId":null,"address":{"id":"d52cdcc9-41a9-459f-a40c-8b2302881cbb","address":"45, 100 Feet Ring Rd, opposite to mandovi motors, JP Nagar 4th Phase, Dollar Layout, Phase 4, J. P. Nagar, Bengaluru, Karnataka 560078","lat":12.9069503,"lng":77.6002335,"orderId":"ee7bd09c-f02a-4fdd-bee0-bae99133d92e"}},{"id":"3cc884c5-f916-4d34-b68e-a9573ca07fb9","productId":"SKU_89","name":"Patrice Marshall","status":"PENDING","awb":"60043016822","isDynamicPoint":false,"reachTime":0,"deliveryTime":0,"deliveryLat":0,"deliveryLng":0,"clusterId":null,"address":{"id":"21106e6a-a24b-4b18-af82-94dd75071d69","address":"18, 4th Main Rd, Mahadeshwara Nagar, Stage 2, Maruthi Nagar, Bengaluru, Karnataka 560076","lat":13.0296109,"lng":77.5343825,"orderId":"3cc884c5-f916-4d34-b68e-a9573ca07fb9"}},{"id":"8de95bcb-9533-4535-a67f-a97ea1a0f3db","productId":"SKU_115","name":"Katherine Brown","status":"PENDING","awb":"17577538990","isDynamicPoint":false,"reachTime":0,"deliveryTime":0,"deliveryLat":0,"deliveryLng":0,"clusterId":null,"address":{"id":"bf5b90af-1134-4409-a42f-e07a0f51e920","address":"3B/358,25th main, 22nd Cross Rd, Sector 2, HSR Layout, Bengaluru, Karnataka 560102","lat":12.9087076,"lng":77.6509179,"orderId":"8de95bcb-9533-4535-a67f-a97ea1a0f3db"}},{"id":"13c3b63d-9442-47be-a9f9-a1e09be19a2f","productId":"SKU_146","name":"Kent Robinson","status":"PENDING","awb":"27426944396","isDynamicPoint":false,"reachTime":0,"deliveryTime":0,"deliveryLat":0,"deliveryLng":0,"clusterId":null,"address":{"id":"2f187595-8448-46a1-9b40-d138c055f36b","address":"WJ77+M76, Banashankari Stage II, 3rd B Cross Rd, Kuvempu Nagar, Stage 2, Bengaluru, Karnataka 560076","lat":12.9138487,"lng":77.6116056,"orderId":"13c3b63d-9442-47be-a9f9-a1e09be19a2f"}},{"id":"ff2360cc-38ef-4400-8789-99569a533cce","productId":"SKU_22","name":"Renee Rivenburg","status":"PENDING","awb":"42117472563","isDynamicPoint":false,"reachTime":0,"deliveryTime":0,"deliveryLat":0,"deliveryLng":0,"clusterId":null,"address":{"id":"07ed2de8-b11e-47fb-af15-7f9c2234b225","address":"8th Main Rd, 3rd Phase, J. P. Nagar, Bengaluru, Karnataka 560078","lat":12.9116168,"lng":77.5934889,"orderId":"ff2360cc-38ef-4400-8789-99569a533cce"}},{"id":"f60fdda0-e5b3-4408-9bcd-5ec93a90cd38","productId":"SKU_95","name":"Tracy Dabney","status":"PENDING","awb":"44578835124","isDynamicPoint":false,"reachTime":0,"deliveryTime":0,"deliveryLat":0,"deliveryLng":0,"clusterId":null,"address":{"id":"ba7e8e5c-15fb-4192-8169-cfeb5db86255","address":"13th Main Road, 746,1ST Floor, 7th Cross Rd, BTM 2nd Stage, Bengaluru, Karnataka 560068","lat":12.968743,"lng":77.6425058,"orderId":"f60fdda0-e5b3-4408-9bcd-5ec93a90cd38"}},{"id":"79b347ed-b19d-4c8e-b34f-909176f7ef2e","productId":"SKU_125","name":"Dorothy Page","status":"PENDING","awb":"18958543875","isDynamicPoint":false,"reachTime":0,"deliveryTime":0,"deliveryLat":0,"deliveryLng":0,"clusterId":null,"address":{"id":"93601b21-a995-411d-b7fd-328da6832ee6","address":"JP Nagara 5th Phase, 16th Cross, 100 Feet Ring Road, 26, 18th Main Rd, J. P. Nagar, Bengaluru, Karnataka 560078","lat":12.9064609,"lng":77.5980282,"orderId":"79b347ed-b19d-4c8e-b34f-909176f7ef2e"}},{"id":"fcc8b022-2aa3-420d-887a-41f4eda0dfb8","productId":"SKU_14","name":"Stella Navarro","status":"PENDING","awb":"77524280608","isDynamicPoint":false,"reachTime":0,"deliveryTime":0,"deliveryLat":0,"deliveryLng":0,"clusterId":null,"address":{"id":"ad94d3e4-6f6f-4d79-aa1d-aeda4e02262d","address":"776, 775, 16th Main Rd, BTM 2nd Stage, Kuvempu Nagar, Stage 2, BTM Layout, Bengaluru, Karnataka 560076","lat":12.9142382,"lng":77.60999559999999,"orderId":"fcc8b022-2aa3-420d-887a-41f4eda0dfb8"}},{"id":"173f6c7e-0b3f-460d-9739-defc92d2aaa3","productId":"SKU_62","name":"Jeanette Soria","status":"PENDING","awb":"65844601914","isDynamicPoint":false,"reachTime":0,"deliveryTime":0,"deliveryLat":0,"deliveryLng":0,"clusterId":null,"address":{"id":"f9ff30b5-6acc-41a2-a599-0cba95cac93c","address":"185, 7th Cross Rd, KAS Officers Colony, BTM 2nd Stage, BTM Layout, Bengaluru, Karnataka 560068","lat":12.912804,"lng":77.619596,"orderId":"173f6c7e-0b3f-460d-9739-defc92d2aaa3"}},{"id":"75e1b00c-baad-40f6-85aa-1df1234459da","productId":"SKU_40","name":"Wanda Adair","status":"PENDING","awb":"99735377344","isDynamicPoint":false,"reachTime":0,"deliveryTime":0,"deliveryLat":0,"deliveryLng":0,"clusterId":null,"address":{"id":"813c4449-33db-46aa-9b67-90dd127bae2f","address":"538/2, 10th A Main Road, 4th Block, 5th Block, Jayanagar, Bengaluru, Karnataka 560041","lat":12.9247847,"lng":77.58511279999999,"orderId":"75e1b00c-baad-40f6-85aa-1df1234459da"}},{"id":"64192f02-6eaa-4b4a-b1a6-fa843994737e","productId":"SKU_69","name":"Nan Ortiz","status":"PENDING","awb":"39602519967","isDynamicPoint":false,"reachTime":0,"deliveryTime":0,"deliveryLat":0,"deliveryLng":0,"clusterId":null,"address":{"id":"3584d3c3-6d0b-4122-a2f5-83d1c1f0b3a9","address":"Siddanna Layout, Banashankari Stage II, Banashankari, Bengaluru, Karnataka 560070","lat":12.9245901,"lng":77.5658971,"orderId":"64192f02-6eaa-4b4a-b1a6-fa843994737e"}},{"id":"803189f9-193a-40b1-bdbd-996592dc584e","productId":"SKU_8","name":"Ruth Edgecomb","status":"PENDING","awb":"21114170893","isDynamicPoint":false,"reachTime":0,"deliveryTime":0,"deliveryLat":0,"deliveryLng":0,"clusterId":null,"address":{"id":"3dbb3709-7d3d-48a7-9a58-818fc89653a9","address":"WJG8+X83, 1st Cross Rd, opposite to City Clinic, Zuzuvadi, Maruti Nagar, BTM 1st Stage, Bengaluru, Karnataka 560069","lat":12.927471,"lng":77.6160483,"orderId":"803189f9-193a-40b1-bdbd-996592dc584e"}},{"id":"3241dac5-483a-4b00-ad3c-8a51eb667fc1","productId":"SKU_119","name":"Lashay Bass","status":"PENDING","awb":"21356729480","isDynamicPoint":false,"reachTime":0,"deliveryTime":0,"deliveryLat":0,"deliveryLng":0,"clusterId":null,"address":{"id":"45d21c83-dc2f-4cf4-97ed-970ec1301cf6","address":"1st floor, opposite Mantri Apartment, NS Palya, BTM 2nd Stage, BTM Layout, Bengaluru, Karnataka 560076","lat":12.9096748,"lng":77.60686369999999,"orderId":"3241dac5-483a-4b00-ad3c-8a51eb667fc1"}},{"id":"d7cc2c3d-492f-47b2-b475-de435ea3f042","productId":"SKU_70","name":"Raymond Staples","status":"PENDING","awb":"82273634063","isDynamicPoint":false,"reachTime":0,"deliveryTime":0,"deliveryLat":0,"deliveryLng":0,"clusterId":null,"address":{"id":"cdecccad-72cf-4b62-8ff5-44f7947f0259","address":"WHF4+3GP, Outer Ring Rd, Near Popular Bajaj Showroom, Kathriguppe IV Phase, Banashankari 3rd Stage, Banashankari, Bengaluru, Karnataka 560085","lat":12.922937,"lng":77.5563051,"orderId":"d7cc2c3d-492f-47b2-b475-de435ea3f042"}},{"id":"4f37c660-6d9b-4862-9927-69a31684bd90","productId":"SKU_71","name":"Jonathan Mcneill","status":"PENDING","awb":"66564791986","isDynamicPoint":false,"reachTime":0,"deliveryTime":0,"deliveryLat":0,"deliveryLng":0,"clusterId":null,"address":{"id":"f7b0c9b0-bd3b-458e-8ed5-c49b0f76c7b1","address":"146, 6th C Main Road, Jaya Nagar 1st Block, 4th Block, Jayanagar, Bengaluru, Karnataka 560011","lat":12.9289482,"lng":77.5816667,"orderId":"4f37c660-6d9b-4862-9927-69a31684bd90"}},{"id":"2a3a60b7-eaa3-42a6-a7d7-1122d275704c","productId":"SKU_20","name":"Cynthia Jones","status":"PENDING","awb":"90278754856","isDynamicPoint":false,"reachTime":0,"deliveryTime":0,"deliveryLat":0,"deliveryLng":0,"clusterId":null,"address":{"id":"1a630023-a7e5-41c0-91db-dc4fb6ef94c8","address":"183, 28, 2nd Main Rd, 7th Block, Jayanagar, Bengaluru, Karnataka 560070","lat":12.9243335,"lng":77.5781094,"orderId":"2a3a60b7-eaa3-42a6-a7d7-1122d275704c"}},{"id":"3ed7a84f-c330-4863-a03a-1c14bf123623","productId":"SKU_147","name":"Eric Lewis","status":"PENDING","awb":"81867187981","isDynamicPoint":false,"reachTime":0,"deliveryTime":0,"deliveryLat":0,"deliveryLng":0,"clusterId":null,"address":{"id":"044fc11e-551f-4907-bd12-a8db6979cbee","address":"28, 7th Main Rd, NS Palya, Stage 2, BTM Layout, Bengaluru, Karnataka 560076","lat":12.9060295,"lng":77.6058389,"orderId":"3ed7a84f-c330-4863-a03a-1c14bf123623"}},{"id":"6bc52859-a1c2-47c5-9e84-f2cee92fbb43","productId":"SKU_125","name":"Martha Winkle","status":"PENDING","awb":"33358645027","isDynamicPoint":false,"reachTime":0,"deliveryTime":0,"deliveryLat":0,"deliveryLng":0,"clusterId":null,"address":{"id":"359f4510-9d49-4d69-92fb-e2a72d2fe269","address":"5, 100 Feet Ring Rd, opp. to Reliance Fresh, KEB Colony, New Gurappana Palya, BTM 1st Stage, Bengaluru, Karnataka 560029","lat":12.9164441,"lng":77.61078289999999,"orderId":"6bc52859-a1c2-47c5-9e84-f2cee92fbb43"}},{"id":"6b9a469c-1925-4ac0-bd86-0199dcad476d","productId":"SKU_10","name":"Joel Armstrong","status":"PENDING","awb":"97839976693","isDynamicPoint":false,"reachTime":0,"deliveryTime":0,"deliveryLat":0,"deliveryLng":0,"clusterId":null,"address":{"id":"4157b560-5adc-4bfe-bd1a-50aa2f5450bc","address":"2, 1st Main Rd, Mookambika Nagar, Dwaraka Nagar, Banashankari, Bengaluru, Karnataka 560085","lat":12.929846,"lng":77.5342996,"orderId":"6b9a469c-1925-4ac0-bd86-0199dcad476d"}},{"id":"5c4d4caa-092c-48e4-99e7-bce09d5bccae","productId":"SKU_49","name":"Kristina Gober","status":"PENDING","awb":"12931853129","isDynamicPoint":false,"reachTime":0,"deliveryTime":0,"deliveryLat":0,"deliveryLng":0,"clusterId":null,"address":{"id":"638a97de-f517-4f7c-9785-90117ef6a23b","address":"No 27, 27th cross, opp. Monotype, Banashankari Stage II, Bengaluru, Karnataka 560070","lat":12.9309768,"lng":77.5784623,"orderId":"5c4d4caa-092c-48e4-99e7-bce09d5bccae"}},{"id":"7315d885-498b-4962-90f5-40abfe336393","productId":"SKU_96","name":"Ruby Cables","status":"PENDING","awb":"62181967659","isDynamicPoint":false,"reachTime":0,"deliveryTime":0,"deliveryLat":0,"deliveryLng":0,"clusterId":null,"address":{"id":"d4b2e954-fac0-4c09-a65c-b8dd24e88a31","address":"28, 7th Main Rd, NS Palya, Stage 2, BTM Layout, Bengaluru, Karnataka 560076","lat":12.9060295,"lng":77.6058389,"orderId":"7315d885-498b-4962-90f5-40abfe336393"}},{"id":"1dd5506a-e4d0-4238-9f00-8f3ac22a7365","productId":"SKU_130","name":"Brittney Sliter","status":"PENDING","awb":"82243619274","isDynamicPoint":false,"reachTime":0,"deliveryTime":0,"deliveryLat":0,"deliveryLng":0,"clusterId":null,"address":{"id":"c62baa41-fda2-4da4-8ad0-f628eaffd2e6","address":"67, 1st Cross Rd, Industrial Area, Stage 2, BTM Layout, Bengaluru, Karnataka 560076","lat":12.908764,"lng":77.602993,"orderId":"1dd5506a-e4d0-4238-9f00-8f3ac22a7365"}},{"id":"83b1c4d6-2e95-4a85-a404-5af325024bf2","productId":"SKU_67","name":"Maria Shetler","status":"PENDING","awb":"95234201658","isDynamicPoint":false,"reachTime":0,"deliveryTime":0,"deliveryLat":0,"deliveryLng":0,"clusterId":null,"address":{"id":"685b2821-86e9-482e-b494-a0530ddda380","address":"82/7, Sapthagiri Complex, Krishna Nagar Industrial Layout, SG Palya Main Road, Near Christ University, Bengaluru, Karnataka 560034","lat":12.9335781,"lng":77.6073324,"orderId":"83b1c4d6-2e95-4a85-a404-5af325024bf2"}},{"id":"ac9ccb6d-427a-4128-95c2-300a0850c841","productId":"SKU_86","name":"John Bain","status":"PENDING","awb":"28591913757","isDynamicPoint":false,"reachTime":0,"deliveryTime":0,"deliveryLat":0,"deliveryLng":0,"clusterId":null,"address":{"id":"f88c3d6b-2c56-42cb-a74f-e3b291914491","address":"WMGV+QWH, Gear School Rd, Devarabisanahalli, Bellandur, Bengaluru, Karnataka 560103","lat":12.9276054,"lng":77.6947548,"orderId":"ac9ccb6d-427a-4128-95c2-300a0850c841"}},{"id":"33d9f4e7-f466-4194-896b-c7c223609286","productId":"SKU_8","name":"Mahalia Dafoe","status":"PENDING","awb":"90488696292","isDynamicPoint":false,"reachTime":0,"deliveryTime":0,"deliveryLat":0,"deliveryLng":0,"clusterId":null,"address":{"id":"adeee476-676d-4abe-8f05-a6b6a0eb3ded","address":"Shop no, 79, 2nd Main Rd, Kalasipalyam New Extension, Kalasipalya, Bengaluru, Karnataka 560002","lat":12.9624229,"lng":77.57167799999999,"orderId":"33d9f4e7-f466-4194-896b-c7c223609286"}},{"id":"5d340bd1-a0f0-4300-a187-2396f90db6f0","productId":"SKU_143","name":"Ed Hill","status":"PENDING","awb":"73233966731","isDynamicPoint":false,"reachTime":0,"deliveryTime":0,"deliveryLat":0,"deliveryLng":0,"clusterId":null,"address":{"id":"e51f10ea-3ed9-4e45-914b-744c8a570711","address":"1st Floor, 471,Kothanur, Kothnoor Main Rd, near Cassia Block, RBI Layout, JP Nagar 7th Phase, J. P. Nagar, Bengaluru, Karnataka 560078","lat":12.8914906,"lng":77.58226979999999,"orderId":"5d340bd1-a0f0-4300-a187-2396f90db6f0"}},{"id":"c6cfa131-eb68-460d-a2ac-b19f37fac55f","productId":"SKU_122","name":"Marisol Lamoureux","status":"PENDING","awb":"32365272837","isDynamicPoint":false,"reachTime":0,"deliveryTime":0,"deliveryLat":0,"deliveryLng":0,"clusterId":null,"address":{"id":"54d8054c-5807-442d-8205-a82084ae1ca9","address":"RJ Garden, No.37, Marathahalli Outer Ring Rd, 9845623510, Bengaluru, Karnataka 560037","lat":12.9606859,"lng":77.70140409999999,"orderId":"c6cfa131-eb68-460d-a2ac-b19f37fac55f"}},{"id":"89e68f68-2c3e-46e2-8cb8-6ccf4f27c2a3","productId":"SKU_123","name":"Michael Penson","status":"PENDING","awb":"62912509918","isDynamicPoint":false,"reachTime":0,"deliveryTime":0,"deliveryLat":0,"deliveryLng":0,"clusterId":null,"address":{"id":"91f92d95-5fd5-4e76-938a-745a8d9704bd","address":"4th A Main Road, 20, 6th Cross Rd, Dollar Layout, BTM 2nd Stage, Bengaluru, Karnataka 560076","lat":12.9117182,"lng":77.5956404,"orderId":"89e68f68-2c3e-46e2-8cb8-6ccf4f27c2a3"}},{"id":"58e18199-4bfc-407c-8b4c-095ee6d12943","productId":"SKU_99","name":"Brianna Turner","status":"PENDING","awb":"64025439154","isDynamicPoint":false,"reachTime":0,"deliveryTime":0,"deliveryLat":0,"deliveryLng":0,"clusterId":null,"address":{"id":"d544b661-b1ec-42a8-970c-b02b4af7ca22","address":"1st Floor, Inorbit Mall, EPIP, Whitefield, Bengaluru, Karnataka 560066","lat":12.9790794,"lng":77.72857619999999,"orderId":"58e18199-4bfc-407c-8b4c-095ee6d12943"}},{"id":"7a6db608-a024-4d48-8551-0c04832f5436","productId":"SKU_32","name":"William Miller","status":"PENDING","awb":"33476367077","isDynamicPoint":false,"reachTime":0,"deliveryTime":0,"deliveryLat":0,"deliveryLng":0,"clusterId":null,"address":{"id":"d6ad7e95-159c-429c-a249-bd03009967c3","address":"Aicobo Nagar, 1st Stage, BTM 1st Stage, Bengaluru, Karnataka 560029","lat":12.9177884,"lng":77.609935,"orderId":"7a6db608-a024-4d48-8551-0c04832f5436"}},{"id":"0c9209e8-4d1c-4158-a3ad-993ff5b7604a","productId":"SKU_63","name":"Raisa Wong","status":"PENDING","awb":"57516046870","isDynamicPoint":false,"reachTime":0,"deliveryTime":0,"deliveryLat":0,"deliveryLng":0,"clusterId":null,"address":{"id":"1c73833b-8b29-4545-aa93-7fadff65d430","address":"Cosmopolitan Club, Ground Floor, 22nd Cross Rd, Jayanagar 3rd Block, Jayanagar, Bengaluru, Karnataka 560011","lat":12.9333243,"lng":77.5852905,"orderId":"0c9209e8-4d1c-4158-a3ad-993ff5b7604a"}},{"id":"3b8ee95b-9bc5-42ef-87ca-0d9ed02544c9","productId":"SKU_6","name":"Robert Brown","status":"PENDING","awb":"44554053206","isDynamicPoint":false,"reachTime":0,"deliveryTime":0,"deliveryLat":0,"deliveryLng":0,"clusterId":null,"address":{"id":"28bb649f-120d-4a0f-a7ff-5a9e427dd9ae","address":"948, 16th Main Rd, BTM 2nd Stage, Kuvempu Nagar, Stage 2, BTM Layout, Bengaluru, Karnataka 560076","lat":12.9140983,"lng":77.6102212,"orderId":"3b8ee95b-9bc5-42ef-87ca-0d9ed02544c9"}},{"id":"17a77ed6-a5f5-4f46-93db-a03f84fb0623","productId":"SKU_78","name":"Matthew Kennedy","status":"PENDING","awb":"82922440234","isDynamicPoint":false,"reachTime":0,"deliveryTime":0,"deliveryLat":0,"deliveryLng":0,"clusterId":null,"address":{"id":"d2f0b79f-6cef-4d13-a10d-fb592ab02c08","address":"Whitefield, KIADB Export Promotion Industrial Area, Bengaluru, Karnataka 560066","lat":12.9889151,"lng":77.7277899,"orderId":"17a77ed6-a5f5-4f46-93db-a03f84fb0623"}},{"id":"4356c267-3c80-40f7-a9c3-c15cecbec26f","productId":"SKU_107","name":"Roy Patterson","status":"PENDING","awb":"91803043923","isDynamicPoint":false,"reachTime":0,"deliveryTime":0,"deliveryLat":0,"deliveryLng":0,"clusterId":null,"address":{"id":"5bc59791-80ff-4fbb-a6ef-bbd631de7be7","address":"opposite Dunkin Donuts, Kundalahalli, Brookefield, Bengaluru, Karnataka 560037","lat":12.9661561,"lng":77.71806029999999,"orderId":"4356c267-3c80-40f7-a9c3-c15cecbec26f"}},{"id":"0a36a032-90f2-48aa-92bc-d66a7461cb11","productId":"SKU_62","name":"Johnnie Broderick","status":"PENDING","awb":"14083127179","isDynamicPoint":false,"reachTime":0,"deliveryTime":0,"deliveryLat":0,"deliveryLng":0,"clusterId":null,"address":{"id":"a727638a-df3f-4ea7-9c84-603fe0fc8679","address":"BTM Layout 2nd Stage, KR Layout, JP Nagar Phase 6, J. P. Nagar, Bengaluru, Karnataka 560078","lat":12.9052573,"lng":77.5841502,"orderId":"0a36a032-90f2-48aa-92bc-d66a7461cb11"}},{"id":"8a70d926-eafc-4f75-b6f6-0b66cda1e3be","productId":"SKU_118","name":"Ethel Madsen","status":"PENDING","awb":"39544953267","isDynamicPoint":false,"reachTime":0,"deliveryTime":0,"deliveryLat":0,"deliveryLng":0,"clusterId":null,"address":{"id":"77f360a4-fc35-45cd-b61f-53cf75150def","address":"ITPL Main Rd, AECS Layout - C Block, AECS Layout, Brookefield, Bengaluru, Karnataka 560037","lat":12.963649,"lng":77.7175572,"orderId":"8a70d926-eafc-4f75-b6f6-0b66cda1e3be"}},{"id":"50b9f32b-fcde-482c-bb14-6cdb3426960e","productId":"SKU_4","name":"Sharon Mcmillan","status":"PENDING","awb":"82522336378","isDynamicPoint":false,"reachTime":0,"deliveryTime":0,"deliveryLat":0,"deliveryLng":0,"clusterId":null,"address":{"id":"d7534e8c-a885-414c-89cb-637df9afa096","address":"986, 5th Main Rd, Vishweshwaraiah Layout, Vijaya Bank Layout, Bommanahalli, Bengaluru, Karnataka 560076","lat":12.8900142,"lng":77.61346449999999,"orderId":"50b9f32b-fcde-482c-bb14-6cdb3426960e"}},{"id":"13e156e2-b35e-4037-a11d-b1b448afd6a7","productId":"SKU_61","name":"Mario Bianchi","status":"PENDING","awb":"73481013788","isDynamicPoint":false,"reachTime":0,"deliveryTime":0,"deliveryLat":0,"deliveryLng":0,"clusterId":null,"address":{"id":"8fba9679-d521-4fa1-a54d-ea95a7ab7b2c","address":"SHOP NO G4, BUILDING 534, 1ST CROSS, BLOCK 'B', AECS LAYOUT KUNDALAHALLI, BROOKFIELD, BENGALURU, Mahadevapura, B Block, M.P East, Bengaluru, Karnataka 560037","lat":12.9649261,"lng":77.7174515,"orderId":"13e156e2-b35e-4037-a11d-b1b448afd6a7"}},{"id":"cfb3afa4-2cce-4fd9-8786-d90f80879b2e","productId":"SKU_43","name":"Eric Owens","status":"PENDING","awb":"52824128945","isDynamicPoint":false,"reachTime":0,"deliveryTime":0,"deliveryLat":0,"deliveryLng":0,"clusterId":null,"address":{"id":"72b959cc-2f72-4da4-b867-992f7efdc940","address":"No 95, First Floor, opposite Vydehi Hospital, Whitefield, Vijayanagar, EPIP Zone, Whitefield, Bengaluru, Karnataka 560066","lat":12.976808,"lng":77.72712299999999,"orderId":"cfb3afa4-2cce-4fd9-8786-d90f80879b2e"}},{"id":"445eba5a-6030-479f-b6c6-3236fc3929ca","productId":"SKU_84","name":"Lloyd Fleming","status":"PENDING","awb":"80409746481","isDynamicPoint":false,"reachTime":0,"deliveryTime":0,"deliveryLat":0,"deliveryLng":0,"clusterId":null,"address":{"id":"0a1f4602-3ea1-44a1-a33e-4bbb115603cc","address":"278, 7th Main Rd, BTM 2nd Stage, BTM Layout, Bengaluru, Karnataka 560076","lat":12.9159838,"lng":77.6058841,"orderId":"445eba5a-6030-479f-b6c6-3236fc3929ca"}},{"id":"26eb7328-bbe0-4e8c-8d64-dd3177629332","productId":"SKU_150","name":"Joel Beck","status":"PENDING","awb":"99055414260","isDynamicPoint":false,"reachTime":0,"deliveryTime":0,"deliveryLat":0,"deliveryLng":0,"clusterId":null,"address":{"id":"877f245e-f896-4e07-832f-102f1dd8103f","address":"10-34, 6th Cross Rd, Rajasree Layout, Gandhi Nagar, Munnekollal, Bengaluru, Karnataka 560037","lat":12.9544891,"lng":77.7060163,"orderId":"26eb7328-bbe0-4e8c-8d64-dd3177629332"}},{"id":"b9cd7eeb-d324-4708-aeb9-1fc3d7afb82b","productId":"SKU_119","name":"Joshua Duke","status":"PENDING","awb":"20912544084","isDynamicPoint":false,"reachTime":0,"deliveryTime":0,"deliveryLat":0,"deliveryLng":0,"clusterId":null,"address":{"id":"778c5147-3196-4c78-a0bc-f123f713cfbc","address":"74, Graphite India Main Rd, Doddanakundi Industrial Area 2, Seetharampalya, Hoodi, Bengaluru, Karnataka 560048","lat":12.9671849,"lng":77.7169933,"orderId":"b9cd7eeb-d324-4708-aeb9-1fc3d7afb82b"}},{"id":"6a3eed79-b26b-4b36-afc2-60414b054224","productId":"SKU_43","name":"Catherine Sartoris","status":"PENDING","awb":"55271875930","isDynamicPoint":false,"reachTime":0,"deliveryTime":0,"deliveryLat":0,"deliveryLng":0,"clusterId":null,"address":{"id":"26d7f6b3-897b-4282-aa9d-9f42973e05cc","address":"153/1, Biere Street, Hagadur Main Rd, Whitefield, Bengaluru, Karnataka 560066","lat":12.9631375,"lng":77.7509451,"orderId":"6a3eed79-b26b-4b36-afc2-60414b054224"}},{"id":"5d7d1b15-1715-451c-8208-f9d61ca15b83","productId":"SKU_30","name":"Richard Linkous","status":"PENDING","awb":"54080903211","isDynamicPoint":false,"reachTime":0,"deliveryTime":0,"deliveryLat":0,"deliveryLng":0,"clusterId":null,"address":{"id":"ea8b1703-2a04-440d-9325-11d178baf27c","address":"90/4, Outer Ring Rd, Marathahalli Village, Marathahalli, Bengaluru, Karnataka 560037","lat":12.9497593,"lng":77.6991054,"orderId":"5d7d1b15-1715-451c-8208-f9d61ca15b83"}},{"id":"760a1328-997b-4142-913e-e00a2d90d926","productId":"SKU_30","name":"Miyoko Blackwell","status":"PENDING","awb":"84744793386","isDynamicPoint":false,"reachTime":0,"deliveryTime":0,"deliveryLat":0,"deliveryLng":0,"clusterId":null,"address":{"id":"a62ed934-1260-4d1c-84cd-1866c6f5091d","address":"560037, AECS Layout - C Block, AECS Layout, Marathahalli, Bengaluru, Karnataka 560037","lat":12.9636061,"lng":77.71561369999999,"orderId":"760a1328-997b-4142-913e-e00a2d90d926"}},{"id":"59b51ddb-bc6b-4d07-87a2-43298d5e89b2","productId":"SKU_10","name":"Phillip Gate","status":"PENDING","awb":"72729144723","isDynamicPoint":false,"reachTime":0,"deliveryTime":0,"deliveryLat":0,"deliveryLng":0,"clusterId":null,"address":{"id":"6cf8d814-56a4-4ce5-a7cb-d4b2de4d5329","address":"Anand Nagar, Sanjay Nagar, Marathahalli, Bengaluru, Karnataka 560037","lat":12.9642353,"lng":77.7020419,"orderId":"59b51ddb-bc6b-4d07-87a2-43298d5e89b2"}},{"id":"6739b609-7827-42cd-a699-8638e18bd7db","productId":"SKU_138","name":"Sara Trojanowski","status":"PENDING","awb":"26931651393","isDynamicPoint":false,"reachTime":0,"deliveryTime":0,"deliveryLat":0,"deliveryLng":0,"clusterId":null,"address":{"id":"aa828f0b-4a1d-47f3-88eb-de78b9733105","address":"French Loaf 1 floor, CRM Sowbhaga annex Marathahalli main road, HAL Old Airport Rd, Bengaluru, Karnataka 560037","lat":12.956422,"lng":77.7098881,"orderId":"6739b609-7827-42cd-a699-8638e18bd7db"}},{"id":"28ddb42a-04a2-4e26-a994-e682235929d3","productId":"SKU_21","name":"Marjorie Petersen","status":"PENDING","awb":"56263895313","isDynamicPoint":false,"reachTime":0,"deliveryTime":0,"deliveryLat":0,"deliveryLng":0,"clusterId":null,"address":{"id":"1c64a318-034b-459c-9937-7c78065ab031","address":"Kaverappa Layout, Kadubeesanahalli, Kadabeesanahalli, Bengaluru, Karnataka 560103","lat":12.933996,"lng":77.6979885,"orderId":"28ddb42a-04a2-4e26-a994-e682235929d3"}},{"id":"9e3e3401-e44d-4e69-8ad7-be4c3b37681f","productId":"SKU_99","name":"Kelley Fowler","status":"PENDING","awb":"95556730822","isDynamicPoint":false,"reachTime":0,"deliveryTime":0,"deliveryLat":0,"deliveryLng":0,"clusterId":null,"address":{"id":"42b8f8c9-f851-469c-bac6-ccf39522e46f","address":"XPQ9+CCH, Basavanna Nagar Main Rd, Whitefield, Basavanna Nagar, Krishnarajapura, Bengaluru, Karnataka 560048","lat":12.992166,"lng":77.71780969999999,"orderId":"9e3e3401-e44d-4e69-8ad7-be4c3b37681f"}},{"id":"d57c86a4-4a82-4c97-b6e2-e37c877831b9","productId":"SKU_109","name":"Millicent Grenier","status":"PENDING","awb":"22413720741","isDynamicPoint":false,"reachTime":0,"deliveryTime":0,"deliveryLat":0,"deliveryLng":0,"clusterId":null,"address":{"id":"d6fdaa52-0f76-4c6a-a9a8-a98505765974","address":"3rd cross, Chinnapanahalli Main Rd, Kundalahalli Colony, Brookefield, Bengaluru, Karnataka 560037","lat":12.9680409,"lng":77.70454149999999,"orderId":"d57c86a4-4a82-4c97-b6e2-e37c877831b9"}},{"id":"c9641f21-e8b4-497b-98a0-23437c997197","productId":"SKU_99","name":"Nancy Mcclinsey","status":"PENDING","awb":"84134942360","isDynamicPoint":false,"reachTime":0,"deliveryTime":0,"deliveryLat":0,"deliveryLng":0,"clusterId":null,"address":{"id":"7ee81885-5381-4fbb-8290-08ddcd689cd9","address":"VJV9+5XF, Devarachikkanahalli Main Rd, Maruthi Layout, Royal Shelters, Stage 4, Bommanahalli, Bengaluru, Karnataka 560076","lat":12.8932937,"lng":77.6199329,"orderId":"c9641f21-e8b4-497b-98a0-23437c997197"}},{"id":"ded7bf27-acb5-4268-9a89-b46bea34df73","productId":"SKU_58","name":"Michael Felipe","status":"PENDING","awb":"75935511881","isDynamicPoint":false,"reachTime":0,"deliveryTime":0,"deliveryLat":0,"deliveryLng":0,"clusterId":null,"address":{"id":"1e75c633-6901-47f1-9d44-230b7ef9f367","address":"Compound, 32/30, Varthur Rd, Spice Garden, Silver Springs Layout, Marathahalli, Bengaluru, Karnataka 560037","lat":12.9574268,"lng":77.70904320000001,"orderId":"ded7bf27-acb5-4268-9a89-b46bea34df73"}},{"id":"60e107a9-8484-4df7-93ca-a1d9cce1c0b9","productId":"SKU_1","name":"Frederick Delang","status":"PENDING","awb":"70028349404","isDynamicPoint":false,"reachTime":0,"deliveryTime":0,"deliveryLat":0,"deliveryLng":0,"clusterId":null,"address":{"id":"34a942f5-78e0-4691-833a-abe684682303","address":"VP Rd, Old Madiwala, Madiwala, 1st Stage, BTM Layout, Bengaluru, Karnataka 560029","lat":12.9193316,"lng":77.6179717,"orderId":"60e107a9-8484-4df7-93ca-a1d9cce1c0b9"}},{"id":"7aab924f-2744-424d-9ad0-41f531b01166","productId":"SKU_22","name":"Patricia Kucera","status":"PENDING","awb":"82414396469","isDynamicPoint":false,"reachTime":0,"deliveryTime":0,"deliveryLat":0,"deliveryLng":0,"clusterId":null,"address":{"id":"5b5db704-dcb4-4653-9ed7-93cda26d2584","address":"Plot 25, 1st Floor, 6th Main, Mico Layout, BTM Layout 2nd Stage, Bengaluru, Karnataka 560076","lat":12.9127367,"lng":77.6058102,"orderId":"7aab924f-2744-424d-9ad0-41f531b01166"}},{"id":"bec190b3-5a1e-4c3c-9229-844105f4c7bc","productId":"SKU_86","name":"David Reyes","status":"PENDING","awb":"25268909871","isDynamicPoint":false,"reachTime":0,"deliveryTime":0,"deliveryLat":0,"deliveryLng":0,"clusterId":null,"address":{"id":"4a615da4-b742-4029-8e4e-5307a2750203","address":"120/A, Pattalamma Temple Rd, opposite R. R. Gold palace, Jaya Nagar 1st Block, Jayanagar 3rd Block, Jayanagar, Bengaluru, Karnataka 560011","lat":12.9340544,"lng":77.5825086,"orderId":"bec190b3-5a1e-4c3c-9229-844105f4c7bc"}},{"id":"490dbc55-1b7c-43ac-aaab-56e2b19dcb6b","productId":"SKU_38","name":"Dean Skibbe","status":"PENDING","awb":"87616249167","isDynamicPoint":false,"reachTime":0,"deliveryTime":0,"deliveryLat":0,"deliveryLng":0,"clusterId":null,"address":{"id":"0697042c-216a-43d7-8f61-b35138ee5f30","address":"No.120, kasthuri Nivasa, Byrasandra, C V Raman Nagar, Bengaluru, Karnataka 560093","lat":12.980811,"lng":77.6663434,"orderId":"490dbc55-1b7c-43ac-aaab-56e2b19dcb6b"}},{"id":"a227367b-b692-4692-b664-3cb580dec516","productId":"SKU_116","name":"Esther Schultz","status":"PENDING","awb":"33171347367","isDynamicPoint":false,"reachTime":0,"deliveryTime":0,"deliveryLat":0,"deliveryLng":0,"clusterId":null,"address":{"id":"9e2fc26c-7ada-48de-90d9-d4ebd0dd453e","address":"Shop No. 1632, Srinivasnagar, Banashankari, Bengaluru, Karnataka 560050","lat":12.9385317,"lng":77.55452799999999,"orderId":"a227367b-b692-4692-b664-3cb580dec516"}},{"id":"3929b2b0-8b13-4746-bbe5-7181e7b0ce90","productId":"SKU_148","name":"Eric Peterson","status":"PENDING","awb":"91179762438","isDynamicPoint":false,"reachTime":0,"deliveryTime":0,"deliveryLat":0,"deliveryLng":0,"clusterId":null,"address":{"id":"58b0c1a1-4b04-4dd7-adfd-5b02fc63aa0b","address":"437, 38th B Cross Rd, Jayanagara 9th Block, Jayanagar, Bengaluru, Karnataka 560041","lat":12.9208488,"lng":77.59365079999999,"orderId":"3929b2b0-8b13-4746-bbe5-7181e7b0ce90"}},{"id":"bec2ec11-4389-4594-8f74-5dcb3fcdf7a2","productId":"SKU_29","name":"James Graham","status":"PENDING","awb":"32562104909","isDynamicPoint":false,"reachTime":0,"deliveryTime":0,"deliveryLat":0,"deliveryLng":0,"clusterId":null,"address":{"id":"1692ca59-5565-4b5e-b693-e2c72d32e1db","address":"590, 445/1, 29th Main Rd, BTM 2nd Stage, Munivenkatppa Layout, BTM Layout, Bengaluru, Karnataka 560076","lat":12.9082447,"lng":77.61364669999999,"orderId":"bec2ec11-4389-4594-8f74-5dcb3fcdf7a2"}},{"id":"2ca38353-1fb9-4c94-a16a-174e11c2c590","productId":"SKU_65","name":"Ronald Osmun","status":"PENDING","awb":"22160230326","isDynamicPoint":false,"reachTime":0,"deliveryTime":0,"deliveryLat":0,"deliveryLng":0,"clusterId":null,"address":{"id":"2af6a2e3-56b2-450e-968e-0abb7a6e56ec","address":"ayyappa temple, 15th main,madiwala behind, Madiwala, BTM 1st Stage, Bengaluru, Karnataka 560029","lat":12.9211015,"lng":77.6167844,"orderId":"2ca38353-1fb9-4c94-a16a-174e11c2c590"}},{"id":"7594f291-e578-4431-bb8e-4c3decd07d0c","productId":"SKU_12","name":"Berta Hackney","status":"PENDING","awb":"52661720900","isDynamicPoint":false,"reachTime":0,"deliveryTime":0,"deliveryLat":0,"deliveryLng":0,"clusterId":null,"address":{"id":"4cf3a22a-962e-41bc-bf2c-bf0858725cb8","address":"15, 24th Main Rd, 5th Phase, Annaiah Reddy Layout, JP Nagar 7th Phase, J. P. Nagar, Bengaluru, Karnataka 560078","lat":12.9006797,"lng":77.5856695,"orderId":"7594f291-e578-4431-bb8e-4c3decd07d0c"}},{"id":"5d13bcab-e1a0-4ca2-b4c1-bcedd1c848ea","productId":"SKU_48","name":"Pamela Thomasson","status":"PENDING","awb":"35873584418","isDynamicPoint":false,"reachTime":0,"deliveryTime":0,"deliveryLat":0,"deliveryLng":0,"clusterId":null,"address":{"id":"b8bf81cf-10b0-49b7-bcd7-4192a44141a5","address":"Chocolate Factory Rd, Tavarekere, Maruti Nagar, 1st Stage, BTM 1st Stage, Bengaluru, Karnataka 560029","lat":12.9235496,"lng":77.611932,"orderId":"5d13bcab-e1a0-4ca2-b4c1-bcedd1c848ea"}},{"id":"f7dd8ba9-c075-4f2b-a81d-6526c3ff28cd","productId":"SKU_37","name":"Evelyn Scott","status":"PENDING","awb":"77051829260","isDynamicPoint":false,"reachTime":0,"deliveryTime":0,"deliveryLat":0,"deliveryLng":0,"clusterId":null,"address":{"id":"6fd8cbea-4f3b-494f-a520-5eaa46a9e984","address":"Manjunatha Complex Ground flore, 22nd Main Rd, Banashankari, Bengaluru, Karnataka 560076","lat":12.9385824,"lng":77.5532742,"orderId":"f7dd8ba9-c075-4f2b-a81d-6526c3ff28cd"}},{"id":"bde22782-4ef1-4e57-8a27-b045b91bade5","productId":"SKU_95","name":"Sean Silva","status":"PENDING","awb":"29395675119","isDynamicPoint":false,"reachTime":0,"deliveryTime":0,"deliveryLat":0,"deliveryLng":0,"clusterId":null,"address":{"id":"417ae182-1e1f-4dcb-8252-d020c79b71d5","address":"12, 2nd Cross Rd, Tavarekere, Cashier Layout, 1st Stage, Tavarakerei Tacarajeri, Bengaluru, Karnataka 560078","lat":12.9259157,"lng":77.6102168,"orderId":"bde22782-4ef1-4e57-8a27-b045b91bade5"}},{"id":"380095e6-40c5-44db-b7bc-5968719146fe","productId":"SKU_123","name":"William Kitchens","status":"PENDING","awb":"21547127199","isDynamicPoint":false,"reachTime":0,"deliveryTime":0,"deliveryLat":0,"deliveryLng":0,"clusterId":null,"address":{"id":"965dd5c0-f096-444b-af28-75efaf49f495","address":"511, 28th Main Rd, 9th Cross, EWS Colony, Stage 2, BTM Layout, Bengaluru, Karnataka 560076","lat":12.9087984,"lng":77.61232079999999,"orderId":"380095e6-40c5-44db-b7bc-5968719146fe"}},{"id":"66b7e192-7638-4d41-9b91-b4d788e1ebd5","productId":"SKU_30","name":"Florinda Chappell","status":"PENDING","awb":"40998935588","isDynamicPoint":false,"reachTime":0,"deliveryTime":0,"deliveryLat":0,"deliveryLng":0,"clusterId":null,"address":{"id":"f00b250d-9e34-48fb-83a2-14808b010a15","address":"Number 25, 14th Main Rd, Sector 5, Sector 4, HSR Layout, Bengaluru, Karnataka 560102","lat":12.9172202,"lng":77.6382173,"orderId":"66b7e192-7638-4d41-9b91-b4d788e1ebd5"}},{"id":"e377e3dc-d0a8-4f1e-9638-545442f7f598","productId":"SKU_101","name":"Edmund Baldwin","status":"PENDING","awb":"75111712160","isDynamicPoint":false,"reachTime":0,"deliveryTime":0,"deliveryLat":0,"deliveryLng":0,"clusterId":null,"address":{"id":"cfe66edd-6d81-4e56-91aa-530e17294045","address":"5 4th Cross, Maruthi Nagar, Behind Ayyappa Temple, 1st Stage, BTM, Somasundarapalaya, 1st Stage, BTM Layout, Bengaluru, Karnataka 560068","lat":12.9265729,"lng":77.6140696,"orderId":"e377e3dc-d0a8-4f1e-9638-545442f7f598"}},{"id":"a7c0a9e5-03e7-4569-91d2-f0eed2ba550a","productId":"SKU_92","name":"Lula Nixon","status":"PENDING","awb":"90824727970","isDynamicPoint":false,"reachTime":0,"deliveryTime":0,"deliveryLat":0,"deliveryLng":0,"clusterId":null,"address":{"id":"90d24bdb-14e9-4144-95aa-2667ca696a91","address":"76, 15th Main Rd, JHCS Layout, J P Nagar Phase 5, J. P. Nagar, Bengaluru, Karnataka 560078","lat":12.9049041,"lng":77.5918771,"orderId":"a7c0a9e5-03e7-4569-91d2-f0eed2ba550a"}},{"id":"930ed1f3-cd0e-4e4f-9771-a616362d3382","productId":"SKU_114","name":"Deborah Mattingly","status":"PENDING","awb":"77417338259","isDynamicPoint":false,"reachTime":0,"deliveryTime":0,"deliveryLat":0,"deliveryLng":0,"clusterId":null,"address":{"id":"a93a04d4-2652-4924-b6b3-95a5afad2f63","address":"Near Munekolala bus Stand, behind Laxmi Narayan Temple, Bengaluru, Karnataka 560037","lat":12.9495776,"lng":77.6995122,"orderId":"930ed1f3-cd0e-4e4f-9771-a616362d3382"}},{"id":"a32fd8d5-96c7-4a43-8dc6-0f0878981f2b","productId":"SKU_87","name":"Brenda Bold","status":"PENDING","awb":"64132069852","isDynamicPoint":false,"reachTime":0,"deliveryTime":0,"deliveryLat":0,"deliveryLng":0,"clusterId":null,"address":{"id":"3ba66be4-6dbb-49c7-ac1d-603a7e235a07","address":"56/1, Sri Krishna Towers, 9th Main Rd, 5th Block, Jayanagar, Bengaluru, Karnataka 560041","lat":12.9355299,"lng":77.6332074,"orderId":"a32fd8d5-96c7-4a43-8dc6-0f0878981f2b"}},{"id":"ff587879-a23b-42ee-a6a1-8d21c132a394","productId":"SKU_118","name":"Roy Roland","status":"PENDING","awb":"68504320445","isDynamicPoint":false,"reachTime":0,"deliveryTime":0,"deliveryLat":0,"deliveryLng":0,"clusterId":null,"address":{"id":"c3ae62c4-fd7a-4d32-a6ef-ec9aeda59c4a","address":"Prestige White Meadows, Whitefield, Sathya Sai Layout, Bengaluru, Karnataka 560066","lat":12.9748355,"lng":77.7512516,"orderId":"ff587879-a23b-42ee-a6a1-8d21c132a394"}},{"id":"c9543ff6-3c98-4081-9045-2ca672a1602b","productId":"SKU_14","name":"Pamela Wallerich","status":"PENDING","awb":"75175562813","isDynamicPoint":false,"reachTime":0,"deliveryTime":0,"deliveryLat":0,"deliveryLng":0,"clusterId":null,"address":{"id":"0e15dc2b-d68d-42e5-b323-8348e95f1dc0","address":"No.15, Vivekananda Layout, Opposite Innovative Multiplex, near Biryani Zone, Marathahalli, , Hyderabadi Dum Biryani Restaurant, Marathahalli, Bengaluru, Karnataka 560037","lat":12.9522009,"lng":77.7002645,"orderId":"c9543ff6-3c98-4081-9045-2ca672a1602b"}},{"id":"5d77ad69-3368-487c-9568-4d9cd3202b61","productId":"SKU_40","name":"Lindsay Hunt","status":"PENDING","awb":"91180867105","isDynamicPoint":false,"reachTime":0,"deliveryTime":0,"deliveryLat":0,"deliveryLng":0,"clusterId":null,"address":{"id":"a178442f-2181-4a22-a5b1-65e8f72e08f8","address":"20/5, Panathur Junction, Outer Ring Road, Kaverappa Layout, Marathahalli, East Bangalore, Bengaluru, Karnataka 560103","lat":12.9399931,"lng":77.6962218,"orderId":"5d77ad69-3368-487c-9568-4d9cd3202b61"}},{"id":"5f3f31b4-1128-4d93-803f-7c6d9f8890b1","productId":"SKU_70","name":"Mark Graves","status":"PENDING","awb":"36864216638","isDynamicPoint":false,"reachTime":0,"deliveryTime":0,"deliveryLat":0,"deliveryLng":0,"clusterId":null,"address":{"id":"64f6a027-c4e7-41ea-a446-1157bd9c9d22","address":"148/2 20th Main Rd, 2nd Cross Rd, Aicobo Nagar, 1st Stage, BTM 1st Stage, Bengaluru, Karnataka 560029","lat":12.9176922,"lng":77.612642,"orderId":"5f3f31b4-1128-4d93-803f-7c6d9f8890b1"}},{"id":"9f0229a9-815f-4d01-8ac0-9456f4c367b3","productId":"SKU_131","name":"Jennifer Arnt","status":"PENDING","awb":"82676422523","isDynamicPoint":false,"reachTime":0,"deliveryTime":0,"deliveryLat":0,"deliveryLng":0,"clusterId":null,"address":{"id":"cfe85af2-9296-4af0-92b1-5be2bfc505b2","address":"1st Cross Rd, BEML Layout 6th Stage, BEML Layout, Brookefield, Bengaluru, Karnataka 560066","lat":12.9599402,"lng":77.7170947,"orderId":"9f0229a9-815f-4d01-8ac0-9456f4c367b3"}},{"id":"aec8efe7-ff77-47bb-b7e5-17ce9a9fe31e","productId":"SKU_73","name":"Kristy Lopez","status":"PENDING","awb":"84957636783","isDynamicPoint":false,"reachTime":0,"deliveryTime":0,"deliveryLat":0,"deliveryLng":0,"clusterId":null,"address":{"id":"9a5d637a-56c5-47a9-96e9-ed067bca474c","address":"95, opp. Vydehi Hospital, Whitefield, EPIP Zone, Bengaluru, Karnataka 560066","lat":12.976808,"lng":77.72712299999999,"orderId":"aec8efe7-ff77-47bb-b7e5-17ce9a9fe31e"}},{"id":"e02be259-6e02-4090-9166-fa0fe1569af4","productId":"SKU_30","name":"Clifford Ness","status":"PENDING","awb":"36324891028","isDynamicPoint":false,"reachTime":0,"deliveryTime":0,"deliveryLat":0,"deliveryLng":0,"clusterId":null,"address":{"id":"19c810d1-d706-47a3-8aa1-e40a979d4f2e","address":"Plot No 75, 8th Rd, Whitefield, EPIP Zone, Bengaluru, Karnataka 560066","lat":12.9788016,"lng":77.72830789999999,"orderId":"e02be259-6e02-4090-9166-fa0fe1569af4"}},{"id":"b2a61123-fc46-4456-881d-3d3c3efb6823","productId":"SKU_7","name":"Monica Medford","status":"PENDING","awb":"50022743893","isDynamicPoint":false,"reachTime":0,"deliveryTime":0,"deliveryLat":0,"deliveryLng":0,"clusterId":null,"address":{"id":"6b969f7d-274d-49c0-990d-9ad230be1fff","address":"Sri Ananya Plaza, Jayanti Nagar, Horamavu, Bengaluru, Karnataka 560043","lat":13.0289917,"lng":77.664337,"orderId":"b2a61123-fc46-4456-881d-3d3c3efb6823"}},{"id":"31975dd7-66b4-493b-beba-295c2c4d02ab","productId":"SKU_58","name":"Marty Garnett","status":"PENDING","awb":"41896686757","isDynamicPoint":false,"reachTime":0,"deliveryTime":0,"deliveryLat":0,"deliveryLng":0,"clusterId":null,"address":{"id":"da8bf5b2-beee-4b4c-9765-68aef2b4ae76","address":"Shop no 3, Venkata subbaia complex, ITPL Road, Nallurahalli Main Rd, Bengaluru, Karnataka 560066","lat":12.9670628,"lng":77.73378,"orderId":"31975dd7-66b4-493b-beba-295c2c4d02ab"}},{"id":"4a71d037-008a-4bb4-9b38-b4d4dc7accc6","productId":"SKU_11","name":"Charles Vega","status":"PENDING","awb":"28869354275","isDynamicPoint":false,"reachTime":0,"deliveryTime":0,"deliveryLat":0,"deliveryLng":0,"clusterId":null,"address":{"id":"5a45be5e-c766-4749-926e-3d39c98010a9","address":"XP79+V5M, AECS Layout - C Block, AECS Layout, Marathahalli, Bengaluru, Karnataka 560037","lat":12.9636061,"lng":77.71561369999999,"orderId":"4a71d037-008a-4bb4-9b38-b4d4dc7accc6"}},{"id":"43d47221-bf19-4be1-a3c9-5ae0e036c288","productId":"SKU_67","name":"Melissa Benbow","status":"PENDING","awb":"15999947447","isDynamicPoint":false,"reachTime":0,"deliveryTime":0,"deliveryLat":0,"deliveryLng":0,"clusterId":null,"address":{"id":"0bb8c3d0-f8f6-4be5-95f9-70fd8a666264","address":"No 95, First Floor, opposite Vydehi Hospital, Whitefield, Vijayanagar, EPIP Zone, Whitefield, Bengaluru, Karnataka 560066","lat":12.976808,"lng":77.72712299999999,"orderId":"43d47221-bf19-4be1-a3c9-5ae0e036c288"}},{"id":"a34afaf0-cb67-436f-b664-030f8e78b70f","productId":"SKU_53","name":"Anne Anderson","status":"PENDING","awb":"23055961640","isDynamicPoint":false,"reachTime":0,"deliveryTime":0,"deliveryLat":0,"deliveryLng":0,"clusterId":null,"address":{"id":"923e3d6b-9142-44e2-9268-9289c9e44c7c","address":"XP88+VJR, ITPL Main Rd, Beside Cake Dilim, AECS Layout, Brookefield, Bengaluru, Karnataka 560037","lat":12.9920507,"lng":77.7198425,"orderId":"a34afaf0-cb67-436f-b664-030f8e78b70f"}},{"id":"bdbcce5e-1b56-443e-88d6-deea9900b9bb","productId":"SKU_13","name":"Brian Pina","status":"PENDING","awb":"96419046268","isDynamicPoint":false,"reachTime":0,"deliveryTime":0,"deliveryLat":0,"deliveryLng":0,"clusterId":null,"address":{"id":"1f6c1dca-664c-44ca-9b28-543baa0f2cc0","address":"Opposite SAP Labs EPIP, Industrial Estate, 136/137, Rd Number 2, EPIP Zone, Brookefield, Bengaluru, Karnataka 560066","lat":12.9781258,"lng":77.7103594,"orderId":"bdbcce5e-1b56-443e-88d6-deea9900b9bb"}},{"id":"a7954b8c-07d2-4367-b316-0b7b1d1e8498","productId":"SKU_124","name":"Robert Green","status":"PENDING","awb":"12352401740","isDynamicPoint":false,"reachTime":0,"deliveryTime":0,"deliveryLat":0,"deliveryLng":0,"clusterId":null,"address":{"id":"6da1a936-3fa7-4a7e-849c-b542bd6facfe","address":"XP9X+C65, 3rd Cross Rd, Whitefield, Dodsworth Layout, Bengaluru, Karnataka 560066","lat":12.9693141,"lng":77.7480801,"orderId":"a7954b8c-07d2-4367-b316-0b7b1d1e8498"}},{"id":"2ef041ad-5b96-487b-b2ab-8b36a16cbd75","productId":"SKU_142","name":"William Travelstead","status":"PENDING","awb":"95197630407","isDynamicPoint":false,"reachTime":0,"deliveryTime":0,"deliveryLat":0,"deliveryLng":0,"clusterId":null,"address":{"id":"8443d63c-99cb-46b1-937c-2c2f79ee0b26","address":"Door No 95, First Floor, Broadway Building, Opp Vaidehi Hospital, Whitefield, EPIP Zone Area, Bengaluru, Karnataka 560066","lat":12.976808,"lng":77.72712299999999,"orderId":"2ef041ad-5b96-487b-b2ab-8b36a16cbd75"}},{"id":"81cff638-6de6-40a7-82a0-7e46dae83fb9","productId":"SKU_23","name":"Dwayne Leader","status":"PENDING","awb":"29077477058","isDynamicPoint":false,"reachTime":0,"deliveryTime":0,"deliveryLat":0,"deliveryLng":0,"clusterId":null,"address":{"id":"3b8c19f6-15bb-4b5a-adee-b1428544a924","address":"49, 6th Main Rd, Vaikuntam Layout, Lakshminarayana Pura, Kundalahalli, Munnekollal, Bengaluru, Karnataka 560037","lat":12.9602673,"lng":77.7136974,"orderId":"81cff638-6de6-40a7-82a0-7e46dae83fb9"}},{"id":"404e552a-c12d-41cb-9784-40e7a00d4001","productId":"SKU_122","name":"Matthew Clark","status":"PENDING","awb":"33930771502","isDynamicPoint":false,"reachTime":0,"deliveryTime":0,"deliveryLat":0,"deliveryLng":0,"clusterId":null,"address":{"id":"37b64edd-17c8-462c-8634-0ab6cd69a2c9","address":"XMRP+4RC, Mahadevapura, Bengaluru, Karnataka 560048","lat":12.9879659,"lng":77.6895248,"orderId":"404e552a-c12d-41cb-9784-40e7a00d4001"}},{"id":"05a438cd-725f-46a6-978f-6301ed4fcd4f","productId":"SKU_19","name":"Kathleen Kulesa","status":"PENDING","awb":"33730902298","isDynamicPoint":false,"reachTime":0,"deliveryTime":0,"deliveryLat":0,"deliveryLng":0,"clusterId":null,"address":{"id":"335012a5-83ae-416d-b44a-01f37791af46","address":"Whitefield Main Rd Level 2, Phoenix Market City Mall, Bengaluru, Karnataka 560048","lat":12.9958017,"lng":77.6963968,"orderId":"05a438cd-725f-46a6-978f-6301ed4fcd4f"}},{"id":"7762d67d-bf51-4b7e-9e92-b9ac0a59d12b","productId":"SKU_91","name":"Angela Wren","status":"PENDING","awb":"77475504478","isDynamicPoint":false,"reachTime":0,"deliveryTime":0,"deliveryLat":0,"deliveryLng":0,"clusterId":null,"address":{"id":"4095cf9d-dcca-4d07-83ec-5e8a8b8e6eda","address":"35, Varthur Rd, Lakshminarayana Pura, AECS Layout, Marathahalli, Bengaluru, Karnataka 560037","lat":12.9583095,"lng":77.70928099999999,"orderId":"7762d67d-bf51-4b7e-9e92-b9ac0a59d12b"}},{"id":"4ffc12a7-1c39-45d6-8025-a110053defb9","productId":"SKU_3","name":"Dale Curtis","status":"PENDING","awb":"25030756120","isDynamicPoint":false,"reachTime":0,"deliveryTime":0,"deliveryLat":0,"deliveryLng":0,"clusterId":null,"address":{"id":"d42d6299-ddc2-4768-b28f-1cf9d49be0ae","address":"Ground floor, A square plaza, ITPL Main Rd, Brookefield, Bengaluru, Karnataka 560037","lat":12.9922038,"lng":77.7169443,"orderId":"4ffc12a7-1c39-45d6-8025-a110053defb9"}},